- ap: 9096
  img:  'http://lh5.ggpht.com/4DJAFPeZ_w65Km7VDnsbOqouQaeBuPuxA0KHPQToT_B6o1hBxzdu3kn89UhHgv22Ygj52Fx9QqcbzOytuw'
  lat: 40.100078
  level: 8
  lon: -88.250683
  name:  'Brian Clark Memorial Plaque'
- ap: 8722
  img:  'http://lh6.ggpht.com/yjfa0jJLjsfLRf9Zn9iafMp3MuIhgCi0WiOCF8GqTGiGvzEnsPGrFa0H1n-uzWhVehLbt44ShthsA32VzHd5iQ'
  lat: 40.099737
  level: 8
  lon: -88.251157
  name:  'Tyler Van Atkins Memorial'
- ap: 8722
  img:  'http://lh6.ggpht.com/qSCp5fQMlyCQ-GOAgiSFy5gaHJei705Pa3eOlJiYO5wGjZTYtjA8q7QWWfAWcLKjxZSaFiMfXOPR8SO7rWU'
  lat: 40.099353
  level: 8
  lon: -88.251876
  name:  'Raymond B. Cattell Memorial'
- ap: 8159
  img:  'http://lh3.ggpht.com/rUgM7jkTqL0VHxvsSW0yWuNJF5UrU62ITflghfn4PfKjn6L4WGz0ALkv98fc_q9dmK9SSpU1PXIawGvcRwE'
  lat: 40.098246
  level: 8
  lon: -88.251974
  name:  'Hessel Park'
- ap: 7747
  img:  'http://lh4.ggpht.com/vKgqIecJshMQxrhO-ZhMjcIyARuJdyU63wKfzAG0wouZex6LVzO46Qi5zM1N3Jx8xyantDFk9sQGsSEBhb-y'
  lat: 40.101327
  level: 5
  lon: -88.251412
  name:  'Zeus Memorial'
- ap: 7897
  img:  'http://lh6.ggpht.com/5CDidk0pqfUtSW_Yqouuf3diX8drdMu9DoT728QpSz8q6A-WxNhT0yLcgM_7gGpyIAeXrHiTkIzzaVJFgnN9WA'
  lat: 40.099852
  level: 7
  lon: -88.251947
  name:  'Our Friend Tim Palmer'
- ap: 7035
  img:  'http://lh4.ggpht.com/B_I1b0Jy3vW41RX8jjCNPP68AULplU0Pf8ddolyKmpEWCfBVShQkmjF1HfTPzDjmBBQGgOs0jHW-rUR0mv8BkA'
  lat: 40.098789
  level: 8
  lon: -88.251685
  name:  'Curtis William McKinney Memorial'
- ap: 7035
  img:  'http://lh3.ggpht.com/lzCSS0_tjwUV7JQ2fgLI0e05IrzPxlVUs-6aEPOwUv67IanQJSTi71gkw0SGm8asmoE_r3Xoh048Fd9xRpE'
  lat: 40.099169
  level: 8
  lon: -88.251419
  name:  'Lyman Larson Memorial'
- ap: 7035
  img:  'http://lh3.ggpht.com/G1CvGhpethi5UmprDWxZN9rTblHa3anSsQz1UPgJtkREkfN7lDFoxFObst0609Cg5mofuZxJKr0ddNKhY4VL'
  lat: 40.098464
  level: 8
  lon: -88.251426
  name:  'Ruth Haasis Memorial'
- ap: 7035
  img:  'http://lh4.ggpht.com/4LxsGZZMk3DnpJXUvqzrL54CHSP5TDXjUnDJyHmCCTtCJIjGEI7kxT9g4uxfSPh0X6yGLgQo1jfqbu7B8VEr'
  lat: 40.099084
  level: 8
  lon: -88.251826
  name:  'Irina P. Stewart Memorial Plaque'
- ap: 6098
  img:  'http://lh3.ggpht.com/VrbXGwlUosNLEkVdshWUFoVa3KtlJQoEU4yLYygvftYbPCmxo644Uvar_v8Kb9RS53hB0tXgvV44GotrxZyu'
  lat: 40.098592
  level: 8
  lon: -88.251676
  name:  'Ruth and Fred Steigmann Plaque'
- ap: 5273
  img:  'http://lh5.ggpht.com/HhVreJipNvxPRVFpmsh2BPo9PcpPO2Q2l3jCpDjIKgfKGycoTNPXR4DKiYccBXW4X-4dJf_vV0ESsWAWHcChsg'
  lat: 40.100936
  level: 7
  lon: -88.250855
  name:  'Donald F. Bresnan Memorial'
- ap: 5011
  img:  'http://lh5.ggpht.com/ENeQgqydWbi9-Oyf7vizunoRqJdsZV4o0RA_956wjGI8hqpTCHBPyWMpbTrrkwYpj5tgzDRvevGmvH4eFRU'
  lat: 40.099593
  level: 6
  lon: -88.251724
  name:  'Blessings from Devon Elaine Cattell'
- ap: 4411
  img:  'http://lh4.ggpht.com/PHV-1ZpFzCAl_ViCKwBY_x2pIDbVyaT7wJH1sTvFJCxrSdRrO1x7NaXq9OdRGwz_Mls4iwk6wuGHMBArfV54'
  lat: 40.098688
  level: 7
  lon: -88.25063
  name:  '"New Holland Yellow Dinosaurs" at Hessel Park'
- ap: 4411
  img:  'http://lh5.ggpht.com/C6wRSaEWO1NYGY5luyYZKHG3Z3aib4aflaPdV7B9G6N6adE890g3QuPRSvCUhsdFHqjoVUjo27mfz9WsjXyuhQ'
  lat: 40.100521
  level: 8
  lon: -88.250864
  name:  'Gabriel Patrick Maxeiner Memorial'
- ap: 3848
  img: http://i.imgur.com/5j1qaiT.png
  lat: 42.40148
  level: '?'
  lon: -86.287044
  name:  'be78c15683554893a96f56b528eb8f83.16'
- ap: 3474
  img: http://i.imgur.com/5j1qaiT.png
  lat: 44.426591
  level: '?'
  lon: -88.045131
  name:  'bc35ce93629a45b58e7bdf8df086ffe6.12'
- ap: 3474
  img: http://i.imgur.com/5j1qaiT.png
  lat: 43.699707
  level: '?'
  lon: -88.08997
  name:  'ea6c2292f7514696b3279b85eebc5416.16'
- ap: 3474
  img:  'http://lh5.ggpht.com/tuo_ByFTbwLitFP5cBseOibqRxENxbCwOJ30dCnja5ijBI_qBv5vqNP7ZuZXnxhYM6ms_GbExZEwwKVUtwV2'
  lat: 40.093712
  level: 6
  lon: -88.281583
  name:  'Brownfield Dedication'
- ap: 3474
  img:  'http://lh6.ggpht.com/p2F3xw4xL4UdiMM9aSy628ISSglrvjPexpF3j340tMAP9MX07yh_sJv7kHVkeud8lyFf2ZwDohw3zsRS2PSd'
  lat: 40.093914
  level: 6
  lon: -88.281531
  name:  'Terry M. Warmbier Memorial'
- ap: 3474
  img:  'http://lh6.ggpht.com/Jz3ahY5LQ13wKWLY9SEvexiinJa3GeO1eB_FynplikRpa77swLST6cUAJjPpqKDSq2KU4Dcyui-QBstz_Z3k'
  lat: 40.094624
  level: 6
  lon: -88.282953
  name:  'Greenbelt 2'
- ap: 3249
  img:  'http://lh5.ggpht.com/BK5TjuMzuJgDVPz4C8HRjfZKeaoISnPJ-H7VaYeMNUYmxvvUY7RzIIlR13FjW9HHF_i5-znqs3O6nMxKPfcj'
  lat: 40.102188
  level: 4
  lon: -88.251507
  name:  'Little Free Library Charter 5753'
- ap: 3474
  img:  'http://lh4.ggpht.com/mlUN5QXAR7rKFvUg7yhxcae3udkR7zCJVaWt5sq_YA47piV6tRi42RNN9fEtT_FafT7lhqg26WM1VETbz5E'
  lat: 40.098239
  level: 8
  lon: -88.25376
  name:  'Hessel Park Christian Reformed Church'
- ap: 2724
  img: http://i.imgur.com/5j1qaiT.png
  lat: 41.327192
  level: '?'
  lon: -89.141758
  name:  '293203cc2664476eb7005bbc0dc0da08.16'
- ap: 2537
  img: http://i.imgur.com/5j1qaiT.png
  lat: 42.277902
  level: '?'
  lon: -87.93992
  name:  '62f98ac6e4f54d78be5cf3db5e9d08bb.16'
- ap: 2537
  img: http://i.imgur.com/5j1qaiT.png
  lat: 42.399373
  level: '?'
  lon: -86.282616
  name:  'c5d2737bc86c4fee9c9c333a5f5a4601.16'
- ap: 2537
  img: http://i.imgur.com/5j1qaiT.png
  lat: 41.794705
  level: '?'
  lon: -89.680392
  name:  'a80dea5461284780a3e983d148be0a02.16'
- ap: 2537
  img: http://i.imgur.com/5j1qaiT.png
  lat: 42.672124
  level: '?'
  lon: -90.126884
  name:  'b98fc89b29194e6cba30b07adabe0c23.16'
- ap: 2537
  img: http://i.imgur.com/5j1qaiT.png
  lat: 42.196926
  level: '?'
  lon: -89.592984
  name:  'c390cab2367847948d38fd540b66a4d8.12'
- ap: 2537
  img: http://i.imgur.com/5j1qaiT.png
  lat: 41.838111
  level: '?'
  lon: -87.606584
  name:  '3daf518feec24f85afb2b368ecd8a0bc.16'
- ap: 2537
  img: http://i.imgur.com/5j1qaiT.png
  lat: 42.11635
  level: '?'
  lon: -86.494605
  name:  'b14006f6283943feb0976cc5c909a006.16'
- ap: 2537
  img: http://i.imgur.com/5j1qaiT.png
  lat: 44.590534
  level: '?'
  lon: -87.773528
  name:  'b7808ee72f164067ba2989890ce7bf97.16'
- ap: 2537
  img: http://i.imgur.com/5j1qaiT.png
  lat: 41.804238
  level: '?'
  lon: -89.689174
  name:  '0dc5746d2d3d47e19e4731f89fc890db.16'
- ap: 2537
  img: http://i.imgur.com/5j1qaiT.png
  lat: 42.311235
  level: '?'
  lon: -87.834425
  name:  '0479fb5c186c4037915b760ef9c2b9b2.12'
- ap: 2537
  img:  'http://lh4.ggpht.com/9hzMj8KV-HraIucojjHAEgyMZsJAR9TWvNS-QSBB5LTYBOTwwqfTQySJ_Sz88eP3eyFWFYhx5qDVY93t8fk'
  lat: 40.108032
  level: 4
  lon: -88.225702
  name:  'Centennial Court'
- ap: 2537
  img:  'http://lh5.ggpht.com/gkIcCbfmQWyJ7s9ryhzfOOn1K-oa8huqzZN80X2psVjx_6Iur5egjGncbUIAMLiAJAf9qG1Ac8lX2MomHYY'
  lat: 40.108185
  level: 4
  lon: -88.225203
  name:  'Statue at Medical Sciences'
- ap: 2537
  img:  'http://lh5.ggpht.com/kElaGOaV9aI8SrnM1D65gx9J0Ky1AKrN9Yo-pXVmDhELt2pee4MwVRiCqCmlqWzUWj5pS33GnEzAiXmiWKsw'
  lat: 40.108111
  level: 4
  lon: -88.229625
  name:  'Illini Sports Mural'
- ap: 2537
  img:  'http://lh4.ggpht.com/H1kV6JSczzSbcCblAHg5ZOgITW1mBAz0_oLbqbzxBlijGTBn7TP6KwA6UI0AAGrCN4VF0DAF79Vcj6_2R4dsB8LRTq6tud6v'
  lat: 40.107753
  level: 4
  lon: -88.228913
  name:  'Zipcar-Wright Street & Daniel Street'
- ap: 2537
  img:  'http://lh5.ggpht.com/Zoidr1eUAO2UEM6SyifBpkC3K42Ctl355Krd3S2ZU3BbbIMt1XFKF4C35huJT7a-K1PMF6JCK3ztTnr2Wbc9zw'
  lat: 40.109178
  level: 4
  lon: -88.22945
  name:  'Pineapple Pillar'
- ap: 2537
  img:  'http://lh6.ggpht.com/pxaCt7clhIXc1RVGMMJZsmnbEWNWjFYJiUrQMev_SeOmXBothvOzmfnirQ5_W8CMa7hpigqydQhKMa4XFCAi'
  lat: 40.108173
  level: 4
  lon: -88.230209
  name:  'Mural on South Sixth Street'
- ap: 2537
  img:  'http://lh4.ggpht.com/efOG849cf8EKwVLL2BfNKzwBdkrAuNsMeYOZfeR8FYnK3axQJJON0VH191MLBwjJaQ1EeQC9Pt8LMtNI2LEa'
  lat: 40.07718
  level: 6
  lon: -88.203511
  name:  'Denise and Ernest Walker Grove'
- ap: 2537
  img:  'http://lh3.ggpht.com/SGh5Xw4MO1dVvrMemAzgB9RDDBXEv4yPJSQnS537XIPlaVnoge7FriTE0zXjRXDxMtFiaTHXXihwZpbush_dbg'
  lat: 40.077367
  level: 6
  lon: -88.203354
  name:  'Meadowbrook Trail Map'
