- ap: 15657
  img:  'http://lh3.ggpht.com/rUgM7jkTqL0VHxvsSW0yWuNJF5UrU62ITflghfn4PfKjn6L4WGz0ALkv98fc_q9dmK9SSpU1PXIawGvcRwE'
  lat: 40.098246
  level: 8
  lon: -88.251974
  name:  'Hessel Park'
- ap: 14533
  img:  'http://lh3.ggpht.com/G1CvGhpethi5UmprDWxZN9rTblHa3anSsQz1UPgJtkREkfN7lDFoxFObst0609Cg5mofuZxJKr0ddNKhY4VL'
  lat: 40.098464
  level: 8
  lon: -88.251426
  name:  'Ruth Haasis Memorial'
- ap: 13403
  img:  'http://lh4.ggpht.com/mlUN5QXAR7rKFvUg7yhxcae3udkR7zCJVaWt5sq_YA47piV6tRi42RNN9fEtT_FafT7lhqg26WM1VETbz5E'
  lat: 40.098239
  level: 7
  lon: -88.25376
  name:  'Hessel Park Christian Reformed Church'
- ap: 12470
  img:  'http://lh5.ggpht.com/llyW63Gnxl-lT-L_MhXsl4mdbmv29RvYTWcLt1R7JxibVPORq5Wd_UHIdT-vQ0XaUqZVQiN2mXkV4KJpp5sm'
  lat: 40.1159
  level: 6
  lon: -88.238508
  name:  'Dallas & Co: Costumes and Magic'
- ap: 10783
  img:  'http://lh6.ggpht.com/6pMlM7pPsp-5PTNYZ8AJgo5ODURCPJO-_LigeHL2TMhjfK9MS17iEcpQqc89n5gyUdEO8seZrlThTGbKEqg'
  lat: 40.132999
  level: 5
  lon: -88.292808
  name:  'Campus Solar System - Mars'
- ap: 10783
  img:  'http://lh3.ggpht.com/GXyi2ghi2DR3h7uIHNYiEZPYixRhDo7LO0WHQ0PyEzb-150r7ar7JGeVjUoPuObC-GFWf22UWqnYCMtED0M-'
  lat: 40.100341
  level: 8
  lon: -88.249937
  name:  'Alice Marie Weber Plaque'
- ap: 10596
  img:  'http://lh6.ggpht.com/S7Utf4_59vQkAP5JhC3mdbzVLKBTt-0zoJ2UjfxUnN10VBbixO-_VwvssWd1LbFSx_yafaijd_U0wTGo870'
  lat: 40.100941
  level: 8
  lon: -88.251314
  name:  'Gabriel Patrick Maxeiner Memorial Plaque'
- ap: 10596
  img:  'http://lh5.ggpht.com/4DJAFPeZ_w65Km7VDnsbOqouQaeBuPuxA0KHPQToT_B6o1hBxzdu3kn89UhHgv22Ygj52Fx9QqcbzOytuw'
  lat: 40.100078
  level: 8
  lon: -88.250683
  name:  'Brian Clark Memorial Plaque'
- ap: 10218
  img:  'http://lh5.ggpht.com/THzk1iE4eBFdHkEgW_OGBWS54BbJw46faUZQS1Ad_IROHGgmVaXrphXJuL1O8N9k4G8_jaDT4P9tmLxMNi0W'
  lat: 40.131713
  level: 5
  lon: -88.29276
  name:  'Campus Solar System - Sun'
- ap: 9846
  img:  'http://lh5.ggpht.com/-UWK84I78Sftf7yg-E2pg6xEAWTvyiThgJBJlxbqOZPYKNmzQ8uGgEEMetzplrG1HpXG5kQqNItUeXKxOHDsGA'
  lat: 40.100286
  level: 8
  lon: -88.251747
  name:  'Tennis Anyone'
- ap: 9846
  img:  'http://lh5.ggpht.com/fDRifvVcFT_dKhPuNBN4rR9lNHL0Q6NvbMnGr2-ZdiirR2rJrBcWRi4vyM3-DYNHymUs7bWchaWRaUtBpg'
  lat: 40.098541
  level: 8
  lon: -88.250389
  name:  'Dennis Robert Costello Memorial'
- ap: 9846
  img:  'http://lh6.ggpht.com/n0f7lyo15OzZn5IJHsohIGAA58iioentPZGEY4zeMZCCoX4GjEEkqfaTCIbrx9OnezriThnbFV14kYcwKTgL1g'
  lat: 40.098444
  level: 8
  lon: -88.248167
  name:  'Healthcare Not War Mural'
- ap: 9846
  img:  'http://lh5.ggpht.com/DFa-Mh8ldMlU5wGTYmJIGYKPoSYUfYebRpnom9j15NFNRkwMdU5kDME0GYQUyA_LXnsNi9Jka-xidd302s93'
  lat: 40.099056
  level: 8
  lon: -88.249136
  name:  '"Cricket" and Bob Barger Memorial'
- ap: 9659
  img:  'http://lh6.ggpht.com/5CDidk0pqfUtSW_Yqouuf3diX8drdMu9DoT728QpSz8q6A-WxNhT0yLcgM_7gGpyIAeXrHiTkIzzaVJFgnN9WA'
  lat: 40.099852
  level: 8
  lon: -88.251947
  name:  'Our Friend Tim Palmer'
- ap: 9657
  img:  'http://lh5.ggpht.com/IgNzl1mq8OGLo32nCph_TZvtqlPh79vEYYvHZb2F6YXW1jx9_ESV5dv13U9k7CRftyKHGoW2RtSSUFzPKbU'
  lat: 40.113072
  level: 7
  lon: -88.289765
  name:  'Kaufman Park'
- ap: 9657
  img:  'http://lh3.ggpht.com/lSr_gDGX9o1BHZX9FUPCKAO2VVQjZ_NwTBaSNhNgjVyJ2p6BnLDByC_vIkhu637-W5nKMW2SShi0gXOlXNqY7A'
  lat: 40.097979
  level: 7
  lon: -88.247785
  name:  'Jarling''s Custard Cup'
- ap: 9472
  img:  'http://lh5.ggpht.com/C6wRSaEWO1NYGY5luyYZKHG3Z3aib4aflaPdV7B9G6N6adE890g3QuPRSvCUhsdFHqjoVUjo27mfz9WsjXyuhQ'
  lat: 40.100521
  level: 8
  lon: -88.250864
  name:  'Gabriel Patrick Maxeiner Memorial'
- ap: 9470
  img:  'http://lh3.ggpht.com/HX3mWBGofQk08Qdp7A6KMK1AnSXlLEPJR-n6oeX69Efiiss29GHsLiDsHhRS5K8DrXh-QXP1T0AMaOsJmx_w'
  lat: 40.106921
  level: 7
  lon: -88.230145
  name:  'University Lutheran Church'
- ap: 9283
  img:  'http://lh6.ggpht.com/bk4dEHQrhHB4CnS-r1oU423YDgPGgV61H809xF_AI-CVJFh8pf1rbOMxcZIfQYEe0W5OLWy-XYtwPUc_n08o'
  lat: 40.068707
  level: 8
  lon: -88.242666
  name:  'Dohme Park Dedication Plaque'
- ap: 8909
  img:  'http://lh5.ggpht.com/q-mJ2EvrjGn2PfbBh3Pl3XIGUyzTqxGjZmTMhn3k9_2Qi0S2hs3k2ZvpKb4kvt60AXHiyQdxqft5ZecPcg7x'
  lat: 40.098959
  level: 8
  lon: -88.250141
  name:  'Bob and Wilma Tinkham'
- ap: 8909
  img:  'http://lh6.ggpht.com/BKeORacgeVrG8XzxTuXmpq5UxomWpK-I2n7Xy0PVbdSciNx9MJl869TcibnFIiV5PJHGv5R3QOpX6ZgLUwU'
  lat: 40.099706
  level: 7
  lon: -88.250065
  name:  'Lois Barham Memorial Tree'
- ap: 8722
  img:  'http://lh6.ggpht.com/YVbqGVTjJuDMDdj71CP2mWvnUIdgO25PgoDdJwEGnEE_M9I1aDgKyjSr9JOZVU6UQTZQtfUo9RAWyz92n3jtCQ'
  lat: 40.098475
  level: 8
  lon: -88.249208
  name:  'In Fond Memory of William Moore Jr'
- ap: 8722
  img:  'http://lh3.ggpht.com/VLipBehsKPCp8ewQnBV1ZCz7uE75zcY46iGDyFfFHgX1o55t3DONb3wcBcL5RMYSqABRK0TgIW3DluNy8y6WaA'
  lat: 40.101131
  level: 8
  lon: -88.250539
  name:  'Hessel Park'
- ap: 8722
  img:  'http://lh5.ggpht.com/ENeQgqydWbi9-Oyf7vizunoRqJdsZV4o0RA_956wjGI8hqpTCHBPyWMpbTrrkwYpj5tgzDRvevGmvH4eFRU'
  lat: 40.099593
  level: 8
  lon: -88.251724
  name:  'Blessings from Devon Elaine Cattell'
- ap: 8720
  img:  'http://lh5.ggpht.com/xcqe13f85fuXohGUUBZkNrUU1PunkcZ6xMNmHpAp0GJBtydVqCCGj5MqP3Uax4M7Qq4JzDFGqICFrFb6PNEXRw'
  lat: 40.08932
  level: 6
  lon: -88.251883
  name:  'Boulware Trail'
- ap: 8720
  img:  'http://lh4.ggpht.com/0j8eeTKJgjnYhHpf4qH_70CZHLbujC5v-XP_ndcqh1xIR-5V2K_CGdjIe1ZfMbwvSyISxxYKoZynw1DaQcj8'
  lat: 40.105874
  level: 7
  lon: -88.230562
  name:  'St. John''s Rectory'
- ap: 8533
  img:  'http://lh5.ggpht.com/BkbaZlRlq44d6DiMOVuIlrel2Hsi_RzzHhhdmJH6BLzJk5RKxAcvh2mMd93BFhKgTKLk-yZsNLTaJiTbZsk'
  lat: 40.086686
  level: 7
  lon: -88.252282
  name:  'Elsie Mattis Springer Memorial'
- ap: 8346
  img:  'http://lh5.ggpht.com/tfAfnmo6mSMc6U0P533NMFJRGwn6lasmx-MLR2JJg1QOizMKkghFU8E7hb2zgYgdQEbgnCJUlvZIMdrrJe4'
  lat: 40.100822
  level: 8
  lon: -88.25193
  name:  'Seeds of Kindness Bench'
- ap: 8346
  img:  'http://lh5.ggpht.com/NUOCD82iNRGW1NGqEC4FKet1u5_cm4WRNc2c9_YABAjGf6-OSCLz7HgYkP1ZuVAbpMl6Qi10HRW16Oc9jNM2'
  lat: 40.106401
  level: 7
  lon: -88.236182
  name:  'Washington Park'
- ap: 8346
  img:  'http://lh3.googleusercontent.com/hvoLMUc9UoNVVPttxWTc8PzOWdu5MBmPETnBexH7Alyl20WGCrNa0G_j7DwvD3qbhqpTaeThFhGDV2rCtp8'
  lat: 40.107629
  level: 6
  lon: -88.224484
  name:  'Bucky Balls'
- ap: 8159
  img:  'http://lh6.ggpht.com/o-Si4_DCq7Qwa_fFJhaTZ0-zCScbl7wDS4PHIFGMbnP9TuPVe9ZauXV3lAreyYvxN7B7n8mlrOR2SsPzXmU'
  lat: 40.115703
  level: 6
  lon: -88.239504
  name:  'Chester Street Bar'
- ap: 8159
  img:  'http://lh3.googleusercontent.com/vJ_iyOb44eFzOJUNpRouOPDI8rKgOESn7TWw9U9BR3OcWsb6Oak-SSfVH4iPPmtXJdk30rqet1D0KxVohiBC'
  lat: 40.114712
  level: 5
  lon: -88.238392
  name:  'Mexico Mural'
- ap: 8159
  img:  'http://lh5.ggpht.com/Q32BPmFRIQYqXI5gLOV9ifHvFlGdyD_yws2172-sHnSZ-StunhCM0Abqd9rBWSaKBWN7RPpa1h-nok4Mc23i'
  lat: 40.101062
  level: 8
  lon: -88.249275
  name:  'Narayan & Shanti Achanta Memorial Plaque'
- ap: 7972
  img:  'http://lh6.ggpht.com/YdeB0EKlsopL39a9YXWj4JBZgXNNLWHgfe4PQzdpWCNWc0fR1YTj8WjARDHnmrusvKWTqKLcGg8U9frhtsw'
  lat: 40.09821
  level: 8
  lon: -88.249879
  name:  'Hessel Park'
- ap: 7972
  img:  'http://lh3.ggpht.com/KzADjdPRAvwycpfTBdAeDwFJ0AxZJG2dPmbPWkXq55QLV9PfpJ_-DsXWIlVgsISUApRdJ5cAxRWx0k0W2hI'
  lat: 40.09979
  level: 8
  lon: -88.249107
  name:  'Jerome Cook Memorial'
- ap: 7785
  img:  'http://lh5.ggpht.com/WgDPQ47lNn2nlvNDPgwM_c-1MpVvxdVZtjZmFtixtr3rIi91xqYhgtSbyJGqRFnSXCUHy_RjABgEj2LSzOs'
  lat: 40.113343
  level: 7
  lon: -88.290525
  name:  'Fish Chimes at Kaufman Lake'
- ap: 7785
  img:  'http://lh4.ggpht.com/PHV-1ZpFzCAl_ViCKwBY_x2pIDbVyaT7wJH1sTvFJCxrSdRrO1x7NaXq9OdRGwz_Mls4iwk6wuGHMBArfV54'
  lat: 40.098688
  level: 8
  lon: -88.25063
  name:  '"New Holland Yellow Dinosaurs" at Hessel Park'
- ap: 7785
  img:  'http://lh4.ggpht.com/7U0YXCB_DIhnqPJyjyLpNn6kg4lU8HvKL87ddBKWq1sptvVLvCEiCuNEnghQtqDGSN2OBNcOUK9nZcYjY4Vr'
  lat: 40.107887
  level: 5
  lon: -88.225998
  name:  'Lifesaving Antibiotic Plaque'
- ap: 7594
  img:  'http://lh3.ggpht.com/-MRGQEVV5mNMzB4sb8JAsgVC56kTzYaFEf3mpRsfXAiO4KIrLw3LGFkt7Au97yDwY-AUSfghHcri53Zpmn-Z4Q'
  lat: 40.11621
  level: 7
  lon: -88.242535
  name:  'Inman Building Historic Plaque'
- ap: 7409
  img:  'http://lh5.ggpht.com/k_9eqZVvGcr3ZNyeeSNDM1-Y7od35KmnQQptB9usrdpTdpGW2c_5-12rYy9hGazdx7qhlYrEXxaJ_ZIVFywlcA'
  lat: 40.106706
  level: 6
  lon: -88.232116
  name:  'Illini Tower'
- ap: 7222
  img:  'http://lh6.ggpht.com/8_R0pnNTQT-uPiI9xeaPyYDmeMcnxaXImr4VqMnz2F_aNrFJ7wlemeLAXHdvRZ4XyYZnScYGhpFFs_XS9dJ1'
  lat: 40.11727
  level: 6
  lon: -88.286997
  name:  'Kaufman Lake'
- ap: 7222
  img:  'http://lh5.ggpht.com/gkIcCbfmQWyJ7s9ryhzfOOn1K-oa8huqzZN80X2psVjx_6Iur5egjGncbUIAMLiAJAf9qG1Ac8lX2MomHYY'
  lat: 40.108185
  level: 3
  lon: -88.225203
  name:  'Statue at Medical Sciences'
- ap: 7222
  img:  'http://lh4.ggpht.com/S734i_6SihPtJW8WdegLb3gEuKeNx8e1qDm6CXjREzYHohw7XqL82m4EF2K5nS2TixHweLn3EuJ4YoQnrsw'
  lat: 40.107751
  level: 6
  lon: -88.231532
  name:  'Graduate School of Library and Information Science'
- ap: 7035
  img:  'http://lh4.ggpht.com/W2chhQwPqSJEkl57NVoIL-OE4KFvJfp7Bsrrxza1apCYltcT3npz95LJxqHxvT9ZZu7wxF2gQy-5bpKal2p2'
  lat: 40.115838
  level: 7
  lon: -88.241338
  name:  'Illinois Terminal'
- ap: 7035
  img:  'http://lh6.ggpht.com/yjfa0jJLjsfLRf9Zn9iafMp3MuIhgCi0WiOCF8GqTGiGvzEnsPGrFa0H1n-uzWhVehLbt44ShthsA32VzHd5iQ'
  lat: 40.099737
  level: 7
  lon: -88.251157
  name:  'Tyler Van Atkins Memorial'
- ap: 7035
  img:  'http://lh3.ggpht.com/sisvfsphxy7AK_2qrrqb7lNJk3_7ciHSVJyodINYITBc-UqugyNOooCxKupgJKEg5m_x95eZwouSO2WCmN60ew'
  lat: 40.098579
  level: 7
  lon: -88.249603
  name:  'Chef Ra Memorial Plaque'
- ap: 7035
  img:  'http://lh5.ggpht.com/8zq5tMevCiipZK8N9-8SZw3vdsA2HwH0E02ormQshGxHVZrB2WPK7OPC8zt6pjLlgpXVuEYHVA_08_Q8fPw-'
  lat: 40.099647
  level: 7
  lon: -88.249648
  name:  'Max Overmyer Memorial Playground'
- ap: 7035
  img:  'http://lh5.ggpht.com/T0WLAJf0s4nu2Phxax31eu6pO6zNoA4JpvHMLyfMKttzJALEWB8EAWOziQwgjdWE3YjBbG1XjGYsgihqCSX9'
  lat: 40.100414
  level: 8
  lon: -88.249061
  name:  'Randy William Auteberry Memorial'
- ap: 7035
  img:  'http://lh6.ggpht.com/3o0ObAARFV_8mBVCC_QD0iLOPVzNkakXybhLnSVEuXIJfDLKMxeYj-EkWIw9NPoZIVRf5Dkrid2yf_NEQ-iE'
  lat: 40.100347
  level: 8
  lon: -88.249385
  name:  'Travis Marmion Memorial'
- ap: 7035
  img:  'http://lh5.ggpht.com/CRkkFx_9jq2hCt1HtflqZDqCdmSG5MN88FV0rLXk1PZm7maZWzLTKZhjqlSKUx1Tg0tSB62l75w2VFsyUZI'
  lat: 40.09991
  level: 7
  lon: -88.249899
  name:  'Benjamin Biddle Memorial Plaque'
- ap: 7035
  img:  'http://lh5.ggpht.com/6MHa8mHyPoZr8QcAXRVJp6cTJ-Besa5bB801GzhlToXL5ff4Zg6U6VtnrbMINQ441jCzYNZDWNxHIBtf7VXvVw'
  lat: 40.087719
  level: 7
  lon: -88.253446
  name:  'Milla Gross Memorial'
- ap: 7035
  img:  'http://lh4.ggpht.com/vLN74xdc8Mdgab4UjP1QUbyX42bkPBXnIqzYzkmRDi4naHiBk2kM1wUA7Mx3Pxl1dpPoMBAg9pV956MqTDk'
  lat: 40.068391
  level: 8
  lon: -88.242282
  name:  'Dohme Park Flags & Mural'
- ap: 7033
  img:  'http://lh6.ggpht.com/f3cOUn1gqLkJZQzs4-Y9j6j2ZXbb1Kmzf3klCFzF8zmFSlZZ-B6O4-5t1KIX95jbYUjeqMgOohEf1ilF75Uqyw'
  lat: 40.132777
  level: 6
  lon: -88.287351
  name:  'Parkland College Prairie Restoration Reserve'
- ap: 7033
  img:  'http://lh4.ggpht.com/IM3Yvrk727rz6f1euz6nTpei6llE4E4oqn_l-WbxZIN3K6dF8pEa7wGKzbjqfr0DBRubxiNFztHBePH9-Iw'
  lat: 40.132147
  level: 5
  lon: -88.291251
  name:  'Staerkel Planetarium '
- ap: 7033
  img:  'http://lh5.ggpht.com/WtLGJ5PPeFPGSKegRKCurNiGVHvfV53LdGHbVkCfDXxVvUpneEqngOPUTZJgZL4RdA1_YVGUXlpWs0ZDr6OH'
  lat: 40.086378
  level: 7
  lon: -88.251308
  name:  'Life Lessons from Kimberly Kueffler'
- ap: 6848
  img:  'http://lh6.ggpht.com/qSCp5fQMlyCQ-GOAgiSFy5gaHJei705Pa3eOlJiYO5wGjZTYtjA8q7QWWfAWcLKjxZSaFiMfXOPR8SO7rWU'
  lat: 40.099353
  level: 8
  lon: -88.251876
  name:  'Raymond B. Cattell Memorial'
- ap: 6848
  img:  'http://lh4.ggpht.com/B_I1b0Jy3vW41RX8jjCNPP68AULplU0Pf8ddolyKmpEWCfBVShQkmjF1HfTPzDjmBBQGgOs0jHW-rUR0mv8BkA'
  lat: 40.098789
  level: 8
  lon: -88.251685
  name:  'Curtis William McKinney Memorial'
- ap: 6848
  img:  'http://lh4.ggpht.com/4LxsGZZMk3DnpJXUvqzrL54CHSP5TDXjUnDJyHmCCTtCJIjGEI7kxT9g4uxfSPh0X6yGLgQo1jfqbu7B8VEr'
  lat: 40.099084
  level: 8
  lon: -88.251826
  name:  'Irina P. Stewart Memorial Plaque'
- ap: 6659
  img:  'http://lh5.ggpht.com/yK94cjys6dDm62pDsBwEKJP8ioxZEFbb2oelmT5ZMmaNZPkqAXW00NHP3_7fvtyG796u2ZhKGfbY7To9Sdtz'
  lat: 40.088063
  level: 7
  lon: -88.248271
  name:  'Still Waters'
- ap: 6659
  img:  'http://lh5.ggpht.com/-OqC4qsxJReOCIM0nMbVjvfydYq6x9bfLc7fmyI-u3x_ygkr5RCE-Ct-uYn-wvhkpdLRjIXEkiODbTkV1iufX14GyE_Qzy1Vkz2mpimaCx26Bo8'
  lat: 40.109364
  level: 2
  lon: -88.227697
  name:  'The Diana Fountain'
- ap: 6584
  img:  'http://lh4.ggpht.com/IZUCSooIdo5qUAG278Al-JEKCRv842M0uDMusE78yaL4p-QCYu2A4UXE6X2jTFemr_w8ZfD6g_lQqjwbdg'
  lat: 40.109702
  level: 1
  lon: -88.227571
  name:  'The Ray Bulinski Room'
- ap: 6472
  img:  'http://lh6.ggpht.com/hPutcAvS7zQN-tagfEY-fvkvdlgj7j5sZwUSLY883Twc7tHyslIAp7lzWYciJmCytDfsbFQtavAlzqGwCgFZkw'
  lat: 40.105562
  level: 5
  lon: -88.234991
  name:  'Acacia House'
- ap: 6247
  img:  'http://lh3.googleusercontent.com/__dofGL-oELNLYymrJ5VDONThxrG0oMe5aQcopgTFJgu56wHeV1y-scJDNms_C4LRoqDe-qKwDBNRNkCiJnNUQ'
  lat: 40.127703
  level: 3
  lon: -88.211526
  name:  'Busey Woods Trail - Wet to Dry'
- ap: 6285
  img:  'http://lh4.ggpht.com/vKgqIecJshMQxrhO-ZhMjcIyARuJdyU63wKfzAG0wouZex6LVzO46Qi5zM1N3Jx8xyantDFk9sQGsSEBhb-y'
  lat: 40.101327
  level: 8
  lon: -88.251412
  name:  'Zeus Memorial'
- ap: 6285
  img:  'http://lh4.ggpht.com/D5cENdXJQaqvWwCSoOanItF0e3p53vn8qA2cAruOQSuYuD9XmC4q26pJQI7yjA9-6yDTJH0KYTQQwYdcwoTxOA'
  lat: 40.068447
  level: 8
  lon: -88.241045
  name:  'In Memory of E. Lynn Meisenfelter'
- ap: 6285
  img:  'http://lh4.ggpht.com/d3UqrcK5M1wuOe19dIaBUOkrXF4C9IxhOWfxqzM4zIHkGsUIRb1mckNapOMRkkCtVIe0rzJumb1OVDVc1_Y'
  lat: 40.108055
  level: 7
  lon: -88.233688
  name:  'University Baptist Church'
- ap: 6285
  img:  'http://lh5.ggpht.com/dgQfoxxVeHT5ODqLiUYHV45qvkC_BMS0kIFRqvHvE2GO0TduZ0-XzhW8RE80LtPDK0Ay5xwA6PtjM7G3C9U8'
  lat: 40.108947
  level: 6
  lon: -88.232251
  name:  'McKinley Church'
- ap: 6098
  img:  'http://lh6.ggpht.com/TtWbekdbsTWA9hOrt2dc1ID1DnRuGoRbAle9mL9aZvc_aJygqJ9jAMjqrWtVr87WnELkFrSVIpO_4VVZQ67P'
  lat: 40.113103
  level: 7
  lon: -88.290672
  name:  'Kaufman Lake'
- ap: 6098
  img:  'http://lh3.googleusercontent.com/Tixp17uCaP682s77UzvCwWCOE6vg7iB2qEFLjACq7xtVJdHE0K3yKYsl3_SwKbiUfQWwgTQRbvfka3U0NvNc'
  lat: 40.098819
  level: 8
  lon: -88.249214
  name:  'Bette McKown Honorary'
- ap: 6098
  img:  'http://lh3.ggpht.com/J_h4tdb4wqy8bmmQfDuy5yqTR2IlkzKojfvsMOvlD-3tf1pKxbDlhA6W9Q8RX-JaSxhItMr4bmCxiUQXTLbz'
  lat: 40.10064
  level: 8
  lon: -88.24958
  name:  'Edward A. Cousins Plaque'
- ap: 6098
  img:  'http://lh5.ggpht.com/3t7XZHqwxLZ8Lc9YomR8FInm74U2PAA-DBk8kmdxXIrcXbKa1CoBDTlgdDJeO-_yVT3qNKRnNLzbdil1eH41iA'
  lat: 40.09935
  level: 8
  lon: -88.249766
  name:  'Jim Bickel Honorary Plaque'
- ap: 6098
  img:  'http://lh3.ggpht.com/rlm0tE7Js-ApRSIfi0JxzxMVzrls50Gpr-Dbml7uBn7o0sCMtpiVa81HJc88eD0VlJiuzy9UTBFPebVcw-GK'
  lat: 40.087494
  level: 6
  lon: -88.253476
  name:  'Rotary Club Meditation Garden'
- ap: 6098
  img:  'http://lh5.ggpht.com/0m1i3CJSj3bKhLj5BgXi8SFpgoihNsBoN6fpccgDU2tjtPcA5BqB1IxvR0yAX9FWkgt3_Q8gbAyGfdJDliGP'
  lat: 40.115142
  level: 6
  lon: -88.238658
  name:  'First Street Antiques'
- ap: 6098
  img:  'http://lh6.ggpht.com/68dvh0QMefXWoOEuzYL9ly2rpD9TpVh9F2kj89k41eGqxXdpLX0ldTrsAsaenN5iOWGwkJ0HA3gYAVWoOqQ'
  lat: 40.102036
  level: 3
  lon: -88.226601
  name:  'Agricultural Engineering Sciences Sculpture'
- ap: 6098
  img:  'http://lh4.ggpht.com/pWMrJGcrxdHbkyzK9GJLFBQdvgWtZzdJOIMHr66tCffHpsZd5e8NTrSPkYm0T9i4vtEVhARdLo6tZ7xLadU'
  lat: 40.108294
  level: 3
  lon: -88.224348
  name:  'Bird Of Prey Statue'
- ap: 6098
  img:  'http://lh6.ggpht.com/y10QgRCNt0Bsefqp3olKgJp98whQkS0-vWqPskj3421hcSq96BG-b_KROqsO1mBEcNiYtAKhXuXG0EV0eaUW'
  lat: 40.107152
  level: 6
  lon: -88.235244
  name:  'Bromley Hall'
- ap: 6096
  img:  'http://lh4.ggpht.com/yi9OPnLGsLTvtOMNuOUfed6edO9tB6h0QmSHJaKKaiMyEXC8Aj2hz9hIvgh8C2DY76mVgNHw4S0gsYpkPpkt'
  lat: 40.148692
  level: 7
  lon: -88.248724
  name:  'Fountain Town Center'
- ap: 6096
  img:  'http://lh4.ggpht.com/HEEvU2OlgWiV5huAu3cvNKaI-C8YKYTO3qB8WMTO7EbsjTO84KS6jLjbGCq7THZq6l63UiUKCSEqY2IADYns'
  lat: 40.091766
  level: 7
  lon: -88.250003
  name:  '"The Cranes" at Fox Corporate Center'
- ap: 6096
  img:  'http://lh4.ggpht.com/H1kV6JSczzSbcCblAHg5ZOgITW1mBAz0_oLbqbzxBlijGTBn7TP6KwA6UI0AAGrCN4VF0DAF79Vcj6_2R4dsB8LRTq6tud6v'
  lat: 40.107753
  level: 7
  lon: -88.228913
  name:  'Zipcar-Wright Street & Daniel Street'
- ap: 5909
  img:  'http://lh5.ggpht.com/_Tp5JJFIIlt0iHHyC_A_gnEm1sxUEKDHmQr0oby74HL0rnFZ5JrnuvOTPk6_vulsU_GJue_7RAAX2Y7I2Wxw4A'
  lat: 40.132354
  level: 5
  lon: -88.292578
  name:  'Campus Solar System - Venus'
- ap: 5909
  img:  'http://lh4.ggpht.com/2JNDO54Hu2KzjIaEeCIFVgD7gEa5VXNBsIemFYp6cgiTUbsSpOwLTc-HqZb__uut24jHpVnQVokRVtL00ozu'
  lat: 40.132056
  level: 5
  lon: -88.292671
  name:  'Campus Solar System - Mercury'
- ap: 5909
  img:  'http://lh3.ggpht.com/PijfKs7HCJf1vVcIxcTF1HPOYaa5iS4ZECXZUQ2dDDSn9ZCXSd8FGHThRUiEIC-oMNmClt0seIzn8FsaGPER'
  lat: 40.112752
  level: 6
  lon: -88.289696
  name:  'El Toro Fountain'
- ap: 5909
  img:  'http://lh5.ggpht.com/nWEtxuKQdy0teBBue1DYmG7P3SF5-3A6zlB7GwVHBWlolAZYGq6Br78lWcF9ltFy-KeSlozXie2RmU6JfCUX'
  lat: 40.142673
  level: 7
  lon: -88.244603
  name:  'Italian Statue'
- ap: 5909
  img: http://i.imgur.com/5j1qaiT.png
  lat: 40.152192
  level: '?'
  lon: -88.252279
  name:  'Toalson Park South Entrance'
- ap: 5722
  img:  'http://lh5.ggpht.com/Sgu5qG2Ltp9axQc8nEr3fJ_qvNo6-gwd5TuKMrk2LM9d5P7DDy0oCoWiGnr6Ybp84FGMh9DQYLnFtBTZtBIm'
  lat: 40.113606
  level: 7
  lon: -88.243766
  name:  'Mural on South Neil St.'
- ap: 5722
  img:  'http://lh5.ggpht.com/Lup2et0i5h8oHqtBffIdoyX5uclC2MBn9ZnnKnYPr4RIFSflf9bi78zBHK7QqycA0qgEev9qOk0zU-1o1hg'
  lat: 40.108451
  level: 6
  lon: -88.228733
  name:  'The Centennial Colophon'
- ap: 5722
  img:  'http://lh4.ggpht.com/3_LELG2r-A5s2d-x2dWyz6h7HzfjVR_KZn9AG0vhih9EalQIG43iL6LdKqKNpnGdGwguP9ZfnGF0KMq_KDE'
  lat: 40.105799
  level: 7
  lon: -88.230188
  name:  'Color Glass Windows at the Newman Center'
- ap: 5722
  img:  'http://lh6.ggpht.com/WtqWBwqpYTSw3g9ru5NwcFn5iK5STxWgy2kv4OUTWqwtzx76-9Msz0eqoiw0qpEYE1U4zdt9rzzNZMDNagNg'
  lat: 40.107943
  level: 5
  lon: -88.226751
  name:  'Class Of 1917 Plaque'
- ap: 5722
  img:  'http://lh3.ggpht.com/2wN9MWxEFPbMzRPAzNmaAiCOQJj_EFr94Y1YkQP_wMlyajkajmcw00gqW-EluMvpQmvnGgcQ-WdPxjcYTmr2'
  lat: 40.106519
  level: 3
  lon: -88.223748
  name:  'Thunderbird Theatre Mosaic'
- ap: 5347
  img:  'http://lh3.googleusercontent.com/O0A6xsiat2O0IjuyckSS9k1cq1UOF3Cie-GIi1L5d58akNeRMYcb7agKQErL26RwfdgTl-W4anRPPhu-lKpy'
  lat: 40.128515
  level: 2
  lon: -88.212038
  name:  'Busey Woods Trail - A Helping Hand'
- ap: 5535
  img:  'http://lh5.ggpht.com/7MD3uqic9NvHKG2s5NBkAL6kdsBT10BzFJ6jTSaOfZS8mbyTlRDRYtizrxfH8ZvyqpRWXJHgmC5bk9imHqQf'
  lat: 40.114042
  level: 6
  lon: -88.289889
  name:  'Optimist Club Dedication 1991'
- ap: 5535
  img: http://i.imgur.com/5j1qaiT.png
  lat: 40.152342
  level: '?'
  lon: -88.252345
  name:  'Toalson Park Basketball Hoop'
- ap: 5535
  img:  'http://lh3.ggpht.com/tXDyz6XRrR2AKSg9Rrj1z6jBG4dz7uR9qFmSUO1bWljMEw67ncNiq-2Hx3O9Fs029iRtvCV1gdlGN7pG69L0'
  lat: 40.114104
  level: 5
  lon: -88.237694
  name:  'Lo Park Fountain'
- ap: 5535
  img:  'http://lh6.ggpht.com/XsUl74M1oxj6ptAvGEBOMH2wivRhxBNns62UJSGcPiQkuJIgPrmUYxMpSZZUfXRMMjrwoxlFK_DbAM78UrOh'
  lat: 40.113499
  level: 7
  lon: -88.244374
  name:  'Shatterglass Studios Mural'
- ap: 5535
  img:  'http://lh5.ggpht.com/_gJqtOHLZ9UHsmd_iLjxMsPw5eF5YzqE63qEAzURvSp_3OL9ZrPjM-usiUeYx95b7zTdNodab42cQiyiRRja'
  lat: 40.087835
  level: 7
  lon: -88.251299
  name:  'Amdocs Shelter'
- ap: 5535
  img:  'http://lh5.ggpht.com/r5KiToG6Qjyw5c6bAl_0F5cRgpub6HC8MAhqSj_urbSr7jfyMNIuQJaMQykBPvk8mATAla1R16wMHTDoU456'
  lat: 40.102817
  level: 6
  lon: -88.227222
  name:  'McFarland Memorial Bell Tower'
- ap: 5535
  img:  'http://lh3.googleusercontent.com/vw4Js8jf11Ok889K1stO5ujNjIO9Ah9DEbsg1xBTrVbaeyBetcG75B8YS8CkQA0KVC8NA5Z02n220SI1UzdB'
  lat: 40.10985
  level: 1
  lon: -88.227236
  name:  'Illini Union'
- ap: 5348
  img:  'http://lh6.ggpht.com/5R8z1wwducaGMkvLFryu9HzC91eX02E3KDY04s9Il7Qrdw8efQiRGZ_vbgqW0Fuvp4-I_d9ugFC6lPc7lxia'
  lat: 40.113465
  level: 7
  lon: -88.291684
  name:  'Anna Jean Russell Memorial Tree'
- ap: 5348
  img:  'http://lh3.ggpht.com/1G0o5RjtXyfAjbI-E2honhhelnuiq4lIkpHmB44e-AwSBuIxVOdLPVYjImbTMS8kyBdZuKuiMQHciUIdAWg'
  lat: 40.118368
  level: 6
  lon: -88.243737
  name:  'Frank Robeson Memorial'
- ap: 5348
  img:  'http://lh5.ggpht.com/AsiP7X99phJsAWWLusxVx9jztxrqq-wjSe7AQS2KrK6muMt4sB3UIjlshPNUA13BR-o8cX70DxvhbxODvrY'
  lat: 40.087526
  level: 7
  lon: -88.253714
  name:  'Plotner Memorial'
- ap: 5348
  img:  'http://lh3.ggpht.com/sMx0P-GO5ovW4D9GxUctotNYCfxZGhdOEhiL1DmdIK6HMtm6Q2YB4GNKL53HBW60hQRizKWO_neyW1gOFt4'
  lat: 40.068464
  level: 8
  lon: -88.243473
  name:  'Savoy Rotary Club Dedication'
- ap: 5348
  img:  'http://lh6.ggpht.com/MzDfG6eMMwVr56zIpVxRJKU2aoUq-95CLeBhoiEQQKzpC2zulq5jFDLv1IK0JcRy5Q0PhRAreZ1p2ElsdnNu'
  lat: 40.108048
  level: 5
  lon: -88.226279
  name:  'Nuclear Magnetic Resonance II Plaque'
- ap: 5348
  img:  'http://lh3.ggpht.com/A87H2Ev-nSq_HCpnUCxDLdRG04MKhj9Uap_0Ii4kdUx_db5SwcKhAAOey5ls43XiDLYaw7uYymdNMcsAXfNo'
  lat: 40.106182
  level: 5
  lon: -88.235521
  name:  'Evans Scholars'
- ap: 5161
  img:  'http://lh5.ggpht.com/qXsP4-THlaQ8DmIiopsvR0dY2hqwPjIHoy1A1b_CUmqmADgED0FAkXDjkBzS-PY4jNfThICrCaXGja5OH8bWF4ghh7lBwJz0FzKz_zOvaiwHohU_'
  lat: 40.11945
  level: 6
  lon: -88.243175
  name:  '"Stride", Downtown Champaign'
- ap: 5161
  img:  'http://lh5.ggpht.com/D9O580D9hlBOqeMvt2V4nL-eHP62h4vG4YFgk-WTw7GunusU9AOffFuHZ9XYWoB8YrGxpCMu2Y77-LCAgcdT'
  lat: 40.119328
  level: 4
  lon: -88.243755
  name:  'Birthplace of Champaign / Beautiful Beardsley Hotel'
- ap: 5161
  img:  'http://lh5.ggpht.com/J6mcCWpzY1HtqSgO5x_y5aVz-YFsC8M7QP6HkXPiD48zj2LwljZvVXDN2m_K8oMn6mei5g6B8PphiUGrXGDG6g'
  lat: 40.119305
  level: 5
  lon: -88.244122
  name:  'Women''s Town Club Building'
- ap: 5161
  img:  'http://lh5.ggpht.com/HhVreJipNvxPRVFpmsh2BPo9PcpPO2Q2l3jCpDjIKgfKGycoTNPXR4DKiYccBXW4X-4dJf_vV0ESsWAWHcChsg'
  lat: 40.100936
  level: 8
  lon: -88.250855
  name:  'Donald F. Bresnan Memorial'
- ap: 5161
  img:  'http://lh3.ggpht.com/VrbXGwlUosNLEkVdshWUFoVa3KtlJQoEU4yLYygvftYbPCmxo644Uvar_v8Kb9RS53hB0tXgvV44GotrxZyu'
  lat: 40.098592
  level: 8
  lon: -88.251676
  name:  'Ruth and Fred Steigmann Plaque'
- ap: 5161
  img:  'http://lh3.ggpht.com/lzCSS0_tjwUV7JQ2fgLI0e05IrzPxlVUs-6aEPOwUv67IanQJSTi71gkw0SGm8asmoE_r3Xoh048Fd9xRpE'
  lat: 40.099169
  level: 8
  lon: -88.251419
  name:  'Lyman Larson Memorial'
- ap: 5161
  img:  'http://lh5.ggpht.com/mRJ1JU9RyuNozcaCkQ-Egy63KbWTVpSomrieglFdzh1c9eDAoQQCHmWw065GGIQoOFIorPObgHXhGyNjVb6u'
  lat: 40.068762
  level: 8
  lon: -88.243336
  name:  'Rotary Club Dedication Plaque'
- ap: 4972
  img:  'http://lh3.ggpht.com/ahylfFHnKd7tl8EDQopVPlqhdiJblx_p3TWsELUFACXM_9qS9N8agb-ypr7EOOemNFMUrRGaUQ23LY6F1ssb'
  lat: 40.095094
  level: 7
  lon: -88.257764
  name:  'Faith United Methodist Church'
- ap: 4972
  img:  'http://lh6.ggpht.com/duOeXcOSQLWosdD0JJXg3pWWQp4t5sL0x9qDHoTIBFNOzEW0t53Lt2cnwgV2E_Su0l1ajIQxPtVbbK_sDRaS'
  lat: 40.141775
  level: 5
  lon: -88.242671
  name:  'Marketplace Mall Fountain'
- ap: 4972
  img:  'http://lh5.ggpht.com/hjAc940kWyt9QT4G_BJyJKaTef3jL_Njnm8ubUtQD7u6qVsD9_7TiJbgZpKeqAv60kNw8FYspVxkn-Bt1cxYBw'
  lat: 40.109959
  level: 6
  lon: -88.24318
  name:  'Mini Park II Sculpture'
- ap: 4972
  img:  'http://lh5.ggpht.com/jz0XvZSSYKqKSa4lJDK-rludOns_o36jZ8ZTzfEr42piZamiTjSASTLdII6pkxgjZgnCwKirjhEouS77BPB8Dg'
  lat: 40.094288
  level: 7
  lon: -88.248914
  name:  'Boulware Trail'
- ap: 4972
  img:  'http://lh6.ggpht.com/j712bbvDknzGlAU87nZA1Bx45Ng-0MGA9Uvuv-3WzIKA3W51mXOZpJ-TzVSbuU3uE2AsJ5wcO7_B6WDpdRr0'
  lat: 40.110684
  level: 4
  lon: -88.226053
  name:  'BCS Superconductivity Theory Plaque'
- ap: 4785
  img:  'http://lh4.ggpht.com/0UzQDuaKLiiPhEgEmKghfkzvXj6lROhxPIDJuI4nWLJFvdxJwGNcJZ1va0K_9cy4L2u0Zyeqv_qlIAwch5o'
  lat: 40.133475
  level: 5
  lon: -88.293988
  name:  'Parkhill Applied Technology Center'
- ap: 4785
  img:  'http://lh4.ggpht.com/GcCZ7JTzkEHTZnUWfpUgibDh2Wa4nzGM9-k13AG4I2RwFiPa6exz1vCzj7Hwvf_oPwJvYJt0xoRE6GZXmCMX'
  lat: 40.132625
  level: 5
  lon: -88.292636
  name:  'Campus Solar System - Earth'
- ap: 4785
  img:  'http://lh3.ggpht.com/rgh_2qJQUPC1OrARUkiQqPKoNReiqZYOimm5Nszb77pDh72OszuyiJBKn-vDxHUuyjO2XTeKU9GBHc3oHIYr'
  lat: 40.115283
  level: 6
  lon: -88.287899
  name:  'Greenbelt Bikeway'
- ap: 4785
  img:  'http://lh3.ggpht.com/KxQsev6i7POmNh1IadCWwWQSMdCuLIYpPwIdenSlVtzum523D1R-1kfeTbuOGTkt_jDwn4jswCu1edkumm2-'
  lat: 40.110037
  level: 5
  lon: -88.23549
  name:  'Red Lion'
- ap: 4785
  img:  'http://lh5.ggpht.com/BK5TjuMzuJgDVPz4C8HRjfZKeaoISnPJ-H7VaYeMNUYmxvvUY7RzIIlR13FjW9HHF_i5-znqs3O6nMxKPfcj'
  lat: 40.102188
  level: 5
  lon: -88.251507
  name:  'Little Free Library Charter 5753'
- ap: 4785
  img:  'http://lh5.ggpht.com/qq3QmeyCYxWnJF_DzzI5wVvHF4foNyr_bF3_j5eVPHJ1omSbD2INOifPJEO3pjz4X1l4_wMGD4uOT1_w6Tid'
  lat: 40.086713
  level: 7
  lon: -88.248293
  name:  'Garden Patio'
- ap: 4598
  img:  'http://lh3.ggpht.com/swF7asGHDD1L9hslewSBg2z-tocpd_HXkIYuOmz739SWxCj8KBqf-kcOPOFPoE8pLXKDxR6Z8jAJ8Kx7Fbnc'
  lat: 40.089334
  level: 5
  lon: -88.253652
  name:  'Mattis Park'
- ap: 4598
  img:  'http://lh4.ggpht.com/T04oZ0k13H90w4QZ7f_QTFH-yrHJNyKsJ-hRWmNk2YnqBSy8KwGZrO0fb-YN5RhCi3vg_903yE64_J-JZu4Z'
  lat: 40.092883
  level: 6
  lon: -88.26295
  name:  'Temple Baptist Church'
- ap: 4598
  img:  'http://lh5.ggpht.com/dnj__uItXDR_xj-g5PNpGYPNjJCPBFpsx3w9sWxvrOlayO6nyG_Qu8MygtuFZm9i4L2Gho0fkOACtzkGR_e2wQ'
  lat: 40.098457
  level: 6
  lon: -88.276763
  name:  'Mini Park IV'
- ap: 4598
  img: http://i.imgur.com/5j1qaiT.png
  lat: 40.152792
  level: '?'
  lon: -88.253532
  name:  'Toalson Park'
- ap: 4598
  img:  'http://lh5.ggpht.com/6iSvulYqf18jvvkjbKbtokZ1zczL5ZsEsgNJtpDT61eVwi5FIfifwQk2brM7UkcTtJNOdADLVtXIO7HCrlQ'
  lat: 40.068731
  level: 8
  lon: -88.242233
  name:  'Dohme Park'
- ap: 4598
  img:  'http://lh3.ggpht.com/2bCNiD7SWsS3uzFLMO2cZh-LpHUEMQGnfTmcNx5vJapXho2TuXke630-7zop2Sq4fuY8nWVqy4VCG23mvnIJ'
  lat: 40.104168
  level: 7
  lon: -88.238808
  name:  'Alpha Gamma Rho'
- ap: 4598
  img:  'http://lh4.ggpht.com/aFcisvUEjvw8cW_JZB2JIOpPXr_cWq9tGzjT65AMZfaR6Dwevg8S6dfNMTVswut9cKOr9-SCQdSqoOnQ4c1Q'
  lat: 40.087914
  level: 7
  lon: -88.253489
  name:  'In Loving Memory of Robert and Elizabeth Grubb'
- ap: 4598
  img:  'http://lh6.ggpht.com/BzDhCANV_iNTHhKFBGLuaUqOvChRZtPWnJ2Xk4h7NsKJHmTGgCWtFHWv2PpDA2fCsHHKSCRTrUNK8AKrLRnS'
  lat: 40.108066
  level: 7
  lon: -88.230687
  name:  'Community United Church of Christ'
- ap: 4598
  img:  'http://lh3.ggpht.com/lGjbP2iz0XvlEWLhgCBNqkWukvjrBowKmX-1_O44U1A3_4b3-vuXzkfp7rasqU81TcPBoQO82gAzEGtBBYcR'
  lat: 40.106058
  level: 2
  lon: -88.223672
  name:  'Music Building'
- ap: 4598
  img:  'http://lh3.ggpht.com/0HyRE6hI-Dp8OIZWrGjSBLw06g4xLl3H3SxdYDO-wm20QdpGQtvQ1-GBpxfAE5WNcC0D_aY-oOfGM1Wj1--EvQ'
  lat: 40.106092
  level: 5
  lon: -88.223135
  name:  'String Project Plaque'
- ap: 4598
  img:  'http://lh5.ggpht.com/kElaGOaV9aI8SrnM1D65gx9J0Ky1AKrN9Yo-pXVmDhELt2pee4MwVRiCqCmlqWzUWj5pS33GnEzAiXmiWKsw'
  lat: 40.108111
  level: 6
  lon: -88.229625
  name:  'Illini Sports Mural'
- ap: 4598
  img:  'http://lh4.ggpht.com/lQtf71rwzXt5zHafbKPm8Czz3n2KwBWlEaNUh3-2JKrXTDueZ_JerHOPeSecqLaxLBWC09dTlPizrDMTafpT'
  lat: 40.105618
  level: 6
  lon: -88.230986
  name:  'Alpha Phi Sorority'
- ap: 4411
  img:  'http://lh6.ggpht.com/D-AymiJdf5gt94o_wgUJbOD9Fpl4V7PijJOjkztpP0_J2k82i1TBLDAaqcH_SUTUFe9VlllfQCsXFg_J0uAPeA'
  lat: 40.11569
  level: 6
  lon: -88.243433
  name:  'Christ Community Church'
- ap: 4411
  img:  'http://lh4.ggpht.com/1BgYrJYdcGdepVZ6ibhTjtjZ6MyzKnQzLL4wxEnn_CEPnrJmOKHzPXm1qinGRA78MqKq11gKRlprm3Z7mDr0'
  lat: 40.115645
  level: 7
  lon: -88.243036
  name:  'The Art Party Studio'
- ap: 4411
  img:  'http://lh3.ggpht.com/LunaMtSKD9yiLQClolDY-Iqh0ENm9AgJdL4D1QxGs0j6TXPgqxDZea35x5ilAfeI5_0TGh5x1q1EqRsJsLFi'
  lat: 40.114111
  level: 7
  lon: -88.243697
  name:  'Champaign Surplus'
- ap: 4411
  img:  'http://lh5.ggpht.com/N1cFx79JwZqPlYPDW3HkNwRX8N4Auriii45qzYkAx9l-cKeK81qgZ6nuBpTBEIOyLzy4aIIhQKt2E7ZiysSjkg'
  lat: 40.10036
  level: 8
  lon: -88.250515
  name:  'Mark Foutch Pavilion'
- ap: 4411
  img:  'http://lh5.ggpht.com/aeGh3iXJqJ7skg-2JHEpngMSfcp1qDIEPoLMxzQNqbS5Y7HcxN7oE789bXiVFoFIcdCn7-3AhLPtxT_WE2E'
  lat: 40.0985
  level: 8
  lon: -88.248681
  name:  'Siti Sculpture'
- ap: 4411
  img:  'http://lh3.ggpht.com/8FqlniFErK7cq59awiT84u8KyV4FIRd5krZzfYa58zJToFps7whdBnriPqvO_kFKeLUE3SWbJhCOPuvUQzaGFA'
  lat: 40.100691
  level: 8
  lon: -88.251337
  name:  'In Loving Memory of Zeus'
- ap: 4411
  img:  'http://lh5.ggpht.com/EaT0PxhOud4vjm0kHYMit1zq4b2aTjV4M2olWNI-rM0oUVFeEI4kgeWGcrbk_EvcGBz6hwrN_wYLDLK3CUBi'
  lat: 40.088861
  level: 7
  lon: -88.251811
  name:  'A Flagstone Garden in Mattis Park'
- ap: 4411
  img:  'http://lh3.googleusercontent.com/awNe0JGlWWAtHv9iiLcqQjVyppWY-io4ybTL_ir2ZKsMLJgkZcW4rdUAuDjOFdWQvIcp5jlTWiROgHANh1Y1'
  lat: 40.087822
  level: 7
  lon: -88.253161
  name:  '"Ice" at Mattis Park'
- ap: 4411
  img:  'http://lh4.ggpht.com/DJiaqGgwCaKSjYczELIcjQOeBtoEqd--7TZYBJWO9_Nd16vjKwlco9tKatJTdAKT1CPoO7Cj39_rZvp8p0Ch'
  lat: 40.087241
  level: 7
  lon: -88.248222
  name:  'NCSA Blue Waters'
- ap: 4411
  img:  'http://lh5.ggpht.com/FeahTnHcc-Tb0sWOd6cQiYz5QrczzT5-Behz0KlyeiGyzYhvAlNlhPI72BVkREal1tU_4g4r2UklF7lcQgKr'
  lat: 40.087292
  level: 6
  lon: -88.253528
  name:  'Agnes Sweikar Memorial'
- ap: 4411
  img:  'http://lh5.ggpht.com/X-Tq3QbQ3JvCApWIGFxRwDJId7aLa8hY_ka0eU3QySTcZBgXcbPC4UXEQ9VVMsA-dYRxGqAdCotw-q7dby8f'
  lat: 40.088412
  level: 7
  lon: -88.251667
  name:  'French L. Fraker Memorial'
- ap: 4411
  img:  'http://lh3.ggpht.com/dlNcqhZvSXijpkfvwOrcW3aTD-ILaZMONMnmaEZv35uhdz7QbonCx9poCoucdHPTAu4q8P67w-GccKI-V7n2'
  lat: 40.068578
  level: 8
  lon: -88.241988
  name:  'Ernest R & Marian Adair'
- ap: 4411
  img:  'http://lh4.ggpht.com/wyM69v5COeXPWWt_LnfNM6UlZe8vhGenr3i6cKAsnyELc0kC82jEE4kljcMgjf5IByJFesORVLdjdKjLoAON'
  lat: 40.068553
  level: 8
  lon: -88.243226
  name:  'Nolda and Carl Dohme Memorial'
- ap: 4411
  img:  'http://lh4.ggpht.com/Nh7M4_i-advmuf0RWReev2TeUAZ57VTRzcf56-U_TuHsKcjIdqXGvbxpOccEx1CaYHKzGwI9mZVmnLdmhryGng'
  lat: 40.115557
  level: 6
  lon: -88.239009
  name:  'Honesty Best Policy  - Vernon A. Roland Building'
- ap: 4411
  img:  'http://lh4.ggpht.com/9hzMj8KV-HraIucojjHAEgyMZsJAR9TWvNS-QSBB5LTYBOTwwqfTQySJ_Sz88eP3eyFWFYhx5qDVY93t8fk'
  lat: 40.108032
  level: 5
  lon: -88.225702
  name:  'Centennial Court'
- ap: 4336
  img:  'http://lh3.ggpht.com/d22WfOweu5KihYO3p-dIx5QtWsz_834My6ELYkgP_1bYkGTuukACMq88coW6i9z-gNTexwVwWSEYMHwmBnY'
  lat: 40.102705
  level: 5
  lon: -88.225051
  name:  'ACES Library Information and Alumni Center'
- ap: 4411
  img:  'http://lh6.ggpht.com/c2I39IJvSBKmCLonmhP_RN1vLEpYY1recBXFm8xpGHxES4bAN2kvAcda8ZzvT75uq0yWQCv7N_dzP6ce5-Tu'
  lat: 40.108043
  level: 2
  lon: -88.22469
  name:  'Building of Molecular and Cellular Biology Sculpture'
- ap: 4411
  img:  'http://lh4.ggpht.com/19VZtu1hVcvRULCxi68PgA-pzTXEiobtDO60r-8r1MaFnboaw386YrrJphD8xHfbAGiu0SGHZ6nuzuhvh59x'
  lat: 40.102559
  level: 6
  lon: -88.226208
  name:  'Agricultural Engineering Sciences Sculpture'
- ap: 4411
  img:  'http://lh6.ggpht.com/pxaCt7clhIXc1RVGMMJZsmnbEWNWjFYJiUrQMev_SeOmXBothvOzmfnirQ5_W8CMa7hpigqydQhKMa4XFCAi'
  lat: 40.108173
  level: 7
  lon: -88.230209
  name:  'Mural on South Sixth Street'
- ap: 4411
  img:  'http://lh3.googleusercontent.com/IL1IY2pEoa4vQNpzLwvTQY2XdPSKTnAOTyAaJle-S-3FAQF1BJqAxI5mRqem75ioMEmfTui9CLSzjwbI8P5C'
  lat: 40.128772
  level: 5
  lon: -88.211041
  name:  'Busey Woods Trail Shifting Views'
- ap: 4411
  img:  'http://lh3.googleusercontent.com/hF5kZFrZGRZkYYPDY8q06SkEPkSLljkbEbCI4gcyZ1QU1-wpfBV_Cma3GT6YE6PTdRBZr-7NuaDvVEm7oQU'
  lat: 40.128105
  level: 4
  lon: -88.210924
  name:  'Busey Woods Trail - A Change of Scenery'
- ap: 3848
  img:  'http://lh3.googleusercontent.com/mFMoKbSLtdP7TnaDrMHLxDWN1FGdQeY6BuKqxtEYSN--Sp6L7DgrpNlGARlPutxd0UNQuEW3WwuNl_Hny6_1'
  lat: 40.13183
  level: 5
  lon: -88.288788
  name:  'Student Union Building'
- ap: 3848
  img:  'http://lh5.ggpht.com/FEi_8ic1_FXYTyUlXgNz6IOiBsLCPTURCMQCXc2T-lpcQV-d_wdBC3YEDYltNn09_oi76voYbhGSi8P6r6QZ'
  lat: 40.141914
  level: 4
  lon: -88.235279
  name:  'Judson Chapel Baptist Church'
- ap: 3848
  img:  'http://lh4.ggpht.com/ryDcZUJK2aQ_fI0-hY850_t4ZmG2hNmtCx7cxbX83w3cnUWdI-ywpTuQrUVQNxGl3_DcxxNr6bupfDTsagRa'
  lat: 40.117107
  level: 5
  lon: -88.242467
  name:  'Radio Maria'
- ap: 3848
  img:  'http://lh4.ggpht.com/aXG2XQNJXyPDBz0o8tyfv07VIfskZuFMOWW2ylZpZKkWMnFjoiBmBiWg2VedsjdIorpfX5mtUGnwVLFb7Ga6'
  lat: 40.091438
  level: 7
  lon: -88.25077
  name:  'Fox Development Corporation'
- ap: 3848
  img:  'http://lh5.ggpht.com/f1O8bFXHTg2PTOAUVLvrqk5xx5ps9SeqhpJ1RIPtSxm0I-e7J275e2ujJp3lFQGHUBW_vS90KOsrcdLDJ84l4g'
  lat: 40.110797
  level: 2
  lon: -88.225321
  name:  'Multiphase Fluid Dynamics Plaque'
- ap: 3661
  img:  'http://lh6.ggpht.com/v2m1E6vVK4ZRaRPhGli7jCsG7xZQZ7I3vV_5AogdEpPU_A1vz9WEkH0vZ-vau2IAdmydYJcXrOA6SMr7vUfT'
  lat: 40.128726
  level: 5
  lon: -88.290287
  name:  'McMillen Ehler Homestead'
- ap: 3661
  img:  'http://lh6.ggpht.com/wk0l8Qe7j_Ph_LhyPvdNO6g8nwrxpswodrbNuOzLa3K1QNBrIVidi9iztmDXu3HtCWo5TpqDDjPsEbSl2aWUKg'
  lat: 40.144554
  level: 7
  lon: -88.248689
  name:  'Town Center Park Champaign Park District'
- ap: 3661
  img:  'http://lh3.ggpht.com/xuR2FaQJXFhWOfH2YR-wgTMUn6de0x9fK_RzH7yx2vxtFcveZF4qEwPTtrwnO1KK0aVRHbtmwoYGNSheowgV'
  lat: 40.096637
  level: 6
  lon: -88.268256
  name:  'St. Matthew Church '
- ap: 3661
  img:  'http://lh3.googleusercontent.com/hJZWoErzM-MuXulq4FlhlZwMbJX1Isd81GBUBVKayd57jVIVxUle3itd-1DRKo2VaNXznWr1X639fa44Etk'
  lat: 40.141919
  level: 6
  lon: -88.244611
  name:  'Marketplace Mall Carousel'
- ap: 3661
  img:  'http://lh6.ggpht.com/WVVbmiu2GGTnPTszcnYYILHKlkZDoxB-QY6Yv7YPoUfdVn92jYnKjpVKNkfWdFrPjq-BaFeKGJWLZlE-bbA'
  lat: 40.120467
  level: 6
  lon: -88.2577
  name:  'Salvation Army Church'
- ap: 3661
  img:  'http://lh6.ggpht.com/yoGdHEqpRRqOE5pA5wHdi_ismU_TrB-kTiqVV63EO630KsU608TIfjLijcqJ38At7MyyrE2urWFMPY1Sops'
  lat: 40.118121
  level: 7
  lon: -88.258039
  name:  'Mini Park V'
- ap: 3661
  img:  'http://lh6.ggpht.com/4K7T7_gGrfag_-Hep7ygH_rklKsjale4oo2CqJAFTpPB5EM4Dv8ZGyz7i_qUOuLnt16GWxDSJWCS8TZYyGY'
  lat: 40.115421
  level: 6
  lon: -88.243168
  name:  'Walnut Street Tea Co.'
- ap: 3661
  img:  'http://lh3.ggpht.com/NfRR7PyM2-UNoQGKgRsf6sUZdUTMp0sWqha9caVs49hYb0AnT9OznQX0dQGxKJNP6KiHWJ0WRUMSQh1m4-rwvg'
  lat: 40.117976
  level: 5
  lon: -88.245082
  name:  'Robeson Building '
- ap: 3661
  img:  'http://lh6.ggpht.com/UHh6R5Pfoiuw4sX96l-GNlhyni2EhPOuuEfaN9oWYLEs8qV6pfLkQugcY8yhMRq01gHqUu5GqKOA6bt9t2NfFQ'
  lat: 40.104458
  level: 6
  lon: -88.239125
  name:  'Delta Chi'
- ap: 3661
  img:  'http://lh5.ggpht.com/BiCieN-kLaA8XtzYGa1FowWTlW2QzWtnxSCf1y1ChY9WXw1kN0r1Co49FI5D_xcWRrgO-_wOvqfduWQ2o337'
  lat: 40.092411
  level: 7
  lon: -88.257688
  name:  'Champaign Fire Department'
- ap: 3661
  img:  'http://lh3.ggpht.com/wkPcdDupubV3THJo6r2OpMtshziiIkqBISPTCPe8boa-8nH33u83Mznkr1yYWNR_l60RCy8HO_obqrdNGUI'
  lat: 40.093633
  level: 7
  lon: -88.246611
  name:  'Fountain at Illini Plaza'
- ap: 3661
  img:  'http://lh5.ggpht.com/H88EzgVTAsWrhBcyG4PwdAbPDu4BLlyXkVIBnJ6gtmNusC2MU2vLumSrYGbl_7GmGJ7f5kE-6ebyy_VokU0L'
  lat: 40.107512
  level: 7
  lon: -88.244964
  name:  'Fellowship Circle'
- ap: 3661
  img:  'http://lh6.ggpht.com/nRwew4OU3JNWRI1-xCyuN1xwDabajLFDuSlOZ-_M8BwJELli4V8o30JI0UyF6Kpc4gfDGdh10kJ6mD6ggMo'
  lat: 40.108561
  level: 5
  lon: -88.250039
  name:  'Harris Park'
- ap: 3661
  img:  'http://lh4.ggpht.com/aQomBYYXuWBUbnpgDH92zk4VBmLMOuf5n6WXkMHGTzf1DUlyXL-u4a9ulFUrqE5AO82s_LFM126E-B0HqONp'
  lat: 40.088127
  level: 6
  lon: -88.253036
  name:  'Peggy and Robert White Garden'
- ap: 3661
  img:  'http://lh3.ggpht.com/LR76HrJqriPFUoc2XSs7jb2SotnStZv20kI7rgUx8B5HqhmetnTW4MA1tCp1ws4g5gw0sf9g7M3Lwq4VwfpD'
  lat: 40.111687
  level: 2
  lon: -88.225353
  name:  'Transportation Building - University Of Illinois'
- ap: 3661
  img:  'http://lh5.ggpht.com/4eagHlnlpVbtFi_knZN73PIs2A--Ipj6SOlkQADePlfnzfOnJn-cAv0IoNNv4qR8WrbUFImUKHBknyaoAewO'
  lat: 40.111383
  level: 2
  lon: -88.225675
  name:  'Only Rain Down The Drain'
- ap: 3661
  img:  'http://lh4.ggpht.com/3Lm-KzGM9vXbvxwzd3uNOE1ibdw6aBbJypb9HN6pbH3ANeklxtL1pI7O-dXg3t9maE-0WFjc9mIrgHbNJJE'
  lat: 40.102641
  level: 3
  lon: -88.227634
  name:  'Farm House'
- ap: 3661
  img:  'http://lh5.ggpht.com/ucFkWovrZBr6wFMicSGD78p44tqzcyfJCvQuAocYo0do3ODoHsOeAMphZZferoOLkGfuJPQVlILRzKG1vAPg'
  lat: 40.109172
  level: 7
  lon: -88.231151
  name:  'Illini Life Christian Fellowship'
- ap: 3661
  img:  'http://lh5.ggpht.com/GN_FYcjKjamCNlfD8yA995MpcEHa9gIZVV6FBYtdeiNr_XgtCIN6gnN6_dSKwt-DenNMN_ZiJaG12iLuY6wt'
  lat: 40.103588
  level: 5
  lon: -88.233095
  name:  'Huff Hall'
- ap: 3661
  img:  'http://lh6.ggpht.com/q48Oqk2mm3dXQ2ppK-aYGXKjIiTAOEZfrFkiLK9LXRz2uN9hSKihKeCwfg33q1Z2zMTIMjqJRjPA1U_V3pbR6Q'
  lat: 40.104417
  level: 6
  lon: -88.231962
  name:  '1926 Sigil'
- ap: 3286
  img:  'http://lh3.ggpht.com/fxsMa6MK6sWcY8fyTRPmRixomHagKag2YrMZjovxjujmavVawLdmU0Mi0HpNq5kH7UUoXfELEoBOFTkzeRwV2hp9PknjajWlvhX6jYIyUSrrH76k'
  lat: 40.10952
  level: 2
  lon: -88.228288
  name:  'Altgeld Hall'
- ap: 3661
  img:  'http://lh5.ggpht.com/LLVKvcsTaSPmGBzaGFrvYIV4RhGzb6LqC_npAarehd2aLZSaVhjGzQV6T63Ke07reCQzO-GoZXmEfwZMOcM'
  lat: 40.110569
  level: 4
  lon: -88.226784
  name:  'Cubist Art at MSEB'
- ap: 3661
  img:  'http://lh6.ggpht.com/cYQLNtCsiRGXd_y7-ZdI4jGlNRpC4oiy2Z7UT7etDH3FBvBRQDtOW_rY0NBvKLJMnTw_EXH75NDGMcI6UkeV'
  lat: 40.105618
  level: 7
  lon: -88.229005
  name:  'The Chapel of St. John the Divine'
- ap: 3661
  img:  'http://lh4.ggpht.com/BL7RVMX7ZBl59uh3qjTqPi1OQTCLnWHiY3GLhCR_f8oAL1PmddwJq3mnTe-UN1IYkQSOR5i2cgpaA6oNdny6'
  lat: 40.12807
  level: 5
  lon: -88.215897
  name:  'Busey Woods Trail Entrance'
- ap: 3661
  img:  'http://lh3.ggpht.com/V-oTVbkji_q7V9k0WGhQyDum7PEtruXdbp6e-PzZq3sFNxGWdA79FLEv8uGaZrcSwWE15UhTtBB0ZMW0Ig3j'
  lat: 40.127466
  level: 5
  lon: -88.216274
  name:  'Lincoln Bindery'
- ap: 3661
  img:  'http://lh4.ggpht.com/n7S7CjMfxfFwYHpq5HrRc6lFaFZYFVb4vYJAcTAc8MZgOgDNYI7QBChMeKIY-OSJkDSdwCf5KsJYmDesbHhq'
  lat: 40.127017
  level: 4
  lon: -88.209948
  name:  'Busey Woods Gateway Trail'
- ap: 3474
  img: http://i.imgur.com/5j1qaiT.png
  lat: 40.152871
  level: '?'
  lon: -88.253305
  name:  '50197185529145c883d36b74db0ec522.16'
- ap: 3474
  img:  'http://lh3.ggpht.com/07XrBN-er6Ecleor0n9RJ4DfGO6B2yn-ZxjI-Uy8Ba46Jtb6cXNVmATPiPiGyk-1jZ4wxa7-EeIWbWUqArCG'
  lat: 40.142554
  level: 6
  lon: -88.243468
  name:  'Dog Heart'
- ap: 3474
  img:  'http://lh5.ggpht.com/_9uqsDQROIwqIhKx_URY4DdZAapoZBEWK6Eaclt5mM5vPsjwQAD-v8Bv-4b-Smq2F8X4zOgzLx2KwySkFWc'
  lat: 40.118448
  level: 7
  lon: -88.25211
  name:  'First Church of Christ, Scientist'
- ap: 3474
  img:  'http://lh5.ggpht.com/9XV46K2cUd84oc6HPyqlj53LKJS8lVs0f0gPHSCBkkTwiHaxivu36dlAj5M38EzK-2U4xhvZJ7AiVvGM5yk'
  lat: 40.118175
  level: 5
  lon: -88.244562
  name:  'The Russell Building'
- ap: 3474
  img:  'http://lh3.googleusercontent.com/W5PjcRhelt3420IFjpSdOXtmIiv0M99Qv9Xupe6lckHDJDW4zHE9GyACkz8wXBF0_OIO2Jex9d7S8UQ4FJLa'
  lat: 40.118361
  level: 6
  lon: -88.244573
  name:  'Art Theater'
- ap: 3474
  img:  'http://lh5.ggpht.com/wX6-mbTE7nT00T6ildapKbI5ZrnhPIt4l91DhMseyo3GYFrgQIuqbjh8ntZY6NxGZ-qa6fKWlyoBOPdIdNIt'
  lat: 40.114653
  level: 7
  lon: -88.243729
  name:  'The Phoenix'
- ap: 3474
  img:  'http://lh4.ggpht.com/9dqmZPc9OI1ON-iEnfXAxSAMX2M07pEgKUsb47vLrTrW2BW61siFLquk1fXbldWXGPg69XGdSG4wKPGS5rI'
  lat: 40.113521
  level: 6
  lon: -88.244122
  name:  'Artistic Graffiti at MCS'
- ap: 3474
  img:  'http://lh4.ggpht.com/3gTAX6rKgNjLmBOYvAVTgSPQej5yRF_38uRllp9H4n5N6pvwWo5kDMDwlIkFVPPl30BXPSGAlZ9pO9B4DMk'
  lat: 40.116218
  level: 5
  lon: -88.242141
  name:  'Live Action Games'
- ap: 3474
  img:  'http://lh3.ggpht.com/POVqVDorpNyT78a1jNBYargU2WzX94oR7tmPRWdJpIYV2w5OZwXO5M0mJU_sIMCB-b3l1-mcCmck-f87iAw4'
  lat: 40.090059
  level: 7
  lon: -88.219342
  name:  'Illini Nellie Memorial'
- ap: 3474
  img:  'http://lh4.ggpht.com/mrFIlt7StuloTop3ci5DRg10i06ivamSn69PgqYPZfkV23dOzf-DhDdDUjeOOzy1ILR9xOOdLX_NBsMOH9FO'
  lat: 40.124377
  level: 7
  lon: -88.25297
  name:  'Spalding Park'
- ap: 3474
  img:  'http://lh4.ggpht.com/mnyMwxXghZOmxdJw2eJk5U9A5sfO_QLi0eKc2knF3RS3bJhiIa0N7N75KIzjEehKD3ChMFgaOHVRltiOVAw'
  lat: 40.125074
  level: 4
  lon: -88.251776
  name:  'Spalding Recreation Center'
- ap: 3474
  img:  'http://lh3.googleusercontent.com/zcTaX3OHcGZu7CzBV1HvsKtB5RiAW7oMwxS_7phps0tjr70eNr8xbxrJ_P6agi_uXJtMNdHPnks9rZcrR6mG'
  lat: 40.127267
  level: 6
  lon: -88.253451
  name:  'Champaign Fire Department'
- ap: 3474
  img:  'http://lh4.ggpht.com/vxjetUOC6_S8Ru3Q1ivzG4NE4bAAWg7_opiMwStExCoUHiRaIab8NyXLypEOAo7KBtsRQRzJX-TimhsOlBu3'
  lat: 40.087121
  level: 6
  lon: -88.251406
  name:  'Amdocs Shelter'
- ap: 3474
  img:  'http://lh3.ggpht.com/DpFBT6YsInBvoo-6DUZeryDpITUgNnrw3j-iMPdeg6S2h9pL4DSqJLbMzsMqmLRwgJKLHa-xMVjHKDoSqwE'
  lat: 40.089107
  level: 5
  lon: -88.251579
  name:  'Donald M. Decker Memorial'
- ap: 3474
  img:  'http://lh6.ggpht.com/sASzuKZleVbY8UGdZnFzs0GXiOHosiNDf-GldJNSs-w2k410HzHcqBrjuvNoklKZ0G4mwuhXmvFPOMlrFXRZ'
  lat: 40.085468
  level: 4
  lon: -88.251369
  name:  'Mattis Park'
- ap: 3474
  img:  'http://lh3.ggpht.com/Jjm7ZUINFebdUQM0ZQth9oP9Uyw8xFVkOvgyZHQPHJ1pHk0-WPWHpdBULljg6f9GLhbmItzSwpavqyrf1zXwIQ'
  lat: 40.087721
  level: 7
  lon: -88.248276
  name:  'Work And Play'
- ap: 3474
  img:  'http://lh6.ggpht.com/PrKWQe_StHjP7QQeyxlKiMSxAelIQlmbHzFMejewhMdVT0J-uvMpZCUGvQy_dZfrqfDnkmrIZYWkZORSGrnp'
  lat: 40.088449
  level: 7
  lon: -88.251396
  name:  'Boots''s Garden'
- ap: 3474
  img:  'http://lh4.ggpht.com/qWLIT-3GsQkC5f1iLdtWdxCs7cZzyMqqwXBViIYnN7Hvp6UFp3JqYe_qFKGGCSM1cWWbZZZh2X2uS3fS2lE'
  lat: 40.068474
  level: 8
  lon: -88.241437
  name:  'Dohme Park Shelter'
- ap: 3324
  img:  'http://lh6.ggpht.com/3F-W_tWjI9to9yO9QFciZhrR-g69gAfObkgheBu6KlCyrjO3-yU1e6v7ziRZ5toBoJYzhhsInOPwyvIAQcQrDg'
  lat: 40.103603
  level: 1
  lon: -88.230999
  name:  'Legacy Stone Class of 2013'
- ap: 3474
  img:  'http://lh4.ggpht.com/lHmHpXRMH_OkQ_ZaCBKOe_1H4uKjbGtrlIrp1IWJE3ziHuH5jCVNEfDGTtuhBxGehg_MsT9WcAUXhpI692Y6_Q'
  lat: 40.103269
  level: 4
  lon: -88.231487
  name:  'Culture on the Prairie'
- ap: 3474
  img:  'http://lh4.ggpht.com/tLX-6Ub72fZQHiUgdDlTCFdgJMzvyICnd3BUZ2CkMd1kPhODSr7FDW_rVkZTBZ11U6gjZULvMZGnHcm4p1wo'
  lat: 40.10309
  level: 3
  lon: -88.23142
  name:  'Gelvin Garden'
- ap: 3474
  img:  'http://lh4.ggpht.com/mHAXKPtOyg_DWRs5A_0yhGeDsfU4f4o3xJvzziri7o3ksPPKtMAHUkUBOb0JJ78gArdP5Q6O-UiXNDG3RHaIYQ'
  lat: 40.109339
  level: 6
  lon: -88.234149
  name:  'Alpha Delta Phi Fraternity House'
- ap: 3474
  img:  'http://lh5.ggpht.com/Tn5ARN-X6VTc2q6atZ2WYq3c2g3gbSGXu6_vXf1MDwHfLpdTtnQ-CilBAVGvL6R-SHhq3fJ4WZI-yiJKmIId'
  lat: 40.110398
  level: 5
  lon: -88.235143
  name:  'US Post Office, E Green St, Champaign'
- ap: 3474
  img:  'http://lh6.ggpht.com/cUV2o6ZPyJSFnHYl7jePeUIS7BrVr1H5D8Zbf7B3B8ALrTq7pTI3e271i1DHztqUGXITpiA399P3vNP83fk0'
  lat: 40.105767
  level: 5
  lon: -88.223378
  name:  'Busey Hall'
- ap: 3474
  img:  'http://lh3.ggpht.com/wOZOXhKOnhbKEPMQke-zGIG_vheDkHM8q19B1n_is5H7t1whBcQxBIGZI6VIPNw8mdCNXG6EUZeSjd1YLdngdg'
  lat: 40.108965
  level: 3
  lon: -88.227184
  name:  'U of I Mother''s Association Plaque'
- ap: 3324
  img:  'http://lh4.ggpht.com/1LUozaukItxu6cHk_7wORzYYNvskCHi_wUxbNOAcIXNbgLuYn7VElFG0tzY02e6pY-AEL8nNHAL6ewLCaLMH'
  lat: 40.10567
  level: 4
  lon: -88.228634
  name:  'Public Broadcasting Plaque'
- ap: 3474
  img:  'http://lh6.ggpht.com/fmwXS4vSqefbmXDWmZSLjVARfYE8HU3kSTuyc8sUvk2m8luvvHf1LHjv6Yu0UjOPHYh_eGbaBrHgiAXfHo0'
  lat: 40.10503
  level: 5
  lon: -88.228342
  name:  'Classics Library'
- ap: 3474
  img:  'http://lh4.ggpht.com/g5bf6n8J6ugyF8pztcWZWnGyNmzIDQhskzXCDf2dJbuiqbub_xApqggrQrqn6WCy2yYmLnGrcmuQkqeQKx2IwA'
  lat: 40.126769
  level: 5
  lon: -88.215041
  name:  'Busey Woods Swampland Overlook'
- ap: 3098
  img:  'http://lh3.ggpht.com/9aQBG-poFARclK9XL7iFIvWePkawZwWhv4Sh0zQhQ0Sy9gdDD508d4gCtpcUP9UNoYM6uztea0aQ05RPd9rZLg'
  lat: 40.115412
  level: 7
  lon: -88.245046
  name:  'Eddie Thorpe''s Memorial Rock And Tree'
- ap: 2911
  img: http://i.imgur.com/5j1qaiT.png
  lat: 40.00364
  level: '?'
  lon: -89.723016
  name:  '1dd6c00772fd49b38275c390055195c2.16'
- ap: 2911
  img: http://i.imgur.com/5j1qaiT.png
  lat: 40.312242
  level: '?'
  lon: -88.201368
  name:  '2012 Employee Dedication Bench'
- ap: 2911
  img:  'http://lh4.ggpht.com/vKkSwERLa3zQO2UUIiYl1AEruAx1QTPcP4jSmPt89PG4AviJ1WhlVVH8qmqJ0aY2gqJmHcqdZFcM2pQconc'
  lat: 40.139375
  level: 6
  lon: -88.272793
  name:  'Salt And Light Ministries'
- ap: 2724
  img:  'http://lh4.ggpht.com/ZevI283-hdNmxCDG58ggAccDFE_BgYgPK-Hwc6pMCOMdhClXrMtmBtTONxbI0Y_iV-SVdkgRT28tdz-T-6Vt'
  lat: 40.146982
  level: 5
  lon: -88.28914
  name:  'Champaign Kingdom Hall of Jehovah''s Witnesses'
- ap: 2724
  img:  'http://lh5.ggpht.com/93SMm7gYjGLu_6bFOqGL5MXKxKF_NsnHuxiDyywI_Jrhz-LaQoNlm0yw7lG0I9rhp5vnHkATk01A_CNYmYf-'
  lat: 40.128358
  level: 6
  lon: -88.243471
  name:  'Champaign Church of the Bretheren'
- ap: 2724
  img: http://i.imgur.com/5j1qaiT.png
  lat: 40.285989
  level: '?'
  lon: -88.127072
  name:  'Paul Fraser Kent Memorial'
- ap: 2499
  img:  'http://lh5.ggpht.com/TwKxvDv1ImbH5RTs7GHqqK_rPohVtqtgToH7YuDkkwa5BRFiMEcY1vWcFrJLkhaXW6cd2YVL0_Vro2JaA3K1'
  lat: 40.131575
  level: 3
  lon: -88.314062
  name:  'Mark L. Rambow Memorial'
- ap: 2724
  img:  'http://lh4.ggpht.com/HuvshlWthM50za1mc2WfWSCI8Lw1ExcCABPQ73kYwv_LJ0bx4gs0WgpHgX5KDNhypmHCVdiPvxnIXRIsYr_TkA'
  lat: 40.113728
  level: 2
  lon: -88.276582
  name:  'Seventh-Day Adventist Church'
- ap: 2724
  img:  'http://lh3.ggpht.com/whrVudLIelW8yHGGZa7geAVXvbkevW5Vc4DbMBSrMTYN38-Cce_sYnEFxEDWHJQouK3L-LjMbbADmlyYto_D'
  lat: 40.131036
  level: 6
  lon: -88.2778
  name:  'AISC Steel Teaching Sculpture'
- ap: 2724
  img:  'http://lh6.ggpht.com/DumXNsG-1ULiWogpcQw-VzQVxr3f1Rb57MKc3GWEGzCwoIfDc8ErqGSPeDPGDyg_6fYtNnLQpFMP0zbDGTE'
  lat: 40.141598
  level: 3
  lon: -88.238817
  name:  'Red Shield Center'
- ap: 2724
  img:  'http://lh3.ggpht.com/4NvHbplhArQJrKIkJMw4Ia0q_OtktXP-jC6FtPlgn6V49hv8LJbu0RC2ff0eTy3bF3ihXL12v5CPGwvlRNBF'
  lat: 40.127538
  level: 5
  lon: -88.199119
  name:  'Perkins Historical Site'
- ap: 2724
  img:  'http://lh5.ggpht.com/R4YsY7oUfZDrMJ3QJtIKwNvcX7K4vxIpwfLebL2U4x5m1UibakO0KUZJXqdfYe-W9IUNBmlCu5LlSy6jtKGM'
  lat: 40.105323
  level: 5
  lon: -88.239595
  name:  'Campus Post Office Services'
- ap: 2724
  img:  'http://lh4.ggpht.com/7NJ1wKtp4ioJudcPhY5qErw0Nh7MKYhm0RnQXURwQtlyukI7tbSb4MQT3Ob6P7qz3QCAyNwOSzkjcvBjw4FpZw'
  lat: 40.10565
  level: 3
  lon: -88.221497
  name:  'Gove Plaza'
- ap: 2574
  img:  'http://lh4.ggpht.com/CZA6uXTYgSkrccw1vqf6XFlfkzl6I7Rj79GOKIYGvd1Zem8O1u-opoJu65ma2eHnKdfysF0mOVGzc_am2Ns'
  lat: 40.110623
  level: 3
  lon: -88.22799
  name:  'Eta Kappa Nu Plaque'
- ap: 2724
  img:  'http://lh5.ggpht.com/LPlCgoOAlClRaVCl_B1sHDkn38OgDbXat-l5Q1bDZLP7mOUMfU8pK-o3N8BEqh0vHJcZBHo3iz2AMQKAhot7Tw'
  lat: 40.110833
  level: 2
  lon: -88.227425
  name:  'Engineering Class of 1975 Monument'
- ap: 2724
  img:  'http://lh3.ggpht.com/mtgiI5TKcuExETpmdSqIFabkYgVZTaXXLJnaIyzxeHPIunWoj_Fj8BqqwZG4nVQwSnngv15YxD-c_m9CHkr3'
  lat: 40.111202
  level: 2
  lon: -88.226447
  name:  'Boneyard Creek Memorial Streamflow Gaging Station'
- ap: 2724
  img:  'http://lh6.ggpht.com/vlKOFCgVZb_8XoZHDdzD2X9Xsejb8QVVqEM5U4YfgnKJbQIIHHSK2hSpgycF7vqRkGKRYYnbjVTyKS8dsHF3ChRyF01faLh907jhNd__xiEkGTWx'
  lat: 40.111225
  level: 1
  lon: -88.226537
  name:  'Fire College Plaque'
- ap: 2724
  img:  'http://lh5.ggpht.com/Zoidr1eUAO2UEM6SyifBpkC3K42Ctl355Krd3S2ZU3BbbIMt1XFKF4C35huJT7a-K1PMF6JCK3ztTnr2Wbc9zw'
  lat: 40.109178
  level: 5
  lon: -88.22945
  name:  'Pineapple Pillar'
- ap: 2724
  img:  'http://lh4.ggpht.com/RF7EbCh1YRbFHfis_PEc88NF1v4Ndhj-Rm7rrlY7F8s-Mrv1EMEFnajFbYiNffZ_3kMNL80Zv-_jtaMYMtLA'
  lat: 40.110655
  level: 5
  lon: -88.22725
  name:  'Gothic Brass'
- ap: 2724
  img:  'http://lh5.ggpht.com/jQxBvX2jWXZCQP5ap9HmKaDDgG40pdH5nPpBNcYppZdxce6GWdxMRTYyqKrLxnk_TsmMAd7G6gRwJ6YI7S-v'
  lat: 40.107574
  level: 6
  lon: -88.227843
  name:  'Iconic Pillars'
- ap: 2462
  img:  'http://lh5.ggpht.com/zdaFJ-aI4Re55DtEiADt-qd1MMBuWZqEByU3BbT-0eYI80maTD-8JB5vJgtwKPFsFk-V75s-itU-cBisa-W9'
  lat: 40.132819
  level: 5
  lon: -88.286151
  name:  'Dodds Park'
- ap: 2537
  img: http://i.imgur.com/5j1qaiT.png
  lat: 40.559518
  level: '?'
  lon: -90.015436
  name:  '805d29e179ae43ff971e41ce2367eaef.16'
- ap: 2537
  img: http://i.imgur.com/5j1qaiT.png
  lat: 40.113259
  level: '?'
  lon: -88.369764
  name:  'Bondville United Methodist Church'
- ap: 2537
  img: http://i.imgur.com/5j1qaiT.png
  lat: 40.557193
  level: '?'
  lon: -90.032145
  name:  'b980b01d31ea4278969944c6686d9197.16'
- ap: 2537
  img: http://i.imgur.com/5j1qaiT.png
  lat: 40.557302
  level: '?'
  lon: -90.030321
  name:  '79957b55fb4a4695a3273823522c45c5.16'
- ap: 2537
  img:  'http://lh3.ggpht.com/STEfnDDHEff3fffoWiEjvWm4SETgCRyRIvPgf92kzrsxo3sdh1SNg1AmGiFqvspDfSx0OXri-AXVfOZRWRMe'
  lat: 40.13156
  level: 6
  lon: -88.239027
  name:  'Human Kinetics Park'
- ap: 2537
  img:  'http://lh5.ggpht.com/6W_b3aoHNnxViA4TkycmE5hhV5q_VHfypLNlgG4sAyw2eJ5Meyzi2-vwTA8miyKA5pZApxbfpAa7uc0zlCM'
  lat: 40.134758
  level: 7
  lon: -88.313172
  name:  'Sunset Ridge Prairie '
- ap: 2162
  img:  'http://lh3.ggpht.com/j0Yx7yuvUTJbnHtY38VFaty8xpyZMMDS_bSmvbHQx_2nQBiLqF4PGpLNdTGXkRgA3-OANQgASvn1mPGcuJi6HA'
  lat: 40.131715
  level: 1
  lon: -88.31369
  name:  'Mark L. Rambow Tree'
- ap: 2537
  img:  'http://lh5.ggpht.com/S_72RqBcpwyaqDotOOM3zyRvzzZXNgZUSEfOLLDYY9tEvWcEksixMnIL7N-7FO1EpE-CXGydpsChqEkBjX_I'
  lat: 40.131279
  level: 5
  lon: -88.290872
  name:  'Stone Hand Sculptures'
- ap: 2537
  img:  'http://lh5.ggpht.com/QruW49d2dc1uhQlK1BaZIeo6ruDNkqQfmvZz83eQ-1aC9ytGUcpFaHnKRTnXRc70F2EZ0-pVKGr9Slo0_9RfxA'
  lat: 40.139749
  level: 5
  lon: -88.273955
  name:  'Northside Church of Christ'
- ap: 2162
  img:  'http://lh4.ggpht.com/h3t9nwbrudSHJ4Ll-zBceLi_U0iwpgbsVd8Wjzy_JgqMiXIqIu4CILUiFnKdayIi0htMXQ5CNowcXO7XUqI'
  lat: 40.13401
  level: 2
  lon: -88.28239
  name:  'Eddie Albert Gardens'
- ap: 2537
  img:  'http://lh5.ggpht.com/pSVHjk6puyYdv3ztHlpJGnbkZyGsGsirMnxkDhlt8UMko4AhtTQbrzwInBCu5lK4Ttf7furE5pNW2AZh8HuSZQ'
  lat: 40.138109
  level: 6
  lon: -88.270158
  name:  'Glory Center International Church'
- ap: 2537
  img:  'http://lh4.ggpht.com/T-65fHAmnGmht8xdcXCF8weDy3uDecS4uOASIFtQBn7v84jrUpS3m9_rbJ1MNz5Syzjr8g_zO6YPklMYjlZQ'
  lat: 40.13695
  level: 6
  lon: -88.259966
  name:  'Goodwill Donation Center'
- ap: 2537
  img:  'http://lh3.ggpht.com/R9_j6Ix3G4wIobXVuK6nhjPbwc4K59mAiAEYBNzlpbhK11ILWcjzXIpL90el567VJkxLA0oHXb244mi3pMUk'
  lat: 40.106459
  level: 5
  lon: -88.262082
  name:  'Everette Rock Garden'
- ap: 2537
  img:  'http://lh4.ggpht.com/BDVsIEWOaH0zZsTgU8IbvmVNJTrl3EljfhNXeVt4C2BILNtXm5hpAq_6mLrTl66aJcUyYv4hFJKhxedLkKo'
  lat: 40.11679
  level: 7
  lon: -88.281854
  name:  'International Society of Arboriculture'
- ap: 2537
  img:  'http://lh6.ggpht.com/lcnaor8q6SYRZYMm-tUZtz1sXP81Bdwoa9Pf8LC0Vfggxa8JP98UTcgToQqXfmu99JegLd6L3Pb3aG6XjSQH'
  lat: 40.106714
  level: 5
  lon: -88.267574
  name:  'St. Peter''s United Church of Christ '
- ap: 2537
  img:  'http://lh5.ggpht.com/tZ1lEGRzdFJ7k1jwj0PTGd3tWVTGqCHIb1LcRdjc2pF5IJjsuYFFPQgwEWSBaPapa89oOEPXO_g2XWQxQl2h'
  lat: 40.110212
  level: 6
  lon: -88.276899
  name:  'St John Lutheran Church'
- ap: 2537
  img:  'http://lh4.ggpht.com/H1kV6JSczzSbcCblAHg5ZOgITW1mBAz0_oLbqbzxBlijGTBn7TP6KwA6UI0AAGrCN4VF0DAF79Vcj6_2R4dsB8LRTq6tud6v'
  lat: 40.116164
  level: 7
  lon: -88.241661
  name:  'Zipcar-45 E. University Avenue'
- ap: 2537
  img:  'http://lh4.ggpht.com/u_MtizNv_keIXM4ITgtjqC8nr5JvB8UpDBg_5_08uQDTsQr44mwr6ZlkhTp0iKbvcV9xCJqXDeN66xYWaI0'
  lat: 40.116227
  level: 7
  lon: -88.233833
  name:  'Haley-Walker-Ginza Building'
- ap: 2537
  img:  'http://lh5.ggpht.com/XQVr2AUWddJQMpYbapEIpcTLBeBvcpgmW016VjkAOXrp8_P2VsMxQY8FVhtDhA73iTCXCPiydjFIJcbcSa8_'
  lat: 40.116206
  level: 6
  lon: -88.24306
  name:  'Indigo Art Gallery'
- ap: 2537
  img:  'http://lh6.ggpht.com/ea6HxAw7m0OhhPqJJkZR9u60pR1sab_JdxaOyEltqmQd-63FFJzPY72jEnu08g9Gcjjj5cf3jyyS_M1E7OIbfg'
  lat: 40.11616
  level: 6
  lon: -88.241422
  name:  'It''s A Mistree'
- ap: 2537
  img:  'http://lh3.ggpht.com/Vcus4uEIgRrZOTuMTz10IGc3qhU5MdpmGnEzN_IiBQrVm1M6Q26geFSgc4VIbgx12Utl9V52J1Y4g35V3MneDg'
  lat: 40.117215
  level: 5
  lon: -88.245551
  name:  'The Virginia Theater'
- ap: 2537
  img:  'http://lh3.ggpht.com/IKYzmqr6aeIX2d99jn1dQHjjq0-h7glRdyPEPoTdQnggoAgc8uutzh3X4OYjcCllXVp5r9rYyYnVPwNALI8B'
  lat: 40.115178
  level: 5
  lon: -88.246191
  name:  'Clark Bar'
- ap: 2312
  img:  'http://lh6.ggpht.com/yoVMhDWju7bkAa8CImnlTqi4n2uH0odsX-LgEGeq_lqcXSmf2HQxX-c00NB1noOlmnFs51tZqBQXBLIJRfr8'
  lat: 40.117495
  level: 3
  lon: -88.241616
  name:  'Lincoln Building'
- ap: 2537
  img:  'http://lh3.ggpht.com/qkbAVT5J9ZNQHzzLNSiw9MN3XrDX3B8bj-xJzu8jKrFdykdTZdsEIlzOKXKVfJ5dZNrhJmG8VHZNeF5pR1G6'
  lat: 40.119977
  level: 7
  lon: -88.242247
  name:  'Seed House Historic'
- ap: 2537
  img:  'http://lh6.ggpht.com/TwC89nGrBzJ04y3Sg9V93v2G1oFzqJ-bZzRxnsFKM-THGVa5DqKX5Wd0kovQtOOSv-KqO5qjLITC9ITAr4O2fw'
  lat: 40.119588
  level: 6
  lon: -88.238445
  name:  'Allen a Rivers Memorial Plaque'
- ap: 2537
  img:  'http://lh4.ggpht.com/XlTZ26_29c4-74t23p1lgghqNfLI7aS3_kradmcl7vVQzV9jJRu78D1HdzJf-sWibnak644kxCBJDnA594PVaw'
  lat: 40.092849
  level: 5
  lon: -88.251586
  name:  'Boulware Trail'
- ap: 2537
  img:  'http://lh6.ggpht.com/yQPHFh4brRKGyXx9PtGN3hQza65T2PIyjArUf9NgW5fqFvx9m22oY2acMcEwFcVRNh0MTfGqc0WfMJFOt1io'
  lat: 40.10725
  level: 7
  lon: -88.244219
  name:  'Titan Games'
- ap: 2537
  img:  'http://lh3.ggpht.com/AD9d7JPmLdYRdpxESO9iORy1GRXAcN1jzn8dDNvm6FO7cIHVsjwAKI8LmbW4dico1Xe9jzJfsZZriP0CxXA46w'
  lat: 40.104084
  level: 6
  lon: -88.241616
  name:  'Honorary Memorial Steam Ventilation Pipe'
- ap: 2537
  img:  'http://lh6.ggpht.com/tenpgw5pr4OCsrdIgmmHP_sx4RHH2ywHdbNxw556d5JpHC4u64HFYqCdRSeAJgfTN_7BcUv11v8NtBdlaUV8'
  lat: 40.100717
  level: 5
  lon: -88.243989
  name:  'Rainbow Garden'
- ap: 2537
  img:  'http://lh4.ggpht.com/-2q6p_jcZ5xVswdwpO98pGsMWXnqxUlsBmhWA2F6xs0MbwejV7FTN7-kHSb4nlsfg3uUsrvdDmUM5v1lQ-Ia'
  lat: 40.086252
  level: 6
  lon: -88.249351
  name:  'A Lady Waiting for the Bus'
- ap: 2537
  img:  'http://lh3.ggpht.com/7qvblF8IJPE_GlNC-0H-3-uvbw-LO0WvGTcs3eGsfxl9qIfPSHIoEP0WVScW5akBfIuNtHggyR43gyD6aQw'
  lat: 40.099867
  level: 7
  lon: -88.233082
  name:  'Stevick Family Memorial'
- ap: 2537
  img:  'http://lh5.ggpht.com/85X0vnlHzLPww3OziBoMSVfkwq66eKQNZ9Mn6qsjghvteOQZiAVlsY80NVcsErHao0QYd9IyF7PDJyp-jaQ'
  lat: 40.101632
  level: 6
  lon: -88.233133
  name:  'Sunken Cube at Art and Design Building'
- ap: 2537
  img:  'http://lh5.ggpht.com/lagLH-yy6la5yqn0YoNwS7uxRSPXDfSP2QwvgnDmG-ZcaxqMNKYlASfYjw50kzq9GOOJ-0nmAa-3IlmGe-A'
  lat: 40.105777
  level: 2
  lon: -88.222002
  name:  'Preschool Learning Plaque'
- ap: 2237
  img:  'http://lh4.ggpht.com/CuRKYla63wCvLaTdKqGMMAd1Mr0_HK3v2iQjltrJwmsOownFtry6TsHMkAeHmOP6ULUYA53u4MUP61rgLzs6'
  lat: 40.1097
  level: 1
  lon: -88.228059
  name:  'Liza Kotz Memorial Plaque'
- ap: 2537
  img:  'http://lh4.ggpht.com/m6NugtNnF8mim1fUMFDjmScu99lS5PjmUlCT9kKOOsIMqCH5uu5MRPhMusl6BPPpZ7Z3hnYTQZALmqSpLHxs'
  lat: 40.103652
  level: 7
  lon: -88.230025
  name:  'Pillars at Wohlers Hall'
- ap: 2537
  img:  'http://lh5.ggpht.com/1fPvqpqXG5PDCkmegoWb9Tv9N5_MZh9XjmZpbyNEs5yPDsCscbrPB1cO_Pf8GT35HYrTF01FZ6s5VPIpjJ_20A'
  lat: 40.107098
  level: 5
  lon: -88.228984
  name:  'Saint Andrew''s Church'
- ap: 2537
  img:  'http://lh3.googleusercontent.com/vRH1cgHOuzbgU69F49MdsOQye4VG9lH8rjDcYQWGq9_8VcBu010oHhoinNmA_Dn9JZGLmS7ehSQJ9h1uDMGBaw'
  lat: 40.107087
  level: 6
  lon: -88.227801
  name:  'Class of 1912 Pillar'
- ap: 2537
  img:  'http://lh3.ggpht.com/hFkwytijOefeZugpAO9nX8xe0Zazpem9zJKa7S-WYlccBZVMWRqZYIj-iWKNXi5TUWEXjk4HQbKAvCW_3WdE'
  lat: 40.104287
  level: 6
  lon: -88.229415
  name:  'The Pioneers'
- ap: 2537
  img: http://i.imgur.com/5j1qaiT.png
  lat: 40.931977
  level: '?'
  lon: -87.934207
  name:  'da425bc21511496eb0a61b8c2adfaa58.12'
- ap: 2537
  img:  'http://lh5.ggpht.com/iDnRVHEUQ_oEftSG905WfGP5gvywEV_sy95JNynoRZLVqnq6DEs6AxRZ-WPN1ChuOont-KtW0W_OuMCRK04'
  lat: 40.121037
  level: 5
  lon: -88.21093
  name:  'A Fountain in the Forest'
- ap: 2537
  img:  'http://lh6.ggpht.com/0WV0zgKIo2AbnMTwJXYSM-C6nik92XvxsPKcZps2SdFzIWJ2bY4k2dHAqdImb1hTCK910NMvQYoKlwWprt6c'
  lat: 40.12034
  level: 5
  lon: -88.211743
  name:  'Alice Mimi Muller Dedication Plaque'
- ap: 2537
  img:  'http://lh4.ggpht.com/VZT9NM5dfGAaJAZj9cFhDmCgknQCF0UI4Hv3AwcaZedRlXhGb2wfVLTFOWjtoSJRG7MEsjv784wAB1XZgQqpBA'
  lat: 40.126642
  level: 6
  lon: -88.198163
  name:  'Armored Gopher Games'
- ap: 2537
  img:  'http://lh5.ggpht.com/QcZWhJ6PHqlFbRPyy8x-CemMxNqKv0ngHIxYEGgicR7xBROfOWR28wittvm_uNNbVlRjL_v5sajlLmdW8Zk0'
  lat: 40.084308
  level: 5
  lon: -88.180201
  name:  'Calvary Baptist Church and Christian Academy'
- ap: 2537
  img: http://i.imgur.com/5j1qaiT.png
  lat: 40.084939
  level: '?'
  lon: -88.168778
  name:  'Stone Creek Fountain 2'
