- ap: 6846
  img:  'http://lh5.ggpht.com/4eagHlnlpVbtFi_knZN73PIs2A--Ipj6SOlkQADePlfnzfOnJn-cAv0IoNNv4qR8WrbUFImUKHBknyaoAewO'
  lat: 40.111383
  level: 5
  lon: -88.225675
  name:  'Only Rain Down The Drain'
- ap: 6098
  img:  'http://lh3.ggpht.com/bltQwmnzp2vSKYhLpzNLqB4iddy6ie0kWk9G7Wce4U9qmW3CABxbXAhF7v0oG9QLFD2q57UZuVqZCMgN3MHZfA'
  lat: 40.118335
  level: 4
  lon: -88.243408
  name:  'Downtown Fountain'
- ap: 5909
  img:  'http://lh6.ggpht.com/0IsQORyEW-bPA7sEbGspygtoI7ixEshm_2fUw5oeh9AeXg6JN5w0ypYIshpuKm-C0nG4Vm2XmpLvtWTZzWzd'
  lat: 40.111607
  level: 5
  lon: -88.233753
  name:  'Chabad Menorah'
- ap: 5909
  img:  'http://lh4.ggpht.com/u_MtizNv_keIXM4ITgtjqC8nr5JvB8UpDBg_5_08uQDTsQr44mwr6ZlkhTp0iKbvcV9xCJqXDeN66xYWaI0'
  lat: 40.116227
  level: 8
  lon: -88.233833
  name:  'Haley-Walker-Ginza Building'
- ap: 5722
  img:  'http://lh3.ggpht.com/-xag7tp3BReTAhfRmVAvpMw1Af15prESg4rve7QnsiIC5IKmKjBszxDIj8F212BmRU1apH_2u_9wAmq58_91'
  lat: 40.114157
  level: 7
  lon: -88.238621
  name:  'Bombay Indian Grill'
- ap: 5722
  img:  'http://lh6.ggpht.com/j712bbvDknzGlAU87nZA1Bx45Ng-0MGA9Uvuv-3WzIKA3W51mXOZpJ-TzVSbuU3uE2AsJ5wcO7_B6WDpdRr0'
  lat: 40.110684
  level: 5
  lon: -88.226053
  name:  'BCS Superconductivity Theory Plaque'
- ap: 5722
  img:  'http://lh3.ggpht.com/3WnMbDq1Vm3HiqAM5qk1r9m3OqcO-YUN0nCOt2yRfUxVWLZ-8huxevlCI0JnIJgpSBZN4mtw0gxJnrGtuaS9iUf7k-JFfmRGRkBXQafWO9MIk_oJ'
  lat: 40.115491
  level: 5
  lon: -88.227358
  name:  'Arnold O. Beckman Statue'
- ap: 5722
  img:  'http://lh3.ggpht.com/LR76HrJqriPFUoc2XSs7jb2SotnStZv20kI7rgUx8B5HqhmetnTW4MA1tCp1ws4g5gw0sf9g7M3Lwq4VwfpD'
  lat: 40.111687
  level: 5
  lon: -88.225353
  name:  'Transportation Building - University Of Illinois'
- ap: 5535
  img:  'http://lh4.ggpht.com/PmGpygZ2fBs43twk2Y44XZbgGcHWv0YimAq7Fp3vlIRRqUyLpSmDmFwcn1ucfmJarcQrAAXJjYAXAhNyxSrz'
  lat: 40.110049
  level: 5
  lon: -88.231968
  name:  'Potbelly Mural'
- ap: 4785
  img: http://i.imgur.com/5j1qaiT.png
  lat: 40.027144
  level: '?'
  lon: -88.576903
  name:  '54253a03d7df4de9b19d89b54aec21c0.12'
- ap: 4785
  img:  'http://lh6.ggpht.com/BzDhCANV_iNTHhKFBGLuaUqOvChRZtPWnJ2Xk4h7NsKJHmTGgCWtFHWv2PpDA2fCsHHKSCRTrUNK8AKrLRnS'
  lat: 40.108066
  level: 6
  lon: -88.230687
  name:  'Community United Church of Christ'
- ap: 4598
  img:  'http://lh3.googleusercontent.com/hJZWoErzM-MuXulq4FlhlZwMbJX1Isd81GBUBVKayd57jVIVxUle3itd-1DRKo2VaNXznWr1X639fa44Etk'
  lat: 40.141919
  level: 5
  lon: -88.244611
  name:  'Marketplace Mall Carousel'
- ap: 4411
  img: http://i.imgur.com/5j1qaiT.png
  lat: 40.122039
  level: '?'
  lon: -88.645081
  name:  '1c0a703b220f4324b239d936dd1b3c99.12'
- ap: 4411
  img:  'http://lh3.ggpht.com/07XrBN-er6Ecleor0n9RJ4DfGO6B2yn-ZxjI-Uy8Ba46Jtb6cXNVmATPiPiGyk-1jZ4wxa7-EeIWbWUqArCG'
  lat: 40.142554
  level: 5
  lon: -88.243468
  name:  'Dog Heart'
- ap: 4411
  img:  'http://lh5.ggpht.com/KadNuhjGK6FUXezGHW1W1kfPOQV5l7gJP594EQm5nPZFLTgcTsjl4ixa-j7XitgtyJyou3q0pTfMr4i2E_avIA'
  lat: 40.118013
  level: 5
  lon: -88.243445
  name:  'Clock at Neil and Main'
- ap: 4411
  img:  'http://lh3.ggpht.com/1G0o5RjtXyfAjbI-E2honhhelnuiq4lIkpHmB44e-AwSBuIxVOdLPVYjImbTMS8kyBdZuKuiMQHciUIdAWg'
  lat: 40.118368
  level: 3
  lon: -88.243737
  name:  'Frank Robeson Memorial'
- ap: 4411
  img:  'http://lh3.googleusercontent.com/vMuPZQrBjsuqibkb-FCbuVrZzyuUSOhjlXxxxRc9hq0Y7prkP-Fpk1Hh6o5Eq8BhT6s7GRP5S5z2KFUL7hJY'
  lat: 40.113606
  level: 7
  lon: -88.243766
  name:  'Mural on South Neil St.'
- ap: 4411
  img:  'http://lh6.ggpht.com/XsUl74M1oxj6ptAvGEBOMH2wivRhxBNns62UJSGcPiQkuJIgPrmUYxMpSZZUfXRMMjrwoxlFK_DbAM78UrOh'
  lat: 40.113499
  level: 5
  lon: -88.244374
  name:  'Shatterglass Studios Mural'
- ap: 4411
  img:  'http://lh4.ggpht.com/_jAAuDi8SO5uupi8JlB3HZaFG40S15izNv_3vqOt7ro2rRHuXrfdEKfEFvRESdAjCEz3RVDpyrxJGSIrju5d'
  lat: 40.117916
  level: 5
  lon: -88.243087
  name:  'Sholem Building'
- ap: 4411
  img:  'http://lh6.ggpht.com/rGhR45ZFbHtxmrZSSy9V19eFoyHIDB42c6MK188isPJFWpUsW9ywNHayKt3acNvKNC8DAV6mDkUloj3aiS4'
  lat: 40.118422
  level: 4
  lon: -88.24346
  name:  'Entrance'
- ap: 4111
  img:  'http://lh5.ggpht.com/f1O8bFXHTg2PTOAUVLvrqk5xx5ps9SeqhpJ1RIPtSxm0I-e7J275e2ujJp3lFQGHUBW_vS90KOsrcdLDJ84l4g'
  lat: 40.110797
  level: 2
  lon: -88.225321
  name:  'Multiphase Fluid Dynamics Plaque'
- ap: 4411
  img:  'http://lh5.ggpht.com/k_9eqZVvGcr3ZNyeeSNDM1-Y7od35KmnQQptB9usrdpTdpGW2c_5-12rYy9hGazdx7qhlYrEXxaJ_ZIVFywlcA'
  lat: 40.106706
  level: 5
  lon: -88.232116
  name:  'Illini Tower'
- ap: 4409
  img:  'http://lh5.ggpht.com/1yq3oFq9p_Yl5cUf5h7IEfZPAbae2MT7lA0DFo1DHwPWPZJJ-Ez-2AE2oTzHEHWsEJQVUcUwh3j_d3kOYgDS'
  lat: 40.110095
  level: 6
  lon: -88.22862
  name:  'Alma Mater Plaza'
- ap: 4035
  img:  'http://lh3.ggpht.com/gS3gT_deXzbDvejCL-5ygs31dw9bLQqYr2nDcLPZiv6nQzahJl12awG1a2pwKbFuoTlsHQYxQ2O7HDXL4-8'
  lat: 40.110358
  level: 6
  lon: -88.230181
  name:  'Murphy''s Pub '
- ap: 3661
  img:  'http://lh6.ggpht.com/duOeXcOSQLWosdD0JJXg3pWWQp4t5sL0x9qDHoTIBFNOzEW0t53Lt2cnwgV2E_Su0l1ajIQxPtVbbK_sDRaS'
  lat: 40.141775
  level: 5
  lon: -88.242671
  name:  'Marketplace Mall Fountain'
- ap: 3661
  img:  'http://lh3.ggpht.com/LunaMtSKD9yiLQClolDY-Iqh0ENm9AgJdL4D1QxGs0j6TXPgqxDZea35x5ilAfeI5_0TGh5x1q1EqRsJsLFi'
  lat: 40.114111
  level: 6
  lon: -88.243697
  name:  'Champaign Surplus'
- ap: 3661
  img:  'http://lh4.ggpht.com/PHV-1ZpFzCAl_ViCKwBY_x2pIDbVyaT7wJH1sTvFJCxrSdRrO1x7NaXq9OdRGwz_Mls4iwk6wuGHMBArfV54'
  lat: 40.098688
  level: 7
  lon: -88.25063
  name:  '"New Holland Yellow Dinosaurs" at Hessel Park'
- ap: 3661
  img:  'http://lh5.ggpht.com/4DJAFPeZ_w65Km7VDnsbOqouQaeBuPuxA0KHPQToT_B6o1hBxzdu3kn89UhHgv22Ygj52Fx9QqcbzOytuw'
  lat: 40.100078
  level: 7
  lon: -88.250683
  name:  'Brian Clark Memorial Plaque'
- ap: 3661
  img:  'http://lh4.ggpht.com/BakPypxJUdTOMFo4cSzlewsmPlHw3DyQp4kVY2zAFfJvhvj9CnaQm6cqvB22BqjknBbUYxEb_eYnIZ2skgfO'
  lat: 40.11586
  level: 5
  lon: -88.227238
  name:  'Flow'
- ap: 3286
  img:  'http://lh6.ggpht.com/RW34ntixvJkg7fD71TPYo_4KIsBzA0-a-6yXO0jKPbpGxX5gIGC7kBI-pXEF9OHhuolcAGW2fxyK3Pt42Iev'
  lat: 40.110489
  level: 2
  lon: -88.227412
  name:  'Bus Stop - Illini Union, Westbound'
- ap: 3661
  img:  'http://lh6.ggpht.com/rnWumKyBYpVW5hCfQDlvRaT_666UPI5lo3k6HGdxWuLVsDbD8c7l-BU1HwhBqiGeCW28iEghSQtvZFzqK4w'
  lat: 40.109013
  level: 5
  lon: -88.22587
  name:  'Understanding Photosynthesis Plaque'
- ap: 3474
  img: http://i.imgur.com/5j1qaiT.png
  lat: 42.099208
  level: '?'
  lon: -90.124409
  name:  '10ed20c191ba41f2adae711e31eefc91.16'
- ap: 3474
  img: http://i.imgur.com/5j1qaiT.png
  lat: 41.812964
  level: '?'
  lon: -89.960782
  name:  '3c1dbc0d09074f82a2a6e59c61662eb6.16'
- ap: 3474
  img: http://i.imgur.com/5j1qaiT.png
  lat: 41.562534
  level: '?'
  lon: -89.650933
  name:  '3a45fd306eda4e65b42f9e07672cd0cf.12'
- ap: 3474
  img: http://i.imgur.com/5j1qaiT.png
  lat: 40.122056
  level: '?'
  lon: -88.645323
  name:  '9e3af3afef824ee6aee179175a7845c4.16'
- ap: 3474
  img: http://i.imgur.com/5j1qaiT.png
  lat: 40.1222
  level: '?'
  lon: -88.644586
  name:  '290df76bcb984955b3d8b60468f4f4c6.16'
- ap: 3474
  img: http://i.imgur.com/5j1qaiT.png
  lat: 39.984882
  level: '?'
  lon: -88.258895
  name:  '0532d10ca76f4f4a899fb08a14bf968f.16'
- ap: 3474
  img: http://i.imgur.com/5j1qaiT.png
  lat: 39.914462
  level: '?'
  lon: -88.27434
  name:  'e6d5eb29ead54497b74dab02ff62f147.12'
- ap: 3474
  img: http://i.imgur.com/5j1qaiT.png
  lat: 39.91465
  level: '?'
  lon: -88.273338
  name:  'd7386e06127b49d6b843c5d81d79fe83.16'
- ap: 3474
  img:  'http://lh5.ggpht.com/tuo_ByFTbwLitFP5cBseOibqRxENxbCwOJ30dCnja5ijBI_qBv5vqNP7ZuZXnxhYM6ms_GbExZEwwKVUtwV2'
  lat: 40.093712
  level: 5
  lon: -88.281583
  name:  'Brownfield Dedication'
- ap: 3474
  img:  'http://lh6.ggpht.com/p2F3xw4xL4UdiMM9aSy628ISSglrvjPexpF3j340tMAP9MX07yh_sJv7kHVkeud8lyFf2ZwDohw3zsRS2PSd'
  lat: 40.093914
  level: 5
  lon: -88.281531
  name:  'Terry M. Warmbier Memorial'
- ap: 3474
  img:  'http://lh6.ggpht.com/Jz3ahY5LQ13wKWLY9SEvexiinJa3GeO1eB_FynplikRpa77swLST6cUAJjPpqKDSq2KU4Dcyui-QBstz_Z3k'
  lat: 40.094624
  level: 5
  lon: -88.282953
  name:  'Greenbelt 2'
- ap: 3474
  img:  'http://lh5.ggpht.com/nWEtxuKQdy0teBBue1DYmG7P3SF5-3A6zlB7GwVHBWlolAZYGq6Br78lWcF9ltFy-KeSlozXie2RmU6JfCUX'
  lat: 40.142673
  level: 5
  lon: -88.244603
  name:  'Italian Statue'
- ap: 3474
  img:  'http://lh3.ggpht.com/XUcV2LF_XKVfRYKLrnubIeaLniLx97X1-q_QbId6nLk55xKp9axvre_97coBT_kZQNIVfkeseaCxJHtHj6iA'
  lat: 40.113924
  level: 6
  lon: -88.245568
  name:  'September 11th Memorial Plaque'
- ap: 3474
  img:  'http://lh4.ggpht.com/ZEK-DXu7TJqsrt7cbLRjXyr3JbENJCn1FaKxH4Oi6kEvo4K0Yzm5qzMddhRLNlXvokAwQoeG4EKaNkXnJDA'
  lat: 40.114015
  level: 2
  lon: -88.245256
  name:  'Firefighters Park'
- ap: 3474
  img:  'http://lh6.ggpht.com/ytlRYKlqnchcFvl3QEN1XknYcwYKIjohz4qzWW8SmhDi5mypBmgPbf9e4ghZWMZY5gpD9HIyalemSKsIzyA'
  lat: 40.11408
  level: 3
  lon: -88.245852
  name:  'Champaign Fire Department'
- ap: 3474
  img:  'http://lh3.googleusercontent.com/ZyXHLNlediISMVLqM9sUeZ0FEft3El4ni5P7GPOy5UF2YYBkTywnN5g1lkaer_lDNSvBUvg7bQ5yA_4Wd9qRWg'
  lat: 40.113521
  level: 5
  lon: -88.244122
  name:  'Artistic Graffiti at MCS'
- ap: 3474
  img:  'http://lh5.ggpht.com/C6wRSaEWO1NYGY5luyYZKHG3Z3aib4aflaPdV7B9G6N6adE890g3QuPRSvCUhsdFHqjoVUjo27mfz9WsjXyuhQ'
  lat: 40.100521
  level: 7
  lon: -88.250864
  name:  'Gabriel Patrick Maxeiner Memorial'
- ap: 3474
  img:  'http://lh3.ggpht.com/1JgqaWx4DIU04ms-XmufSumQ5BDP07SB97-kBjzxDePlLQR9HagCTfqdviW9ErxCqpvXgynqeosQhERhCat6'
  lat: 40.108781
  level: 5
  lon: -88.226388
  name:  'Illinois State Water Survey Plaque'
- ap: 3474
  img:  'http://lh5.ggpht.com/8OgQHnRehZt9nl_igzh_0k19Qp5vRgGVHo2IukHGLeEp0iNTb_YUZRDseHY39JvlTc0ROrDtbmt8SBAEFPOwpA'
  lat: 40.108965
  level: 5
  lon: -88.226465
  name:  'Harker Hall Fountain'
- ap: 3474
  img:  'http://lh4.ggpht.com/S734i_6SihPtJW8WdegLb3gEuKeNx8e1qDm6CXjREzYHohw7XqL82m4EF2K5nS2TixHweLn3EuJ4YoQnrsw'
  lat: 40.107751
  level: 5
  lon: -88.231532
  name:  'Graduate School of Library and Information Science'
- ap: 2761
  img:  'http://lh4.ggpht.com/1n-hHkU1cTz6dykw37WBVQqctZlzyl9gYgy7IMi1zcMf1t0ry6F1JPnwlvUjq_6YNdolofY_rLbuL_uLQwg'
  lat: 40.112913
  level: 4
  lon: -88.237848
  name:  '2nd St. Basin Ampitheater '
- ap: 2911
  img:  'http://lh5.ggpht.com/gkIcCbfmQWyJ7s9ryhzfOOn1K-oa8huqzZN80X2psVjx_6Iur5egjGncbUIAMLiAJAf9qG1Ac8lX2MomHYY'
  lat: 40.108185
  level: 6
  lon: -88.225203
  name:  'Statue at Medical Sciences'
- ap: 2724
  img: http://i.imgur.com/5j1qaiT.png
  lat: 40.105244
  level: '?'
  lon: -88.56115
  name:  'Lodge Church of God'
- ap: 2724
  img:  'http://lh5.ggpht.com/jz0XvZSSYKqKSa4lJDK-rludOns_o36jZ8ZTzfEr42piZamiTjSASTLdII6pkxgjZgnCwKirjhEouS77BPB8Dg'
  lat: 40.094288
  level: 6
  lon: -88.248914
  name:  'Boulware Trail'
- ap: 2724
  img:  'http://lh4.ggpht.com/9hzMj8KV-HraIucojjHAEgyMZsJAR9TWvNS-QSBB5LTYBOTwwqfTQySJ_Sz88eP3eyFWFYhx5qDVY93t8fk'
  lat: 40.108032
  level: 6
  lon: -88.225702
  name:  'Centennial Court'
- ap: 2724
  img:  'http://lh4.ggpht.com/7U0YXCB_DIhnqPJyjyLpNn6kg4lU8HvKL87ddBKWq1sptvVLvCEiCuNEnghQtqDGSN2OBNcOUK9nZcYjY4Vr'
  lat: 40.107887
  level: 6
  lon: -88.225998
  name:  'Lifesaving Antibiotic Plaque'
- ap: 2537
  img: http://i.imgur.com/5j1qaiT.png
  lat: 39.605619
  level: '?'
  lon: -88.31975
  name:  '02cea6f58d094c678f3d92dcb81dfc43.16'
- ap: 2537
  img: http://i.imgur.com/5j1qaiT.png
  lat: 40.106513
  level: '?'
  lon: -88.5585
  name:  'Lodge Christian Church'
- ap: 2537
  img: http://i.imgur.com/5j1qaiT.png
  lat: 40.457257
  level: '?'
  lon: -88.372597
  name:  'ebaa4a5573f7449399263066d9248473.16'
- ap: 2537
  img: http://i.imgur.com/5j1qaiT.png
  lat: 40.272743
  level: '?'
  lon: -88.675349
  name:  'Adams Leaning Wheel Grader'
- ap: 2537
  img: http://i.imgur.com/5j1qaiT.png
  lat: 40.561018
  level: '?'
  lon: -88.900234
  name:  '2e4c86f3add64206bd90a57bd8fa10af.16'
- ap: 2537
  img: http://i.imgur.com/5j1qaiT.png
  lat: 40.121757
  level: '?'
  lon: -88.644919
  name:  '093614a73dff4d1c8ada2d7dd35a220d.12'
- ap: 2537
  img: http://i.imgur.com/5j1qaiT.png
  lat: 40.236023
  level: '?'
  lon: -88.64272
  name:  '35252310c13c4ecbae30db6ca0ec8aae.16'
- ap: 2537
  img: http://i.imgur.com/5j1qaiT.png
  lat: 40.12211
  level: '?'
  lon: -88.646234
  name:  'e2b45c656b534c16be39673202767781.16'
- ap: 2537
  img:  'http://lh3.ggpht.com/waYCvQnciDHIQoBYQqAoe2ioBs3DAhMQQsBboKyfNVNSWibmmRTf0SLvaoU5EwCFyWydn7rCCfrLXtLqQfA8'
  lat: 40.135683
  level: 4
  lon: -88.27634
  name:  'Champaign Fire Department'
- ap: 2537
  img:  'http://lh5.ggpht.com/ulBje3DZHcOGkPDTXihNL1tamRAm_GO1CREW8fA5fV0Znq1eF2J1hnbSZh35emEA1h9cL1qTj9FqGtb8VywgXQ'
  lat: 40.13765
  level: 4
  lon: -88.273074
  name:  'Garden Hills Park'
- ap: 2537
  img:  'http://lh5.ggpht.com/wX6-mbTE7nT00T6ildapKbI5ZrnhPIt4l91DhMseyo3GYFrgQIuqbjh8ntZY6NxGZ-qa6fKWlyoBOPdIdNIt'
  lat: 40.114653
  level: 6
  lon: -88.243729
  name:  'The Phoenix'
- ap: 2537
  img:  'http://lh5.ggpht.com/fDRifvVcFT_dKhPuNBN4rR9lNHL0Q6NvbMnGr2-ZdiirR2rJrBcWRi4vyM3-DYNHymUs7bWchaWRaUtBpg'
  lat: 40.098541
  level: 7
  lon: -88.250389
  name:  'Dennis Robert Costello Memorial'
- ap: 2537
  img:  'http://lh3.ggpht.com/wkPcdDupubV3THJo6r2OpMtshziiIkqBISPTCPe8boa-8nH33u83Mznkr1yYWNR_l60RCy8HO_obqrdNGUI'
  lat: 40.093633
  level: 6
  lon: -88.246611
  name:  'Fountain at Illini Plaza'
- ap: 2537
  img:  'http://lh3.ggpht.com/161K1avC8teYs8PtJMANd0cBrff72XYRYh2Gjg2_KhkEh6_F6MLd3cfHIXwK8zegd65ISEVxmEoD5THpeY-Q'
  lat: 40.112553
  level: 6
  lon: -88.236253
  name:  'Scott Park North Entrance'
- ap: 2312
  img:  'http://lh3.googleusercontent.com/78s4UE5PKzAAG8LQc8bJPPLK30nagQnB2-jzX2y9vVVAjUMejMsBGSAKck17bjgbH1Lndna45c3l7i6tR3A4'
  lat: 40.112908
  level: 4
  lon: -88.237287
  name:  'Stone Arch Bridge'
- ap: 2537
  img:  'http://lh4.ggpht.com/2tHD_AHYQu0kWuwLX2HMYWBG4txVkuWsBEfzWLL39npWp8kMSHiUKxSJM1E7yhimuMVUJ-RIlSSKsgjETvtr'
  lat: 40.110524
  level: 4
  lon: -88.228706
  name:  'Leo Roy Tehon Memorial'
- ap: 2537
  img:  'http://lh5.ggpht.com/kElaGOaV9aI8SrnM1D65gx9J0Ky1AKrN9Yo-pXVmDhELt2pee4MwVRiCqCmlqWzUWj5pS33GnEzAiXmiWKsw'
  lat: 40.108111
  level: 3
  lon: -88.229625
  name:  'Illini Sports Mural'
- ap: 2537
  img:  'http://lh6.ggpht.com/pxaCt7clhIXc1RVGMMJZsmnbEWNWjFYJiUrQMev_SeOmXBothvOzmfnirQ5_W8CMa7hpigqydQhKMa4XFCAi'
  lat: 40.108173
  level: 5
  lon: -88.230209
  name:  'Mural on South Sixth Street'
- ap: 2537
  img:  'http://lh3.googleusercontent.com/hvoLMUc9UoNVVPttxWTc8PzOWdu5MBmPETnBexH7Alyl20WGCrNa0G_j7DwvD3qbhqpTaeThFhGDV2rCtp8'
  lat: 40.107629
  level: 5
  lon: -88.224484
  name:  'Bucky Balls'
- ap: 2537
  img:  'http://lh6.ggpht.com/c2I39IJvSBKmCLonmhP_RN1vLEpYY1recBXFm8xpGHxES4bAN2kvAcda8ZzvT75uq0yWQCv7N_dzP6ce5-Tu'
  lat: 40.108043
  level: 5
  lon: -88.22469
  name:  'Building of Molecular and Cellular Biology Sculpture'
- ap: 2537
  img:  'http://lh3.ggpht.com/1Z3mCRroEUysinW4hlDhAFNnfog3gwBM_aM8wYT6tQPiXMMmaRE9CrO5XM6QMe3UPHzMQSoxFmvWlkwOTRAv'
  lat: 40.111111
  level: 5
  lon: -88.230176
  name:  'U of I Mural'
- ap: 2312
  img:  'http://lh4.ggpht.com/YkAjLbUQwdId1pIn7-0sv7p3fU5sUakSrInODEYBL40IL2O6a6iP0KdmXupzcZMPqJ3arf7sss9irQ7NDzzF'
  lat: 40.110882
  level: 3
  lon: -88.231138
  name:  'Boneyard Greenway'
- ap: 2537
  img:  'http://lh6.ggpht.com/Qfyp6BK43B93Oo5kazv7b-62q_5cx5GKxXPyw6Juss-A6AgPx81B0lyWhzW7Ava9ztLzedt07gEh3ia2PPFDwQ'
  lat: 40.113636
  level: 4
  lon: -88.208146
  name:  'Jolly Roger'
- ap: 2537
  img:  'http://lh6.ggpht.com/FsUBggh0M3sjncoth6JaamkCglQtDsuiR89k30B2sMp7srgh0Hz6trgv7BhNRSJA6qI7OvipV8B3XEhzHmaNxA'
  lat: 40.113513
  level: 4
  lon: -88.207559
  name:  'Black Dog Smoke & Ale House'
