- ap: 9846
  img:  'http://lh6.ggpht.com/5CDidk0pqfUtSW_Yqouuf3diX8drdMu9DoT728QpSz8q6A-WxNhT0yLcgM_7gGpyIAeXrHiTkIzzaVJFgnN9WA'
  lat: 40.099852
  level: 7
  lon: -88.251947
  name:  'Our Friend Tim Palmer'
- ap: 9659
  img:  'http://lh3.ggpht.com/lzCSS0_tjwUV7JQ2fgLI0e05IrzPxlVUs-6aEPOwUv67IanQJSTi71gkw0SGm8asmoE_r3Xoh048Fd9xRpE'
  lat: 40.099169
  level: 6
  lon: -88.251419
  name:  'Lyman Larson Memorial'
- ap: 9283
  img:  'http://lh5.ggpht.com/KQ7QYG8rWnVxSme_uq3cOu8IreZRbztWWKHTNPBy_6GvCqP3ywy-HEoSUxqloLDeUggEVV0UhKLy8Ja0v0yPdQ'
  lat: 40.110844
  level: 4
  lon: -88.224091
  name:  'Institute of Aviation'
- ap: 9094
  img:  'http://lh6.ggpht.com/LxVyXEFJmvSZ271mlFfYmCwyb05Kz8cIRxzMt24ZVhRzsH09nxErJw4gKErktjKpCARWfVl4Mla70NoODK2bng'
  lat: 40.11187
  level: 5
  lon: -88.220692
  name:  'Atmospheric Sciences Building'
- ap: 8159
  img:  'http://lh5.ggpht.com/4DJAFPeZ_w65Km7VDnsbOqouQaeBuPuxA0KHPQToT_B6o1hBxzdu3kn89UhHgv22Ygj52Fx9QqcbzOytuw'
  lat: 40.100078
  level: 7
  lon: -88.250683
  name:  'Brian Clark Memorial Plaque'
- ap: 7783
  img:  'http://lh5.ggpht.com/5WZPQL7oa-VYm5x9viEwKiCeApkaxUNXa-mHYU-9S9_fOCFAqFLktoU4hnu-RM6tx8X0tMs2PHUyDnkS6fqI'
  lat: 40.111391
  level: 1
  lon: -88.224416
  name:  'Gone Fishing'
- ap: 7409
  img:  'http://lh6.ggpht.com/eVUed3229Zh9saFzaZQcI6LXsyDB0IJxc9v-Aa9Oa0AhjQLXBIVSuu1qUQwJVXWgmXYPY9sqTzK73Le4BuU'
  lat: 40.11122
  level: 2
  lon: -88.224097
  name:  'Nuclear Radiation Laboratory'
- ap: 7035
  img:  'http://lh3.ggpht.com/8FqlniFErK7cq59awiT84u8KyV4FIRd5krZzfYa58zJToFps7whdBnriPqvO_kFKeLUE3SWbJhCOPuvUQzaGFA'
  lat: 40.100691
  level: 6
  lon: -88.251337
  name:  'In Loving Memory of Zeus'
- ap: 7035
  img:  'http://lh5.ggpht.com/-UWK84I78Sftf7yg-E2pg6xEAWTvyiThgJBJlxbqOZPYKNmzQ8uGgEEMetzplrG1HpXG5kQqNItUeXKxOHDsGA'
  lat: 40.100286
  level: 7
  lon: -88.251747
  name:  'Tennis Anyone'
- ap: 7035
  img:  'http://lh4.ggpht.com/B_I1b0Jy3vW41RX8jjCNPP68AULplU0Pf8ddolyKmpEWCfBVShQkmjF1HfTPzDjmBBQGgOs0jHW-rUR0mv8BkA'
  lat: 40.098789
  level: 7
  lon: -88.251685
  name:  'Curtis William McKinney Memorial'
- ap: 7035
  img:  'http://lh4.ggpht.com/4LxsGZZMk3DnpJXUvqzrL54CHSP5TDXjUnDJyHmCCTtCJIjGEI7kxT9g4uxfSPh0X6yGLgQo1jfqbu7B8VEr'
  lat: 40.099084
  level: 7
  lon: -88.251826
  name:  'Irina P. Stewart Memorial Plaque'
- ap: 6472
  img:  'http://lh4.ggpht.com/RF7EbCh1YRbFHfis_PEc88NF1v4Ndhj-Rm7rrlY7F8s-Mrv1EMEFnajFbYiNffZ_3kMNL80Zv-_jtaMYMtLA'
  lat: 40.110655
  level: 1
  lon: -88.22725
  name:  'Gothic Brass'
- ap: 6285
  img:  'http://lh5.ggpht.com/HhVreJipNvxPRVFpmsh2BPo9PcpPO2Q2l3jCpDjIKgfKGycoTNPXR4DKiYccBXW4X-4dJf_vV0ESsWAWHcChsg'
  lat: 40.100936
  level: 6
  lon: -88.250855
  name:  'Donald F. Bresnan Memorial'
- ap: 6285
  img:  'http://lh4.ggpht.com/PHV-1ZpFzCAl_ViCKwBY_x2pIDbVyaT7wJH1sTvFJCxrSdRrO1x7NaXq9OdRGwz_Mls4iwk6wuGHMBArfV54'
  lat: 40.098688
  level: 7
  lon: -88.25063
  name:  '"New Holland Yellow Dinosaurs" at Hessel Park'
- ap: 6285
  img:  'http://lh5.ggpht.com/tfAfnmo6mSMc6U0P533NMFJRGwn6lasmx-MLR2JJg1QOizMKkghFU8E7hb2zgYgdQEbgnCJUlvZIMdrrJe4'
  lat: 40.100822
  level: 7
  lon: -88.25193
  name:  'Seeds of Kindness Bench'
- ap: 6285
  img:  'http://lh3.ggpht.com/rUgM7jkTqL0VHxvsSW0yWuNJF5UrU62ITflghfn4PfKjn6L4WGz0ALkv98fc_q9dmK9SSpU1PXIawGvcRwE'
  lat: 40.098246
  level: 7
  lon: -88.251974
  name:  'Hessel Park'
- ap: 6098
  img:  'http://lh5.ggpht.com/C6wRSaEWO1NYGY5luyYZKHG3Z3aib4aflaPdV7B9G6N6adE890g3QuPRSvCUhsdFHqjoVUjo27mfz9WsjXyuhQ'
  lat: 40.100521
  level: 6
  lon: -88.250864
  name:  'Gabriel Patrick Maxeiner Memorial'
- ap: 6098
  img:  'http://lh6.ggpht.com/S7Utf4_59vQkAP5JhC3mdbzVLKBTt-0zoJ2UjfxUnN10VBbixO-_VwvssWd1LbFSx_yafaijd_U0wTGo870'
  lat: 40.100941
  level: 6
  lon: -88.251314
  name:  'Gabriel Patrick Maxeiner Memorial Plaque'
- ap: 6098
  img:  'http://lh3.ggpht.com/VrbXGwlUosNLEkVdshWUFoVa3KtlJQoEU4yLYygvftYbPCmxo644Uvar_v8Kb9RS53hB0tXgvV44GotrxZyu'
  lat: 40.098592
  level: 7
  lon: -88.251676
  name:  'Ruth and Fred Steigmann Plaque'
- ap: 6098
  img:  'http://lh6.ggpht.com/1El0oK6CWDh7rAQeFmPEW_dA252pdq7piTtjtuQCkZvwRa689NLjEafLqQ35TI5qCW3Lmhja9PLQqKxFs9Ha'
  lat: 40.110627
  level: 1
  lon: -88.227584
  name:  'Tau Beta Pi Statue'
- ap: 5722
  img:  'http://lh3.googleusercontent.com/U_-4hKnh83ZT50dnywqzC7jR6ialVAMHwoWLMsG5km5adHpOU2FNmfe58sV_IDOBaVBAJbKZafokPWLzKLGgTQ'
  lat: 40.111268
  level: 2
  lon: -88.223809
  name:  'Goodwin Avenue Bridge'
- ap: 5535
  img:  'http://lh6.ggpht.com/RW34ntixvJkg7fD71TPYo_4KIsBzA0-a-6yXO0jKPbpGxX5gIGC7kBI-pXEF9OHhuolcAGW2fxyK3Pt42Iev'
  lat: 40.110489
  level: 1
  lon: -88.227412
  name:  'Bus Stop - Illini Union, Westbound'
- ap: 5348
  img:  'http://lh6.ggpht.com/yjfa0jJLjsfLRf9Zn9iafMp3MuIhgCi0WiOCF8GqTGiGvzEnsPGrFa0H1n-uzWhVehLbt44ShthsA32VzHd5iQ'
  lat: 40.099737
  level: 8
  lon: -88.251157
  name:  'Tyler Van Atkins Memorial'
- ap: 5348
  img:  'http://lh4.ggpht.com/mHAXKPtOyg_DWRs5A_0yhGeDsfU4f4o3xJvzziri7o3ksPPKtMAHUkUBOb0JJ78gArdP5Q6O-UiXNDG3RHaIYQ'
  lat: 40.109339
  level: 5
  lon: -88.234149
  name:  'Alpha Delta Phi Fraternity House'
- ap: 5348
  img:  'http://lh4.ggpht.com/OFVPvdgB3GVpaQknHdnt2okgP3xcQksAH3wvOGYVuP85MMlxo3bQ2SRpBb0hzNfjQoC_5LlRqaE6jLB-h9Gr'
  lat: 40.108092
  level: 5
  lon: -88.234589
  name:  'Koinonia Plaque'
- ap: 5161
  img:  'http://lh5.ggpht.com/J4IbsPUjPF6cIlktTr1tOGHi61krS9o1eXeuAlPRBrSYUQrwdyShfNzuzxD0epa_cBMPF1xJ9YhoBA5VOQtYRw'
  lat: 40.105467
  level: 2
  lon: -88.225644
  name:  'Smith Music Hall'
- ap: 5161
  img:  'http://lh4.ggpht.com/d3UqrcK5M1wuOe19dIaBUOkrXF4C9IxhOWfxqzM4zIHkGsUIRb1mckNapOMRkkCtVIe0rzJumb1OVDVc1_Y'
  lat: 40.108055
  level: 5
  lon: -88.233688
  name:  'University Baptist Church'
- ap: 4598
  img:  'http://lh3.googleusercontent.com/v44Gf5oEZGcwkQcA2wWz-uAeDFESHj7sEloxdCJd316RPH3w_ln8_9mBEMbAqGyI_2Y2qaYp525PnRip9Rg'
  lat: 40.105315
  level: 2
  lon: -88.226125
  name:  'U of I Observatory'
- ap: 4598
  img:  'http://lh5.ggpht.com/LPlCgoOAlClRaVCl_B1sHDkn38OgDbXat-l5Q1bDZLP7mOUMfU8pK-o3N8BEqh0vHJcZBHo3iz2AMQKAhot7Tw'
  lat: 40.110833
  level: 1
  lon: -88.227425
  name:  'Engineering Class of 1975 Monument'
- ap: 4411
  img:  'http://lh4.ggpht.com/vKgqIecJshMQxrhO-ZhMjcIyARuJdyU63wKfzAG0wouZex6LVzO46Qi5zM1N3Jx8xyantDFk9sQGsSEBhb-y'
  lat: 40.101327
  level: 7
  lon: -88.251412
  name:  'Zeus Memorial'
- ap: 4411
  img:  'http://lh3.ggpht.com/G1CvGhpethi5UmprDWxZN9rTblHa3anSsQz1UPgJtkREkfN7lDFoxFObst0609Cg5mofuZxJKr0ddNKhY4VL'
  lat: 40.098464
  level: 6
  lon: -88.251426
  name:  'Ruth Haasis Memorial'
- ap: 4411
  img:  'http://lh3.googleusercontent.com/Wl3skouUyBxfjEnI0bhQnpjCvS0wgeIHDtu5lfvMUD04A4Cab7aBCOp2HPOU0TWRGkZMpzRrG-bB0BK08NVWGw'
  lat: 40.099593
  level: 7
  lon: -88.251724
  name:  'Blessings from Devon Elaine Cattell'
- ap: 4411
  img:  'http://lh6.ggpht.com/qSCp5fQMlyCQ-GOAgiSFy5gaHJei705Pa3eOlJiYO5wGjZTYtjA8q7QWWfAWcLKjxZSaFiMfXOPR8SO7rWU'
  lat: 40.099353
  level: 7
  lon: -88.251876
  name:  'Raymond B. Cattell Memorial'
- ap: 4411
  img:  'http://lh3.ggpht.com/whmQSPmix2tEoKcWwrVrV0H0JzNf1tzyuohI3ykSa-Qx4rUcLTf4686WcnJjygsMY2QPUWhvVVzlmMMHof94'
  lat: 40.105907
  level: 2
  lon: -88.22564
  name:  'Andrew De Grado Memorial'
- ap: 4411
  img:  'http://lh5.ggpht.com/1yq3oFq9p_Yl5cUf5h7IEfZPAbae2MT7lA0DFo1DHwPWPZJJ-Ez-2AE2oTzHEHWsEJQVUcUwh3j_d3kOYgDS'
  lat: 40.110095
  level: 2
  lon: -88.22862
  name:  'Alma Mater Plaza'
- ap: 4411
  img:  'http://lh4.ggpht.com/N-xxTzGXK34K-VdTOWaWrFJeP9_SLZ7ZBluxK2mjP51yZx_5HOMi_mb4Nu2rWgo3gOqUb19_cPb662sI7td_'
  lat: 40.105687
  level: 2
  lon: -88.225714
  name:  'Smith Memorial Hall'
- ap: 4411
  img:  'http://lh4.ggpht.com/hJDi8J7CZU-933hT0Culp2nhslv6p8rDRPdTFz6FwNaAjB5CmfkaQzj9sM--E-QBvI8yvIJn1F2jxy7ZKWlh'
  lat: 40.10816
  level: 5
  lon: -88.234245
  name:  'Stratford House'
- ap: 3848
  img:  'http://lh3.ggpht.com/xId6g6VicbS3F1vf-TwfkAOcAj2J4qElQNbgW1wmhWy5cxh-ZSjfN5a3K9w7mGOmQymgNDrLMQCjkUPl_ifzcA'
  lat: 40.111517
  level: 2
  lon: -88.224103
  name:  'Ceramics Building'
- ap: 3474
  img: http://i.imgur.com/5j1qaiT.png
  lat: 39.799714
  level: '?'
  lon: -88.166977
  name:  '34824ef0cb1e4e68a4e511bc95860783.12'
- ap: 3474
  img: http://i.imgur.com/5j1qaiT.png
  lat: 40.007652
  level: '?'
  lon: -88.643898
  name:  '37d37954416845b78adb14b60ac64119.16'
- ap: 3474
  img: http://i.imgur.com/5j1qaiT.png
  lat: 40.00737
  level: '?'
  lon: -88.643258
  name:  'edb4899e3e4b4e2480be59f92e5f2c92.11'
- ap: 3474
  img: http://i.imgur.com/5j1qaiT.png
  lat: 40.002755
  level: '?'
  lon: -88.65119
  name:  '276f28133ce34495b27076c5f9f2a335.12'
- ap: 3474
  img: http://i.imgur.com/5j1qaiT.png
  lat: 39.52229
  level: '?'
  lon: -88.741511
  name:  '90f5943b8759439cab93e4bba72bc4a4.16'
- ap: 3474
  img: http://i.imgur.com/5j1qaiT.png
  lat: 39.995267
  level: '?'
  lon: -88.631406
  name:  'c0fdf9c3dd934ce19f6a543572f6831e.16'
- ap: 3474
  img:  'http://lh5.ggpht.com/nirQKdy3s9r8TSV7cB7_B0l-0EsFXBkg1aitH05R0ttPhOEewGxlq1GRnlDvYFT2V8Z91hWnB9YD3WjxBvyZ'
  lat: 40.11868
  level: 5
  lon: -88.243426
  name:  '"Pointless"'
- ap: 3249
  img:  'http://lh3.ggpht.com/bltQwmnzp2vSKYhLpzNLqB4iddy6ie0kWk9G7Wce4U9qmW3CABxbXAhF7v0oG9QLFD2q57UZuVqZCMgN3MHZfA'
  lat: 40.118335
  level: 4
  lon: -88.243408
  name:  'Downtown Fountain'
- ap: 3474
  img:  'http://lh3.googleusercontent.com/FMrsRGg4e1AuMu6m4uCIpM5nawtelx8reIfMtog4nuxXU9C7--UKQnUEAm9s4Vc7OfMjfIDX5loNOw4Agz2HAw'
  lat: 40.118715
  level: 6
  lon: -88.242373
  name:  'Richard D James Mural'
- ap: 3474
  img:  'http://lh5.ggpht.com/k_9eqZVvGcr3ZNyeeSNDM1-Y7od35KmnQQptB9usrdpTdpGW2c_5-12rYy9hGazdx7qhlYrEXxaJ_ZIVFywlcA'
  lat: 40.106706
  level: 5
  lon: -88.232116
  name:  'Illini Tower'
- ap: 2911
  img:  'http://lh4.ggpht.com/KS4k0iDFceOcG_wEnQeqAeJpCkwjbjTItb2FUsyUJGsnhDizNqvrXmfee70SUhCcQ10_m1vv1vtcNRrFhIc'
  lat: 40.126039
  level: 5
  lon: -88.209117
  name:  'Water Sculpture'
- ap: 2911
  img:  'http://lh6.ggpht.com/dIDmkL7jHZb1am2ptK9LrO6Ht_8jTKb3IOvGamBqIYzLXPgtEoPCV_9dMsqLxrgz8_MSq3UsEy9t49y_pqOd'
  lat: 40.125715
  level: 3
  lon: -88.2091
  name:  'Crystal Lake Park Aquatic Center'
- ap: 2724
  img:  'http://lh6.ggpht.com/C7ThuP5fwrDTu5cMDpoeGmRjotNh6eUnPf3ksvSsUj5NkHZ0yKbIUnF8cSikhX-I_7O42CTwqjhLq9z3jkIL'
  lat: 40.111844
  level: 4
  lon: -88.228609
  name:  'Talbot Labs '
- ap: 2724
  img:  'http://lh3.googleusercontent.com/IjFn38FDtBJH-mPUV2G-iLjG9eOxcQ0m6Go6BOImGLXhu03Bd5Vs8EtAzPrfKH7uQFYlI_S8eQCZkaZp7kTO'
  lat: 40.125757
  level: 5
  lon: -88.20788
  name:  'Nature Center / Family Aquatic Center'
- ap: 2724
  img:  'http://lh5.ggpht.com/sF7lKjQa6S3nhaNE0eY9h2BozLXUrtnucsZvqAKKD_ZrLPFTVf8thR2l28H7-R4sxheNrwB3hEujhIk1_4E'
  lat: 40.126699
  level: 4
  lon: -88.209995
  name:  'Fly Fishing Sculpture'
- ap: 2424
  img:  'http://lh4.ggpht.com/n7S7CjMfxfFwYHpq5HrRc6lFaFZYFVb4vYJAcTAc8MZgOgDNYI7QBChMeKIY-OSJkDSdwCf5KsJYmDesbHhq'
  lat: 40.127017
  level: 1
  lon: -88.209948
  name:  'Busey Woods Gateway Trail'
- ap: 2537
  img: http://i.imgur.com/5j1qaiT.png
  lat: 40.418736
  level: '?'
  lon: -91.127225
  name:  '2f375bf068244d38ac1bb3ea63c0a75c.16'
- ap: 2537
  img: http://i.imgur.com/5j1qaiT.png
  lat: 40.14851
  level: '?'
  lon: -89.387187
  name:  'a0f8dd4972b0415491199e1c28cae401.16'
- ap: 2537
  img:  'http://lh3.ggpht.com/-mMz5f80ITpPoby5jxbF9QtmyShskFPdt3J1DYxUUOJnPDobi-B33A_7DJQ8N-kfYBjPJR09_PYzGhzSHm0'
  lat: 40.064501
  level: 5
  lon: -88.293621
  name:  'Curtis Orchard Harvest Indian Statue'
- ap: 2537
  img: http://i.imgur.com/5j1qaiT.png
  lat: 40.04101
  level: '?'
  lon: -88.384378
  name:  'St Boniface Cemetary'
- ap: 2537
  img:  'http://lh6.ggpht.com/1i7JFIfvKI3IMOAekdomh9jm9HrAhBBdNIOyX81Nkq1Bh49sBqKg37sMm99MYm8yJjHsG4dBdnRg1X5Aq-c'
  lat: 40.104796
  level: 1
  lon: -88.227461
  name:  'Undergraduate Library at UIUC'
- ap: 2537
  img:  'http://lh4.ggpht.com/q2L_InMJy4JZq79dX9LLf9XauoaXGOLl7SWvVyD9F_jIgyqpn7SsqHfY9EMYq1SLteTpj0cQDZN4f9x0IuvV5w'
  lat: 40.107273
  level: 6
  lon: -88.222942
  name:  'Tryon Festival Theater'
- ap: 2537
  img:  'http://lh4.ggpht.com/wnCpWSqcq-cu9mV9rhwV8Tpt2zSmT5uur41SFaOm-8kSqciJtWQPacEqgSDjnzXhTChHQFdT7EKDU7UwX3Tn'
  lat: 40.1087
  level: 6
  lon: -88.222813
  name:  'Krannert Center Studio Theatre'
- ap: 2537
  img:  'http://lh4.ggpht.com/j8nn4oxG37YIXPvQKVP6CBbVkveyhoHNg8O8QFxZKgbKVegaP5OdjJl8L8HTjzdBoVKPJIFHmwN26NfE9n4'
  lat: 40.111897
  level: 1
  lon: -88.222485
  name:  'Engineering Student Project Laboratory'
- ap: 2162
  img:  'http://lh5.ggpht.com/dEeT4acpLu-WQFlZWd3psap5qAqqPTSVzm8Qt1QtpqtwZ0j1V9eKFcmpgN9K_x1PL4XVchuevw25rxHekz3tvQ'
  lat: 40.111968
  level: 2
  lon: -88.226793
  name:  'Bardeen Quad Structure'
- ap: 2537
  img:  'http://lh5.ggpht.com/f710C9AvOEB7ieCI4f382wWUP4OgDxiqPzbxqxct6Ugf2PWBfyXyDpG_JcRQ6PaZ_jS0jpXXBhNSt_u9rFA'
  lat: 40.113864
  level: 6
  lon: -88.224839
  name:  'Plato: A Social Networking Revolution Begins'
- ap: 2312
  img:  'http://lh3.googleusercontent.com/O0A6xsiat2O0IjuyckSS9k1cq1UOF3Cie-GIi1L5d58akNeRMYcb7agKQErL26RwfdgTl-W4anRPPhu-lKpy'
  lat: 40.128515
  level: 3
  lon: -88.212038
  name:  'Busey Woods Trail - A Helping Hand'
- ap: 2537
  img:  'http://lh4.ggpht.com/MhW7sdKYdOt__Gmefy7CMOI4_Q8_dqGGb_qolwk4Uf7b_fpr8t5QM5QiCFUOe_ZpsgAfLhPSU_lbVTX5DIEX'
  lat: 40.125951
  level: 4
  lon: -88.209474
  name:  'Give Creeks A Chance Street Art'
- ap: 2537
  img:  'http://lh4.ggpht.com/GsF83mQilY6LIEvSeaGzU2sGjQnFmNgTzi6gPFGKt1K-Yd40nunFYDQs97tOMf-RgMbeGBl2pwi33cd0L11U'
  lat: 40.126708
  level: 3
  lon: -88.208946
  name:  'Busey Friendship Grove'
- ap: 2537
  img:  'http://lh3.googleusercontent.com/eTQ9CkXix_kovUmX48krAoSy9iHiLPqf47J3f7AZN6Rk3GFlkf4DJKkCp51iJvzi5Vt3M3wjjMcwOc_4scYq'
  lat: 40.127246
  level: 4
  lon: -88.210084
  name:  'Gateway Trail Information Kiosk'
