- ap: 12470
  img:  'http://lh3.googleusercontent.com/FMrsRGg4e1AuMu6m4uCIpM5nawtelx8reIfMtog4nuxXU9C7--UKQnUEAm9s4Vc7OfMjfIDX5loNOw4Agz2HAw'
  lat: 40.118715
  level: 5
  lon: -88.242373
  name:  'Richard D James Mural'
- ap: 9846
  img:  'http://lh5.ggpht.com/KadNuhjGK6FUXezGHW1W1kfPOQV5l7gJP594EQm5nPZFLTgcTsjl4ixa-j7XitgtyJyou3q0pTfMr4i2E_avIA'
  lat: 40.118013
  level: 7
  lon: -88.243445
  name:  'Clock at Neil and Main'
- ap: 9842
  img:  'http://lh4.ggpht.com/IAi2A1ukQunZaoCY1OUJnvZC_MAEjnYzlg7vcsIuPQyLIB710_5ueVQ3El8Pok0aNvlB18-Tdo1euhYbaf0'
  lat: 40.115224
  level: 2
  lon: -88.24957
  name:  'Linda M. Wesolowski Memorial Sign'
- ap: 9472
  img:  'http://lh5.ggpht.com/D9O580D9hlBOqeMvt2V4nL-eHP62h4vG4YFgk-WTw7GunusU9AOffFuHZ9XYWoB8YrGxpCMu2Y77-LCAgcdT'
  lat: 40.119328
  level: 2
  lon: -88.243755
  name:  'Birthplace of Champaign / Beautiful Beardsley Hotel'
- ap: 8722
  img:  'http://lh3.ggpht.com/bltQwmnzp2vSKYhLpzNLqB4iddy6ie0kWk9G7Wce4U9qmW3CABxbXAhF7v0oG9QLFD2q57UZuVqZCMgN3MHZfA'
  lat: 40.118335
  level: 6
  lon: -88.243408
  name:  'Downtown Fountain'
- ap: 8346
  img:  'http://lh5.ggpht.com/dRrlHXlT2nMNgZNHiYo52ha9L-Xay9DyOJR2Cpqs74hgAJ09abn9OTAtMzRVedt1_R9ObZllLO98vRhNMfgTgVsJCk1S-HJwX_XgiGpG4lz3a328'
  lat: 40.11671
  level: 4
  lon: -88.24263
  name:  'Cafe Kopi'
- ap: 8157
  img:  'http://lh4.ggpht.com/9jXAzAxn0JZrLkU9VK9p-mNzjw3x_6QqwMAn4CAEBAHp_lo2iDZeV_y-hoUzP5CYwm8kOMyrTToZQOWJBRnw'
  lat: 40.115095
  level: 4
  lon: -88.249052
  name:  'Bayne & Schumacher Fountain'
- ap: 7972
  img:  'http://lh4.ggpht.com/ryDcZUJK2aQ_fI0-hY850_t4ZmG2hNmtCx7cxbX83w3cnUWdI-ywpTuQrUVQNxGl3_DcxxNr6bupfDTsagRa'
  lat: 40.117107
  level: 6
  lon: -88.242467
  name:  'Radio Maria'
- ap: 7710
  img:  'http://lh4.ggpht.com/tLO2wjyCgyune3KDOlQMV_oiDRxVsHqO1gAG_0xs9TvKOiuWRVmJcO29WI7jELxoxncaXpy91kMa89Uj65JVNw'
  lat: 40.11784
  level: 5
  lon: -88.24286
  name:  'Kaufman Memorial'
- ap: 7409
  img:  'http://lh3.ggpht.com/qWqDj3Ws5ffRyIXG8XxFM41dBDTOBhjCkDgKebjiDFo-5Fyj_ssgLQ_wLM82uWwB2jVkNIYN4nc5U2E3wZoBNQ'
  lat: 40.111037
  level: 4
  lon: -88.245813
  name:  'Champaign Public Library'
- ap: 7220
  img:  'http://lh6.ggpht.com/j712bbvDknzGlAU87nZA1Bx45Ng-0MGA9Uvuv-3WzIKA3W51mXOZpJ-TzVSbuU3uE2AsJ5wcO7_B6WDpdRr0'
  lat: 40.110684
  level: 7
  lon: -88.226053
  name:  'BCS Superconductivity Theory Plaque'
- ap: 7035
  img:  'http://lh5.ggpht.com/J6mcCWpzY1HtqSgO5x_y5aVz-YFsC8M7QP6HkXPiD48zj2LwljZvVXDN2m_K8oMn6mei5g6B8PphiUGrXGDG6g'
  lat: 40.119305
  level: 2
  lon: -88.244122
  name:  'Women''s Town Club Building'
- ap: 6848
  img:  'http://lh6.ggpht.com/rGhR45ZFbHtxmrZSSy9V19eFoyHIDB42c6MK188isPJFWpUsW9ywNHayKt3acNvKNC8DAV6mDkUloj3aiS4'
  lat: 40.118422
  level: 4
  lon: -88.24346
  name:  'Entrance'
- ap: 6846
  img:  'http://lh4.ggpht.com/j8nn4oxG37YIXPvQKVP6CBbVkveyhoHNg8O8QFxZKgbKVegaP5OdjJl8L8HTjzdBoVKPJIFHmwN26NfE9n4'
  lat: 40.111897
  level: 4
  lon: -88.222485
  name:  'Engineering Student Project Laboratory'
- ap: 6472
  img:  'http://lh6.ggpht.com/Jltxi7PZ9OVi8hBCUxdt9oxXQk9zmbrtHpM_jru2WhVYyY0UkNZ8h5SU3CdwMRNzZ1ZKabPR8hDCPz7p3Ms'
  lat: 40.114439
  level: 3
  lon: -88.245013
  name:  'New Covenant Fellowship'
- ap: 6098
  img:  'http://lh5.ggpht.com/BUGNnLReyCBJJj9_zpqgwv5_CAyiW8fWBpyVs0ip1hT5NEE6YKCYzlc8ahldKzk_xv-4uckNJNb6NrJd6r33qg'
  lat: 40.116989
  level: 6
  lon: -88.242255
  name:  'Blind Pig'
- ap: 5535
  img:  'http://lh6.ggpht.com/SCYK-XeMmOyfRrTt1-aQNoDA-2Sib4m5Ch26mTwo6XNdVeVnfi7W74Ik6IRLAPSoKzSS97pgwt50Jl9oSgGfP029USxZzQWKNJo3rbs-6YHBPBif'
  lat: 40.116792
  level: 4
  lon: -88.241752
  name:  'WEFT 90.1 FM Community Radio'
- ap: 5161
  img:  'http://lh5.ggpht.com/nirQKdy3s9r8TSV7cB7_B0l-0EsFXBkg1aitH05R0ttPhOEewGxlq1GRnlDvYFT2V8Z91hWnB9YD3WjxBvyZ'
  lat: 40.11868
  level: 4
  lon: -88.243426
  name:  '"Pointless"'
- ap: 4861
  img:  'http://lh4.ggpht.com/_jAAuDi8SO5uupi8JlB3HZaFG40S15izNv_3vqOt7ro2rRHuXrfdEKfEFvRESdAjCEz3RVDpyrxJGSIrju5d'
  lat: 40.117916
  level: 3
  lon: -88.243087
  name:  'Sholem Building'
- ap: 5161
  img:  'http://lh6.ggpht.com/nbUJivBo0zF8f8aBbk1GwakUpPbLUVOoEovTTETYwJvfNIHXwG9XUbwoV0x-ly4ZO5Hsyv5KPo3c9cE6Nh8'
  lat: 40.118832
  level: 4
  lon: -88.243643
  name:  'Tesla Ball'
- ap: 4972
  img:  'http://lh5.ggpht.com/f710C9AvOEB7ieCI4f382wWUP4OgDxiqPzbxqxct6Ugf2PWBfyXyDpG_JcRQ6PaZ_jS0jpXXBhNSt_u9rFA'
  lat: 40.113864
  level: 6
  lon: -88.224839
  name:  'Plato: A Social Networking Revolution Begins'
- ap: 4785
  img:  'http://lh6.ggpht.com/LxVyXEFJmvSZ271mlFfYmCwyb05Kz8cIRxzMt24ZVhRzsH09nxErJw4gKErktjKpCARWfVl4Mla70NoODK2bng'
  lat: 40.11187
  level: 5
  lon: -88.220692
  name:  'Atmospheric Sciences Building'
- ap: 4785
  img:  'http://lh3.googleusercontent.com/U_-4hKnh83ZT50dnywqzC7jR6ialVAMHwoWLMsG5km5adHpOU2FNmfe58sV_IDOBaVBAJbKZafokPWLzKLGgTQ'
  lat: 40.111268
  level: 3
  lon: -88.223809
  name:  'Goodwin Avenue Bridge'
- ap: 4598
  img:  'http://lh3.googleusercontent.com/4ZghmANMiPJhVcpWuH3M3D6jgFGSDn0QH-VAP5olDzQjucfxwHFo8-1DsCSQhVV-YaTWMvC1pVwqWdnjVs8'
  lat: 40.117215
  level: 6
  lon: -88.245551
  name:  'The Virginia Theater'
- ap: 4411
  img:  'http://lh5.ggpht.com/KYppjeOoIlb4lbowRrrC5qRdYW7_KU8rzjtDMpvhh-Q_c6VZOTtVmOqmmxChJA2hjlpS5dJ1JnhUQcKUAXDWHA'
  lat: 40.117976
  level: 6
  lon: -88.242642
  name:  'Stevick Building'
- ap: 4411
  img:  'http://lh5.ggpht.com/PnX0W4nb5AYgeh3aSV1f6L1M6SXT5EDNNj-HZLlIrqeFoeMlVOlqnsY-fMyXYgvKn-Ac3RDPKf_iJCtYRmek'
  lat: 40.194805
  level: 5
  lon: -88.401996
  name:  'Leland Dollahan Memorial'
- ap: 4411
  img:  'http://lh6.ggpht.com/t9_eydZD2uZIBwEmrNcPR2FWXjyVKK06CTbNoZQ682AuvHAsWKBewlbzTqH7yqOjuPMBBkqOGwETeqt6hoU'
  lat: 40.194618
  level: 5
  lon: -88.401509
  name:  'Mahomet Area Community Center'
- ap: 3661
  img:  'http://lh6.ggpht.com/ytlRYKlqnchcFvl3QEN1XknYcwYKIjohz4qzWW8SmhDi5mypBmgPbf9e4ghZWMZY5gpD9HIyalemSKsIzyA'
  lat: 40.11408
  level: 4
  lon: -88.245852
  name:  'Champaign Fire Department'
- ap: 3661
  img:  'http://lh4.ggpht.com/ZEK-DXu7TJqsrt7cbLRjXyr3JbENJCn1FaKxH4Oi6kEvo4K0Yzm5qzMddhRLNlXvokAwQoeG4EKaNkXnJDA'
  lat: 40.114015
  level: 5
  lon: -88.245256
  name:  'Firefighters Park'
- ap: 3661
  img:  'http://lh6.ggpht.com/ZQaguxPyiC-6DeFDFa2niVKJz3ySxwxYaFCv8PRdNuoMYUfP-Xtirg-8pXCTdBCyH1BruprOVmqf3D1kdp7o'
  lat: 40.115225
  level: 3
  lon: -88.248866
  name:  'Holy Cross Catholic Church'
- ap: 3661
  img:  'http://lh5.ggpht.com/dEeT4acpLu-WQFlZWd3psap5qAqqPTSVzm8Qt1QtpqtwZ0j1V9eKFcmpgN9K_x1PL4XVchuevw25rxHekz3tvQ'
  lat: 40.111968
  level: 5
  lon: -88.226793
  name:  'Bardeen Quad Structure'
- ap: 3661
  img:  'http://lh6.ggpht.com/POBAhJlStu1uLv82RPSkd8lKQyojPByrKqAwgiZPyXTHQcNTCN7rkJM376YcVpMmZZVMgiXz9J1BXanexyA643e-FR9M70tksLdb1akPUe2Ra_xCyw'
  lat: 40.112411
  level: 5
  lon: -88.226875
  name:  'Grainger Engineering Library - William W. Grainger Medallion'
- ap: 3474
  img: http://i.imgur.com/5j1qaiT.png
  lat: 39.799714
  level: '?'
  lon: -88.166977
  name:  '34824ef0cb1e4e68a4e511bc95860783.12'
- ap: 3474
  img: http://i.imgur.com/5j1qaiT.png
  lat: 40.007652
  level: '?'
  lon: -88.643898
  name:  '37d37954416845b78adb14b60ac64119.16'
- ap: 3474
  img: http://i.imgur.com/5j1qaiT.png
  lat: 40.00737
  level: '?'
  lon: -88.643258
  name:  'edb4899e3e4b4e2480be59f92e5f2c92.11'
- ap: 3474
  img: http://i.imgur.com/5j1qaiT.png
  lat: 40.145927
  level: '?'
  lon: -89.36315
  name:  'a4fca51821e44674b4c60865e71d20f1.16'
- ap: 3474
  img: http://i.imgur.com/5j1qaiT.png
  lat: 40.146383
  level: '?'
  lon: -89.362966
  name:  'c93c20e0546c42df83982de710d894cf.12'
- ap: 3474
  img: http://i.imgur.com/5j1qaiT.png
  lat: 40.037337
  level: '?'
  lon: -91.064599
  name:  'ba3bee96260a4fceb8db8899c5f24f51.16'
- ap: 3474
  img:  'http://lh6.ggpht.com/BsXdEO7HLxNLSdztPo_4GNNcbxZCxswiDT4pmmcfDQ8YO2SFVW-VnwyEZBvkuhf1rxKAtoKNLvV4rDJ-YVCYUK1qiX-dId_R8P-JskyFYAK9ruM-'
  lat: 40.110234
  level: 4
  lon: -88.224055
  name:  'The Etc'
- ap: 3474
  img:  'http://lh6.ggpht.com/g00CHgvPQnSjjPtDBIePwTKCNdh3HB7MmvYFvkSM7tmZuoBJ4WaKiltQhrfxIflpUy2xiNU-Z_Z2PGCTnXfK'
  lat: 40.110725
  level: 5
  lon: -88.223784
  name:  'Anthony Leggett Superfluidity Nobel Prize Memorial Plaque'
- ap: 3474
  img:  'http://lh4.ggpht.com/d3UqrcK5M1wuOe19dIaBUOkrXF4C9IxhOWfxqzM4zIHkGsUIRb1mckNapOMRkkCtVIe0rzJumb1OVDVc1_Y'
  lat: 40.108055
  level: 4
  lon: -88.233688
  name:  'University Baptist Church'
- ap: 3474
  img:  'http://lh4.ggpht.com/hJDi8J7CZU-933hT0Culp2nhslv6p8rDRPdTFz6FwNaAjB5CmfkaQzj9sM--E-QBvI8yvIJn1F2jxy7ZKWlh'
  lat: 40.10816
  level: 4
  lon: -88.234245
  name:  'Stratford House'
- ap: 3474
  img:  'http://lh4.ggpht.com/OFVPvdgB3GVpaQknHdnt2okgP3xcQksAH3wvOGYVuP85MMlxo3bQ2SRpBb0hzNfjQoC_5LlRqaE6jLB-h9Gr'
  lat: 40.108092
  level: 4
  lon: -88.234589
  name:  'Koinonia Plaque'
- ap: 3474
  img:  'http://lh3.ggpht.com/nGhmCwJD6bTZSD4fk-6vnaRZfPq8CI7zLMEDuUZFl7no1ZUFie42aJKdxr5r-212vPk5feGwGFfkMrb_IBc'
  lat: 40.195177
  level: 5
  lon: -88.401915
  name:  'Fire Fighters Pavilion'
- ap: 3474
  img:  'http://lh6.ggpht.com/jzcknzJD--LvlqQqPBMjG5p5MOsy0bVOqavN3G5IS_o5-rYQyZDSv-dIiYpewV2Odmjeq9dpcCnS9xfpo4aRxQ'
  lat: 40.194684
  level: 5
  lon: -88.401764
  name:  'Mahomet Community Pavillion'
- ap: 3098
  img:  'http://lh4.ggpht.com/PmGpygZ2fBs43twk2Y44XZbgGcHWv0YimAq7Fp3vlIRRqUyLpSmDmFwcn1ucfmJarcQrAAXJjYAXAhNyxSrz'
  lat: 40.110049
  level: 7
  lon: -88.231968
  name:  'Potbelly Mural'
- ap: 2724
  img: http://i.imgur.com/5j1qaiT.png
  lat: 41.533156
  level: '?'
  lon: -88.580355
  name:  '53ba227dbfbe4c2a9547c1e3b9b53aca.16'
- ap: 2724
  img:  'http://lh5.ggpht.com/bxjTJmHRd1_7x6zw7y1Eir0opWUqtbJOdAC4FxDOfOBVdUI1zEVV9wo5FiHzTxqR7hajj-4tQrnSyAe2b8Y'
  lat: 40.113974
  level: 4
  lon: -88.311234
  name:  'WBGL Radio Station Headquarters Plaque'
- ap: 2649
  img:  'http://lh3.googleusercontent.com/E2FfrLzJb3mHfXBany5NUYpw8tvRpjHxGQ7W0BTKFPVcMupabCQ2fXgQfa0jajRZbLswWOYbEkCO3hUGbIGD'
  lat: 40.099056
  level: 5
  lon: -88.249136
  name:  '"Cricket" and Bob Barger Memorial'
- ap: 2724
  img:  'http://lh5.ggpht.com/jz0XvZSSYKqKSa4lJDK-rludOns_o36jZ8ZTzfEr42piZamiTjSASTLdII6pkxgjZgnCwKirjhEouS77BPB8Dg'
  lat: 40.094288
  level: 5
  lon: -88.248914
  name:  'Boulware Trail'
- ap: 2724
  img:  'http://lh4.ggpht.com/JVNlRlxb-5k_pDpi5lUduOZu2NO-CKdaVaa4Jj_IHDLIxC31OEc6zpyO8qklRI58_wB2fH1m8LUHOJW_GME'
  lat: 40.125389
  level: 4
  lon: -88.209627
  name:  'Crystal Lake Tree House Club'
- ap: 2724
  img:  'http://lh4.ggpht.com/n7S7CjMfxfFwYHpq5HrRc6lFaFZYFVb4vYJAcTAc8MZgOgDNYI7QBChMeKIY-OSJkDSdwCf5KsJYmDesbHhq'
  lat: 40.127017
  level: 3
  lon: -88.209948
  name:  'Busey Woods Gateway Trail'
- ap: 2724
  img:  'http://lh3.googleusercontent.com/eTQ9CkXix_kovUmX48krAoSy9iHiLPqf47J3f7AZN6Rk3GFlkf4DJKkCp51iJvzi5Vt3M3wjjMcwOc_4scYq'
  lat: 40.127246
  level: 4
  lon: -88.210084
  name:  'Gateway Trail Information Kiosk'
- ap: 2537
  img: http://i.imgur.com/5j1qaiT.png
  lat: 39.827342
  level: '?'
  lon: -89.627711
  name:  'ab8c821e0df6454e8a15dfb179ef690c.16'
- ap: 2537
  img: http://i.imgur.com/5j1qaiT.png
  lat: 40.145754
  level: '?'
  lon: -88.966203
  name:  '796a553c523f4f67905570d0bc7552ea.16'
- ap: 2537
  img: http://i.imgur.com/5j1qaiT.png
  lat: 40.418736
  level: '?'
  lon: -91.127225
  name:  '2f375bf068244d38ac1bb3ea63c0a75c.16'
- ap: 2537
  img: http://i.imgur.com/5j1qaiT.png
  lat: 40.14851
  level: '?'
  lon: -89.387187
  name:  'a0f8dd4972b0415491199e1c28cae401.16'
- ap: 2537
  img: http://i.imgur.com/5j1qaiT.png
  lat: 41.052696
  level: '?'
  lon: -89.05135
  name:  '69517e12a5f64fdbaee60509ef49a60c.16'
- ap: 2537
  img: http://i.imgur.com/5j1qaiT.png
  lat: 42.773767
  level: '?'
  lon: -86.210255
  name:  '57d26e1570fc477bacd733f559a430ae.16'
- ap: 2537
  img: http://i.imgur.com/5j1qaiT.png
  lat: 41.896156
  level: '?'
  lon: -87.610071
  name:  'ac0239c3ac404385984dd819cebf734a.16'
- ap: 2537
  img: http://i.imgur.com/5j1qaiT.png
  lat: 41.049794
  level: '?'
  lon: -89.052474
  name:  '2389528849e844b5be35edd39dfa41db.16'
- ap: 2537
  img:  'http://lh3.ggpht.com/g1H1SJintXK5Zb7ng6DN7wix1q5otnzMK5JCJDnecwuIiohJmhXLJs1XzItxaTSYEuPPOqd4x-dGqd0WK5YU'
  lat: 40.13349
  level: 5
  lon: -88.313072
  name:  'Sunset Skate Park'
- ap: 2537
  img:  'http://lh5.ggpht.com/6W_b3aoHNnxViA4TkycmE5hhV5q_VHfypLNlgG4sAyw2eJ5Meyzi2-vwTA8miyKA5pZApxbfpAa7uc0zlCM'
  lat: 40.134758
  level: 5
  lon: -88.313172
  name:  'Sunset Ridge Prairie '
- ap: 2537
  img:  'http://lh3.ggpht.com/CraZJCGkYMojxUhZiRGhjSMt9Ggq_EWkUgzsVChRJRy806N-iFxcUt910vs-j4ap6ycfrLl-faXk8cbXM2n3'
  lat: 40.105644
  level: 4
  lon: -88.309106
  name:  'Turnberry Ridge Park'
- ap: 2537
  img:  'http://lh3.googleusercontent.com/ryRMzj5c3ls-s5Gocd2-IM_oonInNzjPIbCGJVps6JmZxYcG165NabHKNZW7wAepNc8rtLf3A3E0U1mbq-I'
  lat: 40.113683
  level: 4
  lon: -88.315289
  name:  'Circle K 4202 W. Springfield'
- ap: 2537
  img:  'http://lh3.ggpht.com/NfRR7PyM2-UNoQGKgRsf6sUZdUTMp0sWqha9caVs49hYb0AnT9OznQX0dQGxKJNP6KiHWJ0WRUMSQh1m4-rwvg'
  lat: 40.117976
  level: 5
  lon: -88.245082
  name:  'Robeson Building '
- ap: 2162
  img:  'http://lh6.ggpht.com/mKnh6CvhOm_8Kn26lJTmk71nbwSMS-i9VJ45CR83Z8wB6Qn-9JAiyt1GEfrWKkv51a_y-lbN8pO6R1L5EZWfzw'
  lat: 40.117349
  level: 2
  lon: -88.244537
  name:  'Flower Island'
- ap: 2537
  img:  'http://lh4.ggpht.com/Oocso9yyW_QlJlddbFRk8zzguP4PfXU8kI9T5rJbiyNwSgNMG0BmSoK3TdG2cEgH-p2Xd_vpQMxA_RcxLUP3'
  lat: 40.109066
  level: 5
  lon: -88.247875
  name:  'The Church of Scientology'
- ap: 2537
  img:  'http://lh3.ggpht.com/PKHUaHtGQlwpb8q3mUpPJtjb51_am_ieb_9X0u8g1PI_eg7NxFQU2fqeV8XjnIIDy0rCMtqsfMJLerOBo8M'
  lat: 40.118579
  level: 5
  lon: -88.244588
  name:  'Mural on Art Theatre'
- ap: 2537
  img:  'http://lh3.ggpht.com/VLipBehsKPCp8ewQnBV1ZCz7uE75zcY46iGDyFfFHgX1o55t3DONb3wcBcL5RMYSqABRK0TgIW3DluNy8y6WaA'
  lat: 40.101131
  level: 8
  lon: -88.250539
  name:  'Hessel Park'
- ap: 2537
  img:  'http://lh3.googleusercontent.com/Tixp17uCaP682s77UzvCwWCOE6vg7iB2qEFLjACq7xtVJdHE0K3yKYsl3_SwKbiUfQWwgTQRbvfka3U0NvNc'
  lat: 40.098819
  level: 6
  lon: -88.249214
  name:  'Bette McKown Honorary'
- ap: 2537
  img:  'http://lh5.ggpht.com/fDRifvVcFT_dKhPuNBN4rR9lNHL0Q6NvbMnGr2-ZdiirR2rJrBcWRi4vyM3-DYNHymUs7bWchaWRaUtBpg'
  lat: 40.098541
  level: 7
  lon: -88.250389
  name:  'Dennis Robert Costello Memorial'
- ap: 2537
  img:  'http://lh6.ggpht.com/YdeB0EKlsopL39a9YXWj4JBZgXNNLWHgfe4PQzdpWCNWc0fR1YTj8WjARDHnmrusvKWTqKLcGg8U9frhtsw'
  lat: 40.09821
  level: 7
  lon: -88.249879
  name:  'Hessel Park'
- ap: 2537
  img:  'http://lh6.ggpht.com/Sz4BABPqyoIyZVGpSBEM1QNIxPngQLl7hopqjyVJi_fak1xgpFAX_X7TbK6tICEaYnLrvC1hV2jv-AwPofQX'
  lat: 40.090038
  level: 5
  lon: -88.249379
  name:  'Three Hierarchs Orthodox Church'
- ap: 2537
  img:  'http://lh3.ggpht.com/wkPcdDupubV3THJo6r2OpMtshziiIkqBISPTCPe8boa-8nH33u83Mznkr1yYWNR_l60RCy8HO_obqrdNGUI'
  lat: 40.093633
  level: 5
  lon: -88.246611
  name:  'Fountain at Illini Plaza'
- ap: 2462
  img:  'http://lh5.ggpht.com/AmsS7GEfFX-_Icem2DP6mjQahV1jeut1CGdeqLqfpyzx0m5SqhVY4eoAohizF0xsevPQufmLRMoVj2rW7Fe8'
  lat: 40.111689
  level: 5
  lon: -88.231193
  name:  'Koi Building Art'
- ap: 2537
  img:  'http://lh3.googleusercontent.com/hvoLMUc9UoNVVPttxWTc8PzOWdu5MBmPETnBexH7Alyl20WGCrNa0G_j7DwvD3qbhqpTaeThFhGDV2rCtp8'
  lat: 40.107629
  level: 5
  lon: -88.224484
  name:  'Bucky Balls'
- ap: 2537
  img:  'http://lh5.ggpht.com/5WZPQL7oa-VYm5x9viEwKiCeApkaxUNXa-mHYU-9S9_fOCFAqFLktoU4hnu-RM6tx8X0tMs2PHUyDnkS6fqI'
  lat: 40.111391
  level: 3
  lon: -88.224416
  name:  'Gone Fishing'
- ap: 2537
  img:  'http://lh5.ggpht.com/fGRHfMAqdWrUnPE8GStKSdMkgQmu9qvuxAC4VzcU1v2KyxQu2BeuJKhvhefSeFNTkgFh6YdR-F4P6plMbh0'
  lat: 40.110194
  level: 5
  lon: -88.231488
  name:  'Fighting Illini Memorial'
- ap: 2537
  img:  'http://lh6.ggpht.com/SboHv2_AWJ6ll559fK1A5a1UIAKf04oIHrgidra_E6L8gDK_mQ-DaM7hKYkv7MT6ZAA8pzgPxv_Vy-eNN7g'
  lat: 40.110608
  level: 5
  lon: -88.231957
  name:  '217 Tattoo Co.'
- ap: 2237
  img:  'http://lh5.ggpht.com/k_9eqZVvGcr3ZNyeeSNDM1-Y7od35KmnQQptB9usrdpTdpGW2c_5-12rYy9hGazdx7qhlYrEXxaJ_ZIVFywlcA'
  lat: 40.106706
  level: 2
  lon: -88.232116
  name:  'Illini Tower'
- ap: 2537
  img:  'http://lh4.ggpht.com/mHAXKPtOyg_DWRs5A_0yhGeDsfU4f4o3xJvzziri7o3ksPPKtMAHUkUBOb0JJ78gArdP5Q6O-UiXNDG3RHaIYQ'
  lat: 40.109339
  level: 5
  lon: -88.234149
  name:  'Alpha Delta Phi Fraternity House'
- ap: 2537
  img:  'http://lh3.ggpht.com/rT55OoX-8s-w_ikrqOgpC7QkK-Iqp4ylicElGoWFagKRQ8LX3Uvv8TZ5Xc8BlId1btzo5FTbgddPN72kYwA'
  lat: 40.114327
  level: 5
  lon: -88.224492
  name:  'Siebel Courtyard Structure'
- ap: 2537
  img:  'http://lh3.ggpht.com/xId6g6VicbS3F1vf-TwfkAOcAj2J4qElQNbgW1wmhWy5cxh-ZSjfN5a3K9w7mGOmQymgNDrLMQCjkUPl_ifzcA'
  lat: 40.111517
  level: 4
  lon: -88.224103
  name:  'Ceramics Building'
- ap: 2537
  img:  'http://lh5.ggpht.com/sF7lKjQa6S3nhaNE0eY9h2BozLXUrtnucsZvqAKKD_ZrLPFTVf8thR2l28H7-R4sxheNrwB3hEujhIk1_4E'
  lat: 40.126699
  level: 3
  lon: -88.209995
  name:  'Fly Fishing Sculpture'
- ap: 2537
  img:  'http://lh5.ggpht.com/n-WJVk4VFfgCVfLuyItrEjDCHgOd5YN1Z1ts6qT6-RmXvFyDeNKYarXwzwHKyd5B9tGmezRoEzKX4EFKmaY'
  lat: 40.124947
  level: 3
  lon: -88.210509
  name:  'Trail Marker in Busey Woods'
- ap: 2237
  img:  'http://lh3.googleusercontent.com/IjFn38FDtBJH-mPUV2G-iLjG9eOxcQ0m6Go6BOImGLXhu03Bd5Vs8EtAzPrfKH7uQFYlI_S8eQCZkaZp7kTO'
  lat: 40.125757
  level: 3
  lon: -88.20788
  name:  'Nature Center / Family Aquatic Center'
- ap: 2537
  img:  'http://lh3.googleusercontent.com/O0A6xsiat2O0IjuyckSS9k1cq1UOF3Cie-GIi1L5d58akNeRMYcb7agKQErL26RwfdgTl-W4anRPPhu-lKpy'
  lat: 40.128515
  level: 3
  lon: -88.212038
  name:  'Busey Woods Trail - A Helping Hand'
- ap: 2537
  img:  'http://lh6.ggpht.com/do_DYaj2kuC0reA8E9rCQLDp9K62ZQd4qfV0SBSo8iPPupN2U8_deQ7GHA4zS42XaiZnPqoObG_y_dRCUwNa'
  lat: 40.11283
  level: 6
  lon: -88.209282
  name:  'Cycling Mural'
- ap: 2537
  img:  'http://lh4.ggpht.com/QGRtYb5gsWsiyn9EznIJ0ApB7yWv-SWBAH6CKgO9JRg3PCgn-s8yQMtXPkMDht8dNjPchkCRleUIBT-DnYXh'
  lat: 40.112928
  level: 6
  lon: -88.209039
  name:  'Courier Cafe'
- ap: 2537
  img:  'http://lh6.ggpht.com/jhMQ5IGo-EB8MiVSEIUKmHbHwagHnJzv5RKZvsbHLes_88gz9Kesj98eZWV29mufV0LSUVjs53V5hMFQOG2Q'
  lat: 40.11067
  level: 7
  lon: -88.220974
  name:  'Astronomy Building'
