- ap: 14533
  img:  'http://lh3.ggpht.com/G1CvGhpethi5UmprDWxZN9rTblHa3anSsQz1UPgJtkREkfN7lDFoxFObst0609Cg5mofuZxJKr0ddNKhY4VL'
  lat: 40.098464
  level: 8
  lon: -88.251426
  name:  'Ruth Haasis Memorial'
- ap: 14157
  img:  'http://lh3.ggpht.com/rUgM7jkTqL0VHxvsSW0yWuNJF5UrU62ITflghfn4PfKjn6L4WGz0ALkv98fc_q9dmK9SSpU1PXIawGvcRwE'
  lat: 40.098246
  level: 8
  lon: -88.251974
  name:  'Hessel Park'
- ap: 12468
  img:  'http://lh3.ggpht.com/lSr_gDGX9o1BHZX9FUPCKAO2VVQjZ_NwTBaSNhNgjVyJ2p6BnLDByC_vIkhu637-W5nKMW2SShi0gXOlXNqY7A'
  lat: 40.097979
  level: 7
  lon: -88.247785
  name:  'Jarling''s Custard Cup'
- ap: 10970
  img:  'http://lh6.ggpht.com/f3cOUn1gqLkJZQzs4-Y9j6j2ZXbb1Kmzf3klCFzF8zmFSlZZ-B6O4-5t1KIX95jbYUjeqMgOohEf1ilF75Uqyw'
  lat: 40.132777
  level: 5
  lon: -88.287351
  name:  'Parkland College Prairie Restoration Reserve'
- ap: 10783
  img:  'http://lh3.ggpht.com/GXyi2ghi2DR3h7uIHNYiEZPYixRhDo7LO0WHQ0PyEzb-150r7ar7JGeVjUoPuObC-GFWf22UWqnYCMtED0M-'
  lat: 40.100341
  level: 8
  lon: -88.249937
  name:  'Alice Marie Weber Plaque'
- ap: 10596
  img:  'http://lh6.ggpht.com/S7Utf4_59vQkAP5JhC3mdbzVLKBTt-0zoJ2UjfxUnN10VBbixO-_VwvssWd1LbFSx_yafaijd_U0wTGo870'
  lat: 40.100941
  level: 8
  lon: -88.251314
  name:  'Gabriel Patrick Maxeiner Memorial Plaque'
- ap: 10596
  img:  'http://lh5.ggpht.com/4DJAFPeZ_w65Km7VDnsbOqouQaeBuPuxA0KHPQToT_B6o1hBxzdu3kn89UhHgv22Ygj52Fx9QqcbzOytuw'
  lat: 40.100078
  level: 8
  lon: -88.250683
  name:  'Brian Clark Memorial Plaque'
- ap: 10031
  img:  'http://lh6.ggpht.com/NMgUdPOdhvhvKZh7ugwXgybshZBZ2mkaEWMNKYdFPX6cfIYENSCqE9YpAXSNVuq_9VVWXJB-ShCBAPfF2Yvs'
  lat: 40.102513
  level: 7
  lon: -88.243679
  name:  'Robert Hosier Memorial Garden'
- ap: 9846
  img:  'http://lh5.ggpht.com/fDRifvVcFT_dKhPuNBN4rR9lNHL0Q6NvbMnGr2-ZdiirR2rJrBcWRi4vyM3-DYNHymUs7bWchaWRaUtBpg'
  lat: 40.098541
  level: 8
  lon: -88.250389
  name:  'Dennis Robert Costello Memorial'
- ap: 9846
  img:  'http://lh5.ggpht.com/-UWK84I78Sftf7yg-E2pg6xEAWTvyiThgJBJlxbqOZPYKNmzQ8uGgEEMetzplrG1HpXG5kQqNItUeXKxOHDsGA'
  lat: 40.100286
  level: 8
  lon: -88.251747
  name:  'Tennis Anyone'
- ap: 9472
  img:  'http://lh5.ggpht.com/C6wRSaEWO1NYGY5luyYZKHG3Z3aib4aflaPdV7B9G6N6adE890g3QuPRSvCUhsdFHqjoVUjo27mfz9WsjXyuhQ'
  lat: 40.100521
  level: 8
  lon: -88.250864
  name:  'Gabriel Patrick Maxeiner Memorial'
- ap: 9470
  img:  'http://lh6.ggpht.com/6pMlM7pPsp-5PTNYZ8AJgo5ODURCPJO-_LigeHL2TMhjfK9MS17iEcpQqc89n5gyUdEO8seZrlThTGbKEqg'
  lat: 40.132999
  level: 5
  lon: -88.292808
  name:  'Campus Solar System - Mars'
- ap: 9470
  img:  'http://lh5.ggpht.com/Q32BPmFRIQYqXI5gLOV9ifHvFlGdyD_yws2172-sHnSZ-StunhCM0Abqd9rBWSaKBWN7RPpa1h-nok4Mc23i'
  lat: 40.101062
  level: 8
  lon: -88.249275
  name:  'Narayan & Shanti Achanta Memorial Plaque'
- ap: 8909
  img:  'http://lh6.ggpht.com/YdeB0EKlsopL39a9YXWj4JBZgXNNLWHgfe4PQzdpWCNWc0fR1YTj8WjARDHnmrusvKWTqKLcGg8U9frhtsw'
  lat: 40.09821
  level: 8
  lon: -88.249879
  name:  'Hessel Park'
- ap: 8909
  img:  'http://lh5.ggpht.com/DFa-Mh8ldMlU5wGTYmJIGYKPoSYUfYebRpnom9j15NFNRkwMdU5kDME0GYQUyA_LXnsNi9Jka-xidd302s93'
  lat: 40.099056
  level: 8
  lon: -88.249136
  name:  '"Cricket" and Bob Barger Memorial'
- ap: 8909
  img:  'http://lh6.ggpht.com/5CDidk0pqfUtSW_Yqouuf3diX8drdMu9DoT728QpSz8q6A-WxNhT0yLcgM_7gGpyIAeXrHiTkIzzaVJFgnN9WA'
  lat: 40.099852
  level: 8
  lon: -88.251947
  name:  'Our Friend Tim Palmer'
- ap: 8909
  img:  'http://lh6.ggpht.com/BKeORacgeVrG8XzxTuXmpq5UxomWpK-I2n7Xy0PVbdSciNx9MJl869TcibnFIiV5PJHGv5R3QOpX6ZgLUwU'
  lat: 40.099706
  level: 8
  lon: -88.250065
  name:  'Lois Barham Memorial Tree'
- ap: 8909
  img:  'http://lh5.ggpht.com/T0WLAJf0s4nu2Phxax31eu6pO6zNoA4JpvHMLyfMKttzJALEWB8EAWOziQwgjdWE3YjBbG1XjGYsgihqCSX9'
  lat: 40.100414
  level: 8
  lon: -88.249061
  name:  'Randy William Auteberry Memorial'
- ap: 8909
  img:  'http://lh5.ggpht.com/q-mJ2EvrjGn2PfbBh3Pl3XIGUyzTqxGjZmTMhn3k9_2Qi0S2hs3k2ZvpKb4kvt60AXHiyQdxqft5ZecPcg7x'
  lat: 40.098959
  level: 8
  lon: -88.250141
  name:  'Bob and Wilma Tinkham'
- ap: 8722
  img:  'http://lh5.ggpht.com/ENeQgqydWbi9-Oyf7vizunoRqJdsZV4o0RA_956wjGI8hqpTCHBPyWMpbTrrkwYpj5tgzDRvevGmvH4eFRU'
  lat: 40.099593
  level: 8
  lon: -88.251724
  name:  'Blessings from Devon Elaine Cattell'
- ap: 8722
  img:  'http://lh3.ggpht.com/VLipBehsKPCp8ewQnBV1ZCz7uE75zcY46iGDyFfFHgX1o55t3DONb3wcBcL5RMYSqABRK0TgIW3DluNy8y6WaA'
  lat: 40.101131
  level: 8
  lon: -88.250539
  name:  'Hessel Park'
- ap: 8722
  img:  'http://lh5.ggpht.com/k_9eqZVvGcr3ZNyeeSNDM1-Y7od35KmnQQptB9usrdpTdpGW2c_5-12rYy9hGazdx7qhlYrEXxaJ_ZIVFywlcA'
  lat: 40.106706
  level: 7
  lon: -88.232116
  name:  'Illini Tower'
- ap: 8720
  img:  'http://lh3.googleusercontent.com/gCJN301o7TKMPpTwXYpuWceaR0wtjm4S3By0SJ5ubrMNK0UEKo6bMcldlreNdLDqpnrYOFmjqByM6vCJDCT-'
  lat: 40.086378
  level: 7
  lon: -88.251308
  name:  'Life Lessons from Kimberly Kueffler'
- ap: 8533
  img:  'http://lh5.ggpht.com/BkbaZlRlq44d6DiMOVuIlrel2Hsi_RzzHhhdmJH6BLzJk5RKxAcvh2mMd93BFhKgTKLk-yZsNLTaJiTbZsk'
  lat: 40.086686
  level: 7
  lon: -88.252282
  name:  'Elsie Mattis Springer Memorial'
- ap: 8346
  img:  'http://lh5.ggpht.com/dRrlHXlT2nMNgZNHiYo52ha9L-Xay9DyOJR2Cpqs74hgAJ09abn9OTAtMzRVedt1_R9ObZllLO98vRhNMfgTgVsJCk1S-HJwX_XgiGpG4lz3a328'
  lat: 40.11671
  level: 6
  lon: -88.24263
  name:  'Cafe Kopi'
- ap: 8346
  img:  'http://lh4.ggpht.com/vKgqIecJshMQxrhO-ZhMjcIyARuJdyU63wKfzAG0wouZex6LVzO46Qi5zM1N3Jx8xyantDFk9sQGsSEBhb-y'
  lat: 40.101327
  level: 8
  lon: -88.251412
  name:  'Zeus Memorial'
- ap: 8346
  img:  'http://lh5.ggpht.com/tfAfnmo6mSMc6U0P533NMFJRGwn6lasmx-MLR2JJg1QOizMKkghFU8E7hb2zgYgdQEbgnCJUlvZIMdrrJe4'
  lat: 40.100822
  level: 8
  lon: -88.25193
  name:  'Seeds of Kindness Bench'
- ap: 7972
  img:  'http://lh5.ggpht.com/aeGh3iXJqJ7skg-2JHEpngMSfcp1qDIEPoLMxzQNqbS5Y7HcxN7oE789bXiVFoFIcdCn7-3AhLPtxT_WE2E'
  lat: 40.0985
  level: 8
  lon: -88.248681
  name:  'Siti Sculpture'
- ap: 7972
  img:  'http://lh3.ggpht.com/KzADjdPRAvwycpfTBdAeDwFJ0AxZJG2dPmbPWkXq55QLV9PfpJ_-DsXWIlVgsISUApRdJ5cAxRWx0k0W2hI'
  lat: 40.09979
  level: 8
  lon: -88.249107
  name:  'Jerome Cook Memorial'
- ap: 7970
  img:  'http://lh5.ggpht.com/yK94cjys6dDm62pDsBwEKJP8ioxZEFbb2oelmT5ZMmaNZPkqAXW00NHP3_7fvtyG796u2ZhKGfbY7To9Sdtz'
  lat: 40.088063
  level: 8
  lon: -88.248271
  name:  'Still Waters'
- ap: 7785
  img:  'http://lh4.ggpht.com/PHV-1ZpFzCAl_ViCKwBY_x2pIDbVyaT7wJH1sTvFJCxrSdRrO1x7NaXq9OdRGwz_Mls4iwk6wuGHMBArfV54'
  lat: 40.098688
  level: 8
  lon: -88.25063
  name:  '"New Holland Yellow Dinosaurs" at Hessel Park'
- ap: 7783
  img:  'http://lh5.ggpht.com/_Tp5JJFIIlt0iHHyC_A_gnEm1sxUEKDHmQr0oby74HL0rnFZ5JrnuvOTPk6_vulsU_GJue_7RAAX2Y7I2Wxw4A'
  lat: 40.132354
  level: 6
  lon: -88.292578
  name:  'Campus Solar System - Venus'
- ap: 7783
  img:  'http://lh4.ggpht.com/2JNDO54Hu2KzjIaEeCIFVgD7gEa5VXNBsIemFYp6cgiTUbsSpOwLTc-HqZb__uut24jHpVnQVokRVtL00ozu'
  lat: 40.132056
  level: 6
  lon: -88.292671
  name:  'Campus Solar System - Mercury'
- ap: 7783
  img:  'http://lh5.ggpht.com/THzk1iE4eBFdHkEgW_OGBWS54BbJw46faUZQS1Ad_IROHGgmVaXrphXJuL1O8N9k4G8_jaDT4P9tmLxMNi0W'
  lat: 40.131713
  level: 6
  lon: -88.29276
  name:  'Campus Solar System - Sun'
- ap: 7409
  img:  'http://lh5.ggpht.com/dgQfoxxVeHT5ODqLiUYHV45qvkC_BMS0kIFRqvHvE2GO0TduZ0-XzhW8RE80LtPDK0Ay5xwA6PtjM7G3C9U8'
  lat: 40.108947
  level: 7
  lon: -88.232251
  name:  'McKinley Church'
- ap: 7035
  img:  'http://lh6.ggpht.com/cZVUlNaHjfsB6Lu5hnj8JjUk4lvsgOV7DFz4Nl47-RaQObW1VPRpos6hTDD6WgYrNxCh9UKfn5DFU-K7lRe9pQ'
  lat: 40.1164
  level: 5
  lon: -88.242747
  name:  'Sidewalk Art'
- ap: 7035
  img:  'http://lh3.ggpht.com/sisvfsphxy7AK_2qrrqb7lNJk3_7ciHSVJyodINYITBc-UqugyNOooCxKupgJKEg5m_x95eZwouSO2WCmN60ew'
  lat: 40.098579
  level: 8
  lon: -88.249603
  name:  'Chef Ra Memorial Plaque'
- ap: 7035
  img:  'http://lh6.ggpht.com/YVbqGVTjJuDMDdj71CP2mWvnUIdgO25PgoDdJwEGnEE_M9I1aDgKyjSr9JOZVU6UQTZQtfUo9RAWyz92n3jtCQ'
  lat: 40.098475
  level: 8
  lon: -88.249208
  name:  'In Fond Memory of William Moore Jr'
- ap: 7035
  img:  'http://lh5.ggpht.com/8zq5tMevCiipZK8N9-8SZw3vdsA2HwH0E02ormQshGxHVZrB2WPK7OPC8zt6pjLlgpXVuEYHVA_08_Q8fPw-'
  lat: 40.099647
  level: 8
  lon: -88.249648
  name:  'Max Overmyer Memorial Playground'
- ap: 7035
  img:  'http://lh6.ggpht.com/3o0ObAARFV_8mBVCC_QD0iLOPVzNkakXybhLnSVEuXIJfDLKMxeYj-EkWIw9NPoZIVRf5Dkrid2yf_NEQ-iE'
  lat: 40.100347
  level: 8
  lon: -88.249385
  name:  'Travis Marmion Memorial'
- ap: 7035
  img:  'http://lh5.ggpht.com/CRkkFx_9jq2hCt1HtflqZDqCdmSG5MN88FV0rLXk1PZm7maZWzLTKZhjqlSKUx1Tg0tSB62l75w2VFsyUZI'
  lat: 40.09991
  level: 8
  lon: -88.249899
  name:  'Benjamin Biddle Memorial Plaque'
- ap: 7035
  img:  'http://lh6.ggpht.com/yjfa0jJLjsfLRf9Zn9iafMp3MuIhgCi0WiOCF8GqTGiGvzEnsPGrFa0H1n-uzWhVehLbt44ShthsA32VzHd5iQ'
  lat: 40.099737
  level: 8
  lon: -88.251157
  name:  'Tyler Van Atkins Memorial'
- ap: 7035
  img:  'http://lh5.ggpht.com/6MHa8mHyPoZr8QcAXRVJp6cTJ-Besa5bB801GzhlToXL5ff4Zg6U6VtnrbMINQ441jCzYNZDWNxHIBtf7VXvVw'
  lat: 40.087719
  level: 7
  lon: -88.253446
  name:  'Milla Gross Memorial'
- ap: 6848
  img:  'http://lh4.ggpht.com/4LxsGZZMk3DnpJXUvqzrL54CHSP5TDXjUnDJyHmCCTtCJIjGEI7kxT9g4uxfSPh0X6yGLgQo1jfqbu7B8VEr'
  lat: 40.099084
  level: 8
  lon: -88.251826
  name:  'Irina P. Stewart Memorial Plaque'
- ap: 6846
  img:  'http://lh5.ggpht.com/QruW49d2dc1uhQlK1BaZIeo6ruDNkqQfmvZz83eQ-1aC9ytGUcpFaHnKRTnXRc70F2EZ0-pVKGr9Slo0_9RfxA'
  lat: 40.139749
  level: 6
  lon: -88.273955
  name:  'Northside Church of Christ'
- ap: 6846
  img:  'http://lh3.ggpht.com/NfRR7PyM2-UNoQGKgRsf6sUZdUTMp0sWqha9caVs49hYb0AnT9OznQX0dQGxKJNP6KiHWJ0WRUMSQh1m4-rwvg'
  lat: 40.117976
  level: 7
  lon: -88.245082
  name:  'Robeson Building '
- ap: 6846
  img:  'http://lh5.ggpht.com/_gJqtOHLZ9UHsmd_iLjxMsPw5eF5YzqE63qEAzURvSp_3OL9ZrPjM-usiUeYx95b7zTdNodab42cQiyiRRja'
  lat: 40.087835
  level: 7
  lon: -88.251299
  name:  'Amdocs Shelter'
- ap: 6472
  img:  'http://lh3.ggpht.com/oHMQr2Z5LayQFbZOwOZK4ZbYQ1OVxs85-qNTvSj8epsP72vQiOdrzVmkuMPFQtCSf9Rr0oqcnSLFjLn-sPw'
  lat: 40.116592
  level: 5
  lon: -88.243236
  name:  'Champaign City Bldg. Landmark Plaque'
- ap: 6472
  img:  'http://lh6.ggpht.com/2lDM_Uj6QcUJmWkmPhNWg-vfkJbBQAo6zb7eXC5qDTaJ5xAsoU7jPPqYmLo7zztC2Za1oH3QVrHQ78-XabqR'
  lat: 40.116398
  level: 5
  lon: -88.242485
  name:  'Champaign Servicemen and Women Memorial'
- ap: 6472
  img:  'http://lh4.ggpht.com/mlUN5QXAR7rKFvUg7yhxcae3udkR7zCJVaWt5sq_YA47piV6tRi42RNN9fEtT_FafT7lhqg26WM1VETbz5E'
  lat: 40.098239
  level: 5
  lon: -88.25376
  name:  'Hessel Park Christian Reformed Church'
- ap: 6472
  img:  'http://lh5.ggpht.com/H3lz_PbTP4RFYuRMUyZuMouxslODKZQ3RjFiZrITFZcpj2FuEb1K2VVlveQtOyUHG2rYZ114AGuGqK4rATI5jg'
  lat: 40.097868
  level: 6
  lon: -88.242344
  name:  'Campus Information Booth '
- ap: 6472
  img:  'http://lh5.ggpht.com/1yq3oFq9p_Yl5cUf5h7IEfZPAbae2MT7lA0DFo1DHwPWPZJJ-Ez-2AE2oTzHEHWsEJQVUcUwh3j_d3kOYgDS'
  lat: 40.110095
  level: 7
  lon: -88.22862
  name:  'Alma Mater Plaza'
- ap: 6470
  img:  'http://lh5.ggpht.com/xcqe13f85fuXohGUUBZkNrUU1PunkcZ6xMNmHpAp0GJBtydVqCCGj5MqP3Uax4M7Qq4JzDFGqICFrFb6PNEXRw'
  lat: 40.08932
  level: 7
  lon: -88.251883
  name:  'Boulware Trail'
- ap: 6285
  img:  'http://lh5.ggpht.com/XQVr2AUWddJQMpYbapEIpcTLBeBvcpgmW016VjkAOXrp8_P2VsMxQY8FVhtDhA73iTCXCPiydjFIJcbcSa8_'
  lat: 40.116206
  level: 5
  lon: -88.24306
  name:  'Indigo Art Gallery'
- ap: 6285
  img:  'http://lh3.googleusercontent.com/W5PjcRhelt3420IFjpSdOXtmIiv0M99Qv9Xupe6lckHDJDW4zHE9GyACkz8wXBF0_OIO2Jex9d7S8UQ4FJLa'
  lat: 40.118361
  level: 6
  lon: -88.244573
  name:  'Art Theater'
- ap: 6285
  img:  'http://lh4.ggpht.com/PfcTU4XsA06ThtmCWydIWhTsN3gR4jrqnrKxu0O5lhyibhRdKMEaf3jM8VNhViF8qLf13b01E71wr_ajxn0'
  lat: 40.118465
  level: 6
  lon: -88.245077
  name:  'Mural at Nitaya'
- ap: 6285
  img:  'http://lh3.ggpht.com/HX3mWBGofQk08Qdp7A6KMK1AnSXlLEPJR-n6oeX69Efiiss29GHsLiDsHhRS5K8DrXh-QXP1T0AMaOsJmx_w'
  lat: 40.106921
  level: 8
  lon: -88.230145
  name:  'University Lutheran Church'
- ap: 6283
  img:  'http://lh5.ggpht.com/pSVHjk6puyYdv3ztHlpJGnbkZyGsGsirMnxkDhlt8UMko4AhtTQbrzwInBCu5lK4Ttf7furE5pNW2AZh8HuSZQ'
  lat: 40.138109
  level: 6
  lon: -88.270158
  name:  'Glory Center International Church'
- ap: 6283
  img:  'http://lh4.ggpht.com/ryDcZUJK2aQ_fI0-hY850_t4ZmG2hNmtCx7cxbX83w3cnUWdI-ywpTuQrUVQNxGl3_DcxxNr6bupfDTsagRa'
  lat: 40.117107
  level: 6
  lon: -88.242467
  name:  'Radio Maria'
- ap: 6098
  img:  'http://lh4.ggpht.com/B_I1b0Jy3vW41RX8jjCNPP68AULplU0Pf8ddolyKmpEWCfBVShQkmjF1HfTPzDjmBBQGgOs0jHW-rUR0mv8BkA'
  lat: 40.098789
  level: 8
  lon: -88.251685
  name:  'Curtis William McKinney Memorial'
- ap: 6098
  img:  'http://lh6.ggpht.com/qSCp5fQMlyCQ-GOAgiSFy5gaHJei705Pa3eOlJiYO5wGjZTYtjA8q7QWWfAWcLKjxZSaFiMfXOPR8SO7rWU'
  lat: 40.099353
  level: 8
  lon: -88.251876
  name:  'Raymond B. Cattell Memorial'
- ap: 6098
  img:  'http://lh3.ggpht.com/J_h4tdb4wqy8bmmQfDuy5yqTR2IlkzKojfvsMOvlD-3tf1pKxbDlhA6W9Q8RX-JaSxhItMr4bmCxiUQXTLbz'
  lat: 40.10064
  level: 8
  lon: -88.24958
  name:  'Edward A. Cousins Plaque'
- ap: 6098
  img:  'http://lh5.ggpht.com/3t7XZHqwxLZ8Lc9YomR8FInm74U2PAA-DBk8kmdxXIrcXbKa1CoBDTlgdDJeO-_yVT3qNKRnNLzbdil1eH41iA'
  lat: 40.09935
  level: 8
  lon: -88.249766
  name:  'Jim Bickel Honorary Plaque'
- ap: 6098
  img:  'http://lh6.ggpht.com/n0f7lyo15OzZn5IJHsohIGAA58iioentPZGEY4zeMZCCoX4GjEEkqfaTCIbrx9OnezriThnbFV14kYcwKTgL1g'
  lat: 40.098444
  level: 7
  lon: -88.248167
  name:  'Healthcare Not War Mural'
- ap: 6098
  img:  'http://lh3.googleusercontent.com/Tixp17uCaP682s77UzvCwWCOE6vg7iB2qEFLjACq7xtVJdHE0K3yKYsl3_SwKbiUfQWwgTQRbvfka3U0NvNc'
  lat: 40.098819
  level: 8
  lon: -88.249214
  name:  'Bette McKown Honorary'
- ap: 6098
  img:  'http://lh3.ggpht.com/rlm0tE7Js-ApRSIfi0JxzxMVzrls50Gpr-Dbml7uBn7o0sCMtpiVa81HJc88eD0VlJiuzy9UTBFPebVcw-GK'
  lat: 40.087494
  level: 6
  lon: -88.253476
  name:  'Rotary Club Meditation Garden'
- ap: 6096
  img:  'http://lh6.ggpht.com/v2m1E6vVK4ZRaRPhGli7jCsG7xZQZ7I3vV_5AogdEpPU_A1vz9WEkH0vZ-vau2IAdmydYJcXrOA6SMr7vUfT'
  lat: 40.128726
  level: 6
  lon: -88.290287
  name:  'McMillen Ehler Homestead'
- ap: 5909
  img:  'http://lh5.ggpht.com/BK5TjuMzuJgDVPz4C8HRjfZKeaoISnPJ-H7VaYeMNUYmxvvUY7RzIIlR13FjW9HHF_i5-znqs3O6nMxKPfcj'
  lat: 40.102188
  level: 5
  lon: -88.251507
  name:  'Little Free Library Charter 5753'
- ap: 5722
  img:  'http://lh4.ggpht.com/GcCZ7JTzkEHTZnUWfpUgibDh2Wa4nzGM9-k13AG4I2RwFiPa6exz1vCzj7Hwvf_oPwJvYJt0xoRE6GZXmCMX'
  lat: 40.132625
  level: 6
  lon: -88.292636
  name:  'Campus Solar System - Earth'
- ap: 5722
  img:  'http://lh6.ggpht.com/tenpgw5pr4OCsrdIgmmHP_sx4RHH2ywHdbNxw556d5JpHC4u64HFYqCdRSeAJgfTN_7BcUv11v8NtBdlaUV8'
  lat: 40.100717
  level: 6
  lon: -88.243989
  name:  'Rainbow Garden'
- ap: 5722
  img:  'http://lh5.ggpht.com/qq3QmeyCYxWnJF_DzzI5wVvHF4foNyr_bF3_j5eVPHJ1omSbD2INOifPJEO3pjz4X1l4_wMGD4uOT1_w6Tid'
  lat: 40.086713
  level: 8
  lon: -88.248293
  name:  'Garden Patio'
- ap: 5722
  img:  'http://lh4.ggpht.com/3_LELG2r-A5s2d-x2dWyz6h7HzfjVR_KZn9AG0vhih9EalQIG43iL6LdKqKNpnGdGwguP9ZfnGF0KMq_KDE'
  lat: 40.105799
  level: 8
  lon: -88.230188
  name:  'Color Glass Windows at the Newman Center'
- ap: 5535
  img:  'http://lh4.ggpht.com/lQtf71rwzXt5zHafbKPm8Czz3n2KwBWlEaNUh3-2JKrXTDueZ_JerHOPeSecqLaxLBWC09dTlPizrDMTafpT'
  lat: 40.105618
  level: 7
  lon: -88.230986
  name:  'Alpha Phi Sorority'
- ap: 5348
  img:  'http://lh6.ggpht.com/btym2_WGYuFNu2SNiR8qif7GXLMOPT7XpuHE7RPOipPC9Q5lEPfImKAzf2vm9RUe2rN0u3TePq4pM0IuZiLS'
  lat: 40.116436
  level: 5
  lon: -88.243459
  name:  'Champaign City Building'
- ap: 5348
  img:  'http://lh5.ggpht.com/9XV46K2cUd84oc6HPyqlj53LKJS8lVs0f0gPHSCBkkTwiHaxivu36dlAj5M38EzK-2U4xhvZJ7AiVvGM5yk'
  lat: 40.118175
  level: 7
  lon: -88.244562
  name:  'The Russell Building'
- ap: 5348
  img:  'http://lh5.ggpht.com/AsiP7X99phJsAWWLusxVx9jztxrqq-wjSe7AQS2KrK6muMt4sB3UIjlshPNUA13BR-o8cX70DxvhbxODvrY'
  lat: 40.087526
  level: 7
  lon: -88.253714
  name:  'Plotner Memorial'
- ap: 5348
  img:  'http://lh4.ggpht.com/d3UqrcK5M1wuOe19dIaBUOkrXF4C9IxhOWfxqzM4zIHkGsUIRb1mckNapOMRkkCtVIe0rzJumb1OVDVc1_Y'
  lat: 40.108055
  level: 8
  lon: -88.233688
  name:  'University Baptist Church'
- ap: 5346
  img:  'http://lh3.googleusercontent.com/hvoLMUc9UoNVVPttxWTc8PzOWdu5MBmPETnBexH7Alyl20WGCrNa0G_j7DwvD3qbhqpTaeThFhGDV2rCtp8'
  lat: 40.107629
  level: 6
  lon: -88.224484
  name:  'Bucky Balls'
- ap: 5161
  img:  'http://lh5.ggpht.com/HhVreJipNvxPRVFpmsh2BPo9PcpPO2Q2l3jCpDjIKgfKGycoTNPXR4DKiYccBXW4X-4dJf_vV0ESsWAWHcChsg'
  lat: 40.100936
  level: 8
  lon: -88.250855
  name:  'Donald F. Bresnan Memorial'
- ap: 5161
  img:  'http://lh3.ggpht.com/lzCSS0_tjwUV7JQ2fgLI0e05IrzPxlVUs-6aEPOwUv67IanQJSTi71gkw0SGm8asmoE_r3Xoh048Fd9xRpE'
  lat: 40.099169
  level: 8
  lon: -88.251419
  name:  'Lyman Larson Memorial'
- ap: 5161
  img:  'http://lh4.ggpht.com/S734i_6SihPtJW8WdegLb3gEuKeNx8e1qDm6CXjREzYHohw7XqL82m4EF2K5nS2TixHweLn3EuJ4YoQnrsw'
  lat: 40.107751
  level: 5
  lon: -88.231532
  name:  'Graduate School of Library and Information Science'
- ap: 5159
  img:  'http://lh6.ggpht.com/C7ThuP5fwrDTu5cMDpoeGmRjotNh6eUnPf3ksvSsUj5NkHZ0yKbIUnF8cSikhX-I_7O42CTwqjhLq9z3jkIL'
  lat: 40.111844
  level: 7
  lon: -88.228609
  name:  'Talbot Labs '
- ap: 4785
  img:  'http://lh3.ggpht.com/tXuCgd1tvCtlonW_e1jLC_5DH6g4Qh6zIUKhJeoBZuLvyB0ql69PlymRU3Ywf5lq_8PFYNylEKOiC_qJnnzJpg'
  lat: 40.138006
  level: 5
  lon: -88.272375
  name:  'Jericho Missionary Baptist Church'
- ap: 4785
  img:  'http://lh5.ggpht.com/ulBje3DZHcOGkPDTXihNL1tamRAm_GO1CREW8fA5fV0Znq1eF2J1hnbSZh35emEA1h9cL1qTj9FqGtb8VywgXQ'
  lat: 40.13765
  level: 5
  lon: -88.273074
  name:  'Garden Hills Park'
- ap: 4785
  img:  'http://lh3.ggpht.com/hBux3yLZOMWBK1dtc47OrhISfV3SPojGgtZOxqqf7-yoc82f280WMG1r2mi43iZQsqfwzmN53VJHHHEFVs0'
  lat: 40.116458
  level: 6
  lon: -88.247065
  name:  'West Side Park Entrance'
- ap: 4785
  img:  'http://lh4.ggpht.com/Gyz7BDhWdUinBQfD8duByX5-aBgPmB9oSesH20dH8uGJnTiaIHkeRJARtH6YQUUD5A5X2IjPTlT989AfutNc'
  lat: 40.092773
  level: 6
  lon: -88.250951
  name:  'William C. Fox Waterway'
- ap: 4785
  img:  'http://lh5.ggpht.com/jz0XvZSSYKqKSa4lJDK-rludOns_o36jZ8ZTzfEr42piZamiTjSASTLdII6pkxgjZgnCwKirjhEouS77BPB8Dg'
  lat: 40.094288
  level: 7
  lon: -88.248914
  name:  'Boulware Trail'
- ap: 4598
  img:  'http://lh4.ggpht.com/gDYX09ZFI6Jya_d8cBX7Kg8OgMkVexBWJLWt1ceC8s0aizrm_ehDYtMwFiwAqpetr9_VsiAJZLFkAYWm_oMt4Q'
  lat: 40.128229
  level: 6
  lon: -88.290607
  name:  'In Memory of Lou Henson Jr.'
- ap: 4598
  img:  'http://lh5.ggpht.com/ZfmaOk3UM4PNzP-z0AvBPFqYLc6wAEDSPhL1cSVjXMAFSv4Jadm-hV--eP3OaJuaksphYKN5s6bhWhluTGs'
  lat: 40.133327
  level: 5
  lon: -88.280335
  name:  'Prairie Grid'
- ap: 4598
  img:  'http://lh6.ggpht.com/oTEawnC2cPnZ7T10vs9tiueaLsN0ILM7tgPLWVfa0njwvTDrUvS-w8x5SK4iMDd0tuHYP2w5a-H0AQ4NaAyU'
  lat: 40.116388
  level: 5
  lon: -88.243702
  name:  'Cycles of Love'
- ap: 4598
  img:  'http://lh5.ggpht.com/BUGNnLReyCBJJj9_zpqgwv5_CAyiW8fWBpyVs0ip1hT5NEE6YKCYzlc8ahldKzk_xv-4uckNJNb6NrJd6r33qg'
  lat: 40.116989
  level: 6
  lon: -88.242255
  name:  'Blind Pig'
- ap: 4598
  img:  'http://lh4.ggpht.com/MvwoDsxwfyNLHzfGkFJl-4VFeX7OvqB0hsMCrZ2D9Olh8GSghAJDfFfDh7a7cOtMIGwEDMyesZoKvKCXAGj4'
  lat: 40.116553
  level: 4
  lon: -88.242268
  name:  'Esquire Lounge'
- ap: 4598
  img:  'http://lh5.ggpht.com/Sgu5qG2Ltp9axQc8nEr3fJ_qvNo6-gwd5TuKMrk2LM9d5P7DDy0oCoWiGnr6Ybp84FGMh9DQYLnFtBTZtBIm'
  lat: 40.113606
  level: 8
  lon: -88.243766
  name:  'Mural on South Neil St.'
- ap: 4598
  img:  'http://lh5.ggpht.com/wX6-mbTE7nT00T6ildapKbI5ZrnhPIt4l91DhMseyo3GYFrgQIuqbjh8ntZY6NxGZ-qa6fKWlyoBOPdIdNIt'
  lat: 40.114653
  level: 7
  lon: -88.243729
  name:  'The Phoenix'
- ap: 4598
  img:  'http://lh5.ggpht.com/FeG7Xn052FyJtG43yF0j2iYs3BdENjAx_oZUTzI70y4H0qeexU7B8NrXaT20cmXSKwnWV8xFSc3OlG_KQU09pE8fyCAYXWWPbTzC0_GZ1aynCFni'
  lat: 40.116185
  level: 4
  lon: -88.243429
  name:  'C.V. Lloyde'
- ap: 4598
  img:  'http://lh3.ggpht.com/DpFBT6YsInBvoo-6DUZeryDpITUgNnrw3j-iMPdeg6S2h9pL4DSqJLbMzsMqmLRwgJKLHa-xMVjHKDoSqwE'
  lat: 40.089107
  level: 5
  lon: -88.251579
  name:  'Donald M. Decker Memorial'
- ap: 4598
  img:  'http://lh5.ggpht.com/EaT0PxhOud4vjm0kHYMit1zq4b2aTjV4M2olWNI-rM0oUVFeEI4kgeWGcrbk_EvcGBz6hwrN_wYLDLK3CUBi'
  lat: 40.088861
  level: 7
  lon: -88.251811
  name:  'A Flagstone Garden in Mattis Park'
- ap: 4598
  img:  'http://lh4.ggpht.com/aFcisvUEjvw8cW_JZB2JIOpPXr_cWq9tGzjT65AMZfaR6Dwevg8S6dfNMTVswut9cKOr9-SCQdSqoOnQ4c1Q'
  lat: 40.087914
  level: 7
  lon: -88.253489
  name:  'In Loving Memory of Robert and Elizabeth Grubb'
- ap: 4448
  img:  'http://lh5.ggpht.com/Lup2et0i5h8oHqtBffIdoyX5uclC2MBn9ZnnKnYPr4RIFSflf9bi78zBHK7QqycA0qgEev9qOk0zU-1o1hg'
  lat: 40.108451
  level: 5
  lon: -88.228733
  name:  'The Centennial Colophon'
- ap: 4411
  img:  'http://lh4.ggpht.com/bzGBa_8g8we9vEYlZ-a10Ugz_B36DNFCNFsnUmAPy3Aji53kcVj0FaVE28zxnedZgY5Ozi94A8obmXuFQ1vL'
  lat: 40.132632
  level: 4
  lon: -88.279968
  name:  'Vernon W Fitch Memorial'
- ap: 4411
  img:  'http://lh4.ggpht.com/a1FVYK5FqYQAl_d_TEIbk8PE4kKJVyIHNjJiJWlhHcozcrVi9qVZ137z5mYYlOeePqk0aqBqWwdZxEIgkxz0HA'
  lat: 40.132588
  level: 5
  lon: -88.279491
  name:  'Ronald D Schafer Plaque'
- ap: 4411
  img:  'http://lh4.ggpht.com/4_MOw_NKr2wZ2lzAzG2FlLtA3tfOfWqBZpNVP43LfN6ilD6qHRfZ-_wA1Xk8BnCqHKqKdqodC70X09pqtNXXqmNtK-uqo-fC9SZyOjT6ERfJorzg'
  lat: 40.118388
  level: 6
  lon: -88.245358
  name:  'Springer Cultural Center'
- ap: 4411
  img:  'http://lh3.ggpht.com/VrbXGwlUosNLEkVdshWUFoVa3KtlJQoEU4yLYygvftYbPCmxo644Uvar_v8Kb9RS53hB0tXgvV44GotrxZyu'
  lat: 40.098592
  level: 8
  lon: -88.251676
  name:  'Ruth and Fred Steigmann Plaque'
- ap: 4411
  img:  'http://lh5.ggpht.com/N1cFx79JwZqPlYPDW3HkNwRX8N4Auriii45qzYkAx9l-cKeK81qgZ6nuBpTBEIOyLzy4aIIhQKt2E7ZiysSjkg'
  lat: 40.10036
  level: 8
  lon: -88.250515
  name:  'Mark Foutch Pavilion'
- ap: 4411
  img:  'http://lh3.ggpht.com/8FqlniFErK7cq59awiT84u8KyV4FIRd5krZzfYa58zJToFps7whdBnriPqvO_kFKeLUE3SWbJhCOPuvUQzaGFA'
  lat: 40.100691
  level: 8
  lon: -88.251337
  name:  'In Loving Memory of Zeus'
- ap: 4411
  img:  'http://lh5.ggpht.com/X-Tq3QbQ3JvCApWIGFxRwDJId7aLa8hY_ka0eU3QySTcZBgXcbPC4UXEQ9VVMsA-dYRxGqAdCotw-q7dby8f'
  lat: 40.088412
  level: 7
  lon: -88.251667
  name:  'French L. Fraker Memorial'
- ap: 4411
  img:  'http://lh3.googleusercontent.com/awNe0JGlWWAtHv9iiLcqQjVyppWY-io4ybTL_ir2ZKsMLJgkZcW4rdUAuDjOFdWQvIcp5jlTWiROgHANh1Y1'
  lat: 40.087822
  level: 7
  lon: -88.253161
  name:  '"Ice" at Mattis Park'
- ap: 4411
  img:  'http://lh5.ggpht.com/FeahTnHcc-Tb0sWOd6cQiYz5QrczzT5-Behz0KlyeiGyzYhvAlNlhPI72BVkREal1tU_4g4r2UklF7lcQgKr'
  lat: 40.087292
  level: 6
  lon: -88.253528
  name:  'Agnes Sweikar Memorial'
- ap: 4411
  img:  'http://lh4.ggpht.com/2tHD_AHYQu0kWuwLX2HMYWBG4txVkuWsBEfzWLL39npWp8kMSHiUKxSJM1E7yhimuMVUJ-RIlSSKsgjETvtr'
  lat: 40.110524
  level: 7
  lon: -88.228706
  name:  'Leo Roy Tehon Memorial'
- ap: 4222
  img:  'http://lh4.ggpht.com/_jAAuDi8SO5uupi8JlB3HZaFG40S15izNv_3vqOt7ro2rRHuXrfdEKfEFvRESdAjCEz3RVDpyrxJGSIrju5d'
  lat: 40.117916
  level: 7
  lon: -88.243087
  name:  'Sholem Building'
- ap: 4035
  img:  'http://lh3.ggpht.com/wkPcdDupubV3THJo6r2OpMtshziiIkqBISPTCPe8boa-8nH33u83Mznkr1yYWNR_l60RCy8HO_obqrdNGUI'
  lat: 40.093633
  level: 6
  lon: -88.246611
  name:  'Fountain at Illini Plaza'
- ap: 4035
  img:  'http://lh3.googleusercontent.com/0sr-qQ4Z1TW1AZ62RFHko9Cbb8g36Renb3nRyxFJr_r68iVMsuh_EwrbThhXg2hVyqNQSjX7rFVvrWpfHS4'
  lat: 40.103958
  level: 5
  lon: -88.240451
  name:  'Bruce D. Nesbit African American Cultural Center'
- ap: 4035
  img:  'http://lh6.ggpht.com/c2I39IJvSBKmCLonmhP_RN1vLEpYY1recBXFm8xpGHxES4bAN2kvAcda8ZzvT75uq0yWQCv7N_dzP6ce5-Tu'
  lat: 40.108043
  level: 5
  lon: -88.22469
  name:  'Building of Molecular and Cellular Biology Sculpture'
- ap: 3848
  img:  'http://lh4.ggpht.com/vKkSwERLa3zQO2UUIiYl1AEruAx1QTPcP4jSmPt89PG4AviJ1WhlVVH8qmqJ0aY2gqJmHcqdZFcM2pQconc'
  lat: 40.139375
  level: 6
  lon: -88.272793
  name:  'Salt And Light Ministries'
- ap: 3848
  img:  'http://lh3.ggpht.com/whrVudLIelW8yHGGZa7geAVXvbkevW5Vc4DbMBSrMTYN38-Cce_sYnEFxEDWHJQouK3L-LjMbbADmlyYto_D'
  lat: 40.131036
  level: 4
  lon: -88.2778
  name:  'AISC Steel Teaching Sculpture'
- ap: 3848
  img:  'http://lh6.ggpht.com/vqiOPPON1phvYOdOmbFDrxhN6cbYjeLHVgH42EV0XsJjVNd81EM1DKY_aRVM-rwJ9Il5tLc3QsL_gOS4qAkF'
  lat: 40.139891
  level: 6
  lon: -88.257367
  name:  'Market View Baby Fountain'
- ap: 3848
  img:  'http://lh5.ggpht.com/KadNuhjGK6FUXezGHW1W1kfPOQV5l7gJP594EQm5nPZFLTgcTsjl4ixa-j7XitgtyJyou3q0pTfMr4i2E_avIA'
  lat: 40.118013
  level: 4
  lon: -88.243445
  name:  'Clock at Neil and Main'
- ap: 3848
  img:  'http://lh3.googleusercontent.com/XXeIfloK29NB3kOQNB_Avx6Aurs9P8M5C2xARiAnTdW_JxewwfJs_p2A2u0vup08ZE6pnhatzC1VhSFwSZSA'
  lat: 40.117287
  level: 4
  lon: -88.242984
  name:  'Dandelion Mural'
- ap: 3848
  img:  'http://lh5.ggpht.com/f710C9AvOEB7ieCI4f382wWUP4OgDxiqPzbxqxct6Ugf2PWBfyXyDpG_JcRQ6PaZ_jS0jpXXBhNSt_u9rFA'
  lat: 40.113864
  level: 5
  lon: -88.224839
  name:  'Plato: A Social Networking Revolution Begins'
- ap: 3661
  img:  'http://lh5.ggpht.com/BoAN9OSCH5u7G1sestzZaXjjik82i-SteF6-r5KTTyl530q9H5G3ibjJdqpGGY-nL8MypRXn2twwvn_y5nMmug'
  lat: 40.133159
  level: 5
  lon: -88.28778
  name:  'Campus Solar System - Saturn'
- ap: 3661
  img:  'http://lh5.ggpht.com/auV57ljlnFqueFTLTeFUjp6iIJxsNFs7P_alBDZ2FNvEvUPvRMBhZCrgQOVfMPf7RIyYAHZLElyAiVoJXCFYkw'
  lat: 40.135716
  level: 6
  lon: -88.291946
  name:  'Campus Solar System - Jupiter'
- ap: 3661
  img:  'http://lh4.ggpht.com/Ww9lgcscjGtB0ieiqyf2qK2ZzV0y3mZVpoi5ZZdPpArkbOa2B5aNli_k7t86GjD7eAeEFOw8W0oZvfr61S6Kxg'
  lat: 40.139196
  level: 4
  lon: -88.257755
  name:  'Market View Fountain'
- ap: 3661
  img: http://i.imgur.com/5j1qaiT.png
  lat: 40.152792
  level: '?'
  lon: -88.253532
  name:  'Toalson Park'
- ap: 3661
  img:  'http://lh4.ggpht.com/mnyMwxXghZOmxdJw2eJk5U9A5sfO_QLi0eKc2knF3RS3bJhiIa0N7N75KIzjEehKD3ChMFgaOHVRltiOVAw'
  lat: 40.125074
  level: 4
  lon: -88.251776
  name:  'Spalding Recreation Center'
- ap: 3661
  img:  'http://lh4.ggpht.com/aQomBYYXuWBUbnpgDH92zk4VBmLMOuf5n6WXkMHGTzf1DUlyXL-u4a9ulFUrqE5AO82s_LFM126E-B0HqONp'
  lat: 40.088127
  level: 6
  lon: -88.253036
  name:  'Peggy and Robert White Garden'
- ap: 3286
  img:  'http://lh5.ggpht.com/5WZPQL7oa-VYm5x9viEwKiCeApkaxUNXa-mHYU-9S9_fOCFAqFLktoU4hnu-RM6tx8X0tMs2PHUyDnkS6fqI'
  lat: 40.111391
  level: 2
  lon: -88.224416
  name:  'Gone Fishing'
- ap: 3286
  img:  'http://lh5.ggpht.com/w9vRSV8NBR1gsi8ndeSUNJN2X-ftwCCQ7Jd3dcLVhPw6r1w0x1QE4hNgpCJBKimUeq-HToz_yq9S3rYkzC5bjw'
  lat: 40.114687
  level: 2
  lon: -88.22473
  name:  'Web Browser Plaque'
- ap: 3474
  img: http://i.imgur.com/5j1qaiT.png
  lat: 42.372406
  level: '?'
  lon: -87.870931
  name:  '370e2c932c9d497db5f83c2423d10f15.16'
- ap: 3474
  img: http://i.imgur.com/5j1qaiT.png
  lat: 42.371255
  level: '?'
  lon: -87.871368
  name:  '42786a2658db4a88ad04ee94cc92a688.16'
- ap: 3474
  img: http://i.imgur.com/5j1qaiT.png
  lat: 42.401374
  level: '?'
  lon: -86.288005
  name:  '9c168d55307d46deafd3684ceac79063.16'
- ap: 3474
  img: http://i.imgur.com/5j1qaiT.png
  lat: 40.179763
  level: '?'
  lon: -88.787116
  name:  '617d6829b3e24fe8bd8f657c4f7d8379.16'
- ap: 3474
  img: http://i.imgur.com/5j1qaiT.png
  lat: 40.227262
  level: '?'
  lon: -88.96325
  name:  'dec337ebb30742c997f12718436976d6.16'
- ap: 3474
  img: http://i.imgur.com/5j1qaiT.png
  lat: 40.220555
  level: '?'
  lon: -88.961685
  name:  'c40453bdc54c46c091f1ba1132a2d8c9.16'
- ap: 3474
  img:  'http://lh4.ggpht.com/5txoAy04NNtnz6QSex0YGvE4fib5tN9AelUxKSPreLTzkNO9Qbn9E1-AEPqCWm-PFDk16_WEe4H9CoGt-e_NOg'
  lat: 40.128294
  level: 6
  lon: -88.289948
  name:  'In Memory Of Jessica Cawvey'
- ap: 3324
  img:  'http://lh5.ggpht.com/-aOZyLFNK96FhUdQBYhmRPZrs_PB1oiLRcrPjKwFBANQ42LxLbbHfTZVw_F01meecQXfNQwJYy7qqVh8Q0gR9g'
  lat: 40.133768
  level: 4
  lon: -88.281275
  name:  'Butterfly'
- ap: 3474
  img:  'http://lh5.ggpht.com/Ubq0MuIsu5MU-I8JiOC7oX_aheDNBNsG-UlSMPqA5BRkHJX9BDDUPWGQxXllzVgaxFeo23u3zu_hlJesprpNJg'
  lat: 40.133421
  level: 5
  lon: -88.280893
  name:  'Greenbelt Bikeway'
- ap: 3474
  img:  'http://lh3.ggpht.com/F_QKFluz0Gh6sC9FPGcL_wT-n-zRGyp0qQ9mnghB2L5Aer_c6Qm1q7KeGoCaGwDoJax_R_sK1atr3F0hP4Ap3w'
  lat: 40.136807
  level: 6
  lon: -88.257174
  name:  'Champaign Fire Department Mural'
- ap: 3474
  img: http://i.imgur.com/5j1qaiT.png
  lat: 40.152192
  level: '?'
  lon: -88.252279
  name:  'Toalson Park South Entrance'
- ap: 3474
  img: http://i.imgur.com/5j1qaiT.png
  lat: 40.152342
  level: '?'
  lon: -88.252345
  name:  'Toalson Park Basketball Hoop'
- ap: 3474
  img:  'http://lh3.ggpht.com/1G0o5RjtXyfAjbI-E2honhhelnuiq4lIkpHmB44e-AwSBuIxVOdLPVYjImbTMS8kyBdZuKuiMQHciUIdAWg'
  lat: 40.118368
  level: 7
  lon: -88.243737
  name:  'Frank Robeson Memorial'
- ap: 3474
  img:  'http://lh3.ggpht.com/-MRGQEVV5mNMzB4sb8JAsgVC56kTzYaFEf3mpRsfXAiO4KIrLw3LGFkt7Au97yDwY-AUSfghHcri53Zpmn-Z4Q'
  lat: 40.11621
  level: 5
  lon: -88.242535
  name:  'Inman Building Historic Plaque'
- ap: 3474
  img:  'http://lh3.googleusercontent.com/oYQaQpOQ2HICancOs0DcaCqX1KiTJEoAeKp6EUWBs5u-TjTKqJlzTSzA0QMldAg6HLWb3rX4m4_cwKwGCtpV'
  lat: 40.118684
  level: 5
  lon: -88.244894
  name:  'Farren''s Pub and Eatery'
- ap: 3474
  img:  'http://lh3.ggpht.com/LunaMtSKD9yiLQClolDY-Iqh0ENm9AgJdL4D1QxGs0j6TXPgqxDZea35x5ilAfeI5_0TGh5x1q1EqRsJsLFi'
  lat: 40.114111
  level: 7
  lon: -88.243697
  name:  'Champaign Surplus'
- ap: 3474
  img:  'http://lh3.ggpht.com/PKHUaHtGQlwpb8q3mUpPJtjb51_am_ieb_9X0u8g1PI_eg7NxFQU2fqeV8XjnIIDy0rCMtqsfMJLerOBo8M'
  lat: 40.118579
  level: 6
  lon: -88.244588
  name:  'Mural on Art Theatre'
- ap: 3474
  img:  'http://lh6.ggpht.com/XsUl74M1oxj6ptAvGEBOMH2wivRhxBNns62UJSGcPiQkuJIgPrmUYxMpSZZUfXRMMjrwoxlFK_DbAM78UrOh'
  lat: 40.113499
  level: 7
  lon: -88.244374
  name:  'Shatterglass Studios Mural'
- ap: 3474
  img:  'http://lh4.ggpht.com/mrFIlt7StuloTop3ci5DRg10i06ivamSn69PgqYPZfkV23dOzf-DhDdDUjeOOzy1ILR9xOOdLX_NBsMOH9FO'
  lat: 40.124377
  level: 7
  lon: -88.25297
  name:  'Spalding Park'
- ap: 3474
  img:  'http://lh3.googleusercontent.com/zcTaX3OHcGZu7CzBV1HvsKtB5RiAW7oMwxS_7phps0tjr70eNr8xbxrJ_P6agi_uXJtMNdHPnks9rZcrR6mG'
  lat: 40.127267
  level: 7
  lon: -88.253451
  name:  'Champaign Fire Department'
- ap: 3474
  img:  'http://lh4.ggpht.com/vxjetUOC6_S8Ru3Q1ivzG4NE4bAAWg7_opiMwStExCoUHiRaIab8NyXLypEOAo7KBtsRQRzJX-TimhsOlBu3'
  lat: 40.087121
  level: 6
  lon: -88.251406
  name:  'Amdocs Shelter'
- ap: 3474
  img:  'http://lh6.ggpht.com/sASzuKZleVbY8UGdZnFzs0GXiOHosiNDf-GldJNSs-w2k410HzHcqBrjuvNoklKZ0G4mwuhXmvFPOMlrFXRZ'
  lat: 40.085468
  level: 4
  lon: -88.251369
  name:  'Mattis Park'
- ap: 3474
  img:  'http://lh6.ggpht.com/PrKWQe_StHjP7QQeyxlKiMSxAelIQlmbHzFMejewhMdVT0J-uvMpZCUGvQy_dZfrqfDnkmrIZYWkZORSGrnp'
  lat: 40.088449
  level: 7
  lon: -88.251396
  name:  'Boots''s Garden'
- ap: 3474
  img:  'http://lh4.ggpht.com/DJiaqGgwCaKSjYczELIcjQOeBtoEqd--7TZYBJWO9_Nd16vjKwlco9tKatJTdAKT1CPoO7Cj39_rZvp8p0Ch'
  lat: 40.087241
  level: 8
  lon: -88.248222
  name:  'NCSA Blue Waters'
- ap: 3474
  img:  'http://lh4.ggpht.com/-2q6p_jcZ5xVswdwpO98pGsMWXnqxUlsBmhWA2F6xs0MbwejV7FTN7-kHSb4nlsfg3uUsrvdDmUM5v1lQ-Ia'
  lat: 40.086252
  level: 7
  lon: -88.249351
  name:  'A Lady Waiting for the Bus'
- ap: 3474
  img:  'http://lh4.ggpht.com/mHAXKPtOyg_DWRs5A_0yhGeDsfU4f4o3xJvzziri7o3ksPPKtMAHUkUBOb0JJ78gArdP5Q6O-UiXNDG3RHaIYQ'
  lat: 40.109339
  level: 6
  lon: -88.234149
  name:  'Alpha Delta Phi Fraternity House'
- ap: 3474
  img:  'http://lh5.ggpht.com/OF0rdXnVnZe6syFsa4G9CE6iyvhfoYQN3QH9RESyB78MTKDC2NXYJuVd0TAnACMccmsKXhNcBH6qzWy9DPQ'
  lat: 40.105073
  level: 5
  lon: -88.231952
  name:  'University of Illinois Armory'
- ap: 3474
  img:  'http://lh5.ggpht.com/39qvivJbsTr57F8HWz9_3WhqwtI6kCbL9qeIckApwB7s51qHqm4RS4qZLPkY2GUv6A2wi2wrlNxhnIN6xGKS'
  lat: 40.113427
  level: 6
  lon: -88.229089
  name:  'Lee Williamson Memorial'
- ap: 3474
  img:  'http://lh6.ggpht.com/Pnd8JOVl_Lm-LFi5TL9dblCUNbrwX2rh4_oKgOC5Ynga-E_Y207oGsL4Uz931FTapBrs35H98qxJU4Cm_Gk'
  lat: 40.113024
  level: 6
  lon: -88.229095
  name:  'University Place Christian Church'
- ap: 3285
  img:  'http://lh6.ggpht.com/yoGdHEqpRRqOE5pA5wHdi_ismU_TrB-kTiqVV63EO630KsU608TIfjLijcqJ38At7MyyrE2urWFMPY1Sops'
  lat: 40.118121
  level: 8
  lon: -88.258039
  name:  'Mini Park V'
- ap: 3285
  img:  'http://lh4.ggpht.com/dzQSyJummIX5lEBsPg0bjVUKgWuducW6OgwYfPUATs_OtoqhXsCvhVFuC98ULi8Gvi0ywyeTUACotvmS32A'
  lat: 40.130306
  level: 7
  lon: -88.253037
  name:  'Fagen Truck Accessories'
- ap: 2911
  img:  'http://lh5.ggpht.com/_9uqsDQROIwqIhKx_URY4DdZAapoZBEWK6Eaclt5mM5vPsjwQAD-v8Bv-4b-Smq2F8X4zOgzLx2KwySkFWc'
  lat: 40.118448
  level: 5
  lon: -88.25211
  name:  'First Church of Christ, Scientist'
- ap: 2724
  img:  'http://lh3.googleusercontent.com/3nkY0B9PDqzlWJ_EKh5GnTZ8z0U6X9-2dI5dapKA5Q3F4iKrE99AJZoy6NSvh2nU1WTG2hL70276yJjJ0G8'
  lat: 40.141598
  level: 3
  lon: -88.238817
  name:  'Red Shield Center'
- ap: 2724
  img:  'http://lh4.ggpht.com/uAYfykn0e2h2UqP-anbYfkJNa38P0L1WY8FpF-CwRCPklg5wL1xYFkpGOCMt7SJ37qO8PGVE42nYX9Ba_-jG'
  lat: 40.105025
  level: 5
  lon: -88.243919
  name:  'Mural on Good Fellas'
- ap: 2724
  img:  'http://lh5.ggpht.com/FEi_8ic1_FXYTyUlXgNz6IOiBsLCPTURCMQCXc2T-lpcQV-d_wdBC3YEDYltNn09_oi76voYbhGSi8P6r6QZ'
  lat: 40.141914
  level: 4
  lon: -88.235279
  name:  'Judson Chapel Baptist Church'
- ap: 2724
  img:  'http://lh4.ggpht.com/W2chhQwPqSJEkl57NVoIL-OE4KFvJfp7Bsrrxza1apCYltcT3npz95LJxqHxvT9ZZu7wxF2gQy-5bpKal2p2'
  lat: 40.115838
  level: 7
  lon: -88.241338
  name:  'Illinois Terminal'
- ap: 2724
  img:  'http://lh3.ggpht.com/bltQwmnzp2vSKYhLpzNLqB4iddy6ie0kWk9G7Wce4U9qmW3CABxbXAhF7v0oG9QLFD2q57UZuVqZCMgN3MHZfA'
  lat: 40.118335
  level: 5
  lon: -88.243408
  name:  'Downtown Fountain'
- ap: 2724
  img:  'http://lh3.ggpht.com/HQQk1Vhe8iLtWelBBiY61PHeAtfu8hmoNtMQbudWsE6hVZv6Kl0NG_Q3t6GAKpSebnG5pA6v2Q78CTC34dE'
  lat: 40.09995
  level: 5
  lon: -88.237327
  name:  'Sportsmanship Inscription'
- ap: 2724
  img:  'http://lh4.ggpht.com/HEEvU2OlgWiV5huAu3cvNKaI-C8YKYTO3qB8WMTO7EbsjTO84KS6jLjbGCq7THZq6l63UiUKCSEqY2IADYns'
  lat: 40.091766
  level: 7
  lon: -88.250003
  name:  '"The Cranes" at Fox Corporate Center'
- ap: 2724
  img:  'http://lh6.ggpht.com/yUOWOqDbf6AO83PFdgc9HePIDDDb-Ti1NAzLec_4AwYrO5NsnWsGH7K7MDb5q22wdtUh6uqekxpMHYjlnfRLEQ'
  lat: 40.104673
  level: 7
  lon: -88.233278
  name:  'University of Illinois Armory'
- ap: 2724
  img:  'http://lh6.ggpht.com/BzDhCANV_iNTHhKFBGLuaUqOvChRZtPWnJ2Xk4h7NsKJHmTGgCWtFHWv2PpDA2fCsHHKSCRTrUNK8AKrLRnS'
  lat: 40.108066
  level: 5
  lon: -88.230687
  name:  'Community United Church of Christ'
- ap: 2724
  img:  'http://lh4.ggpht.com/bYrhTw8QophdiqDG-upqJ6JX2g2tZYX4N1jC4d_cciIj4ep8oQvIgjJlfge2VCmzSZe9irj-BTpbj9Jcv7U'
  lat: 40.103009
  level: 4
  lon: -88.233215
  name:  'Mac and Diana Garret Memorial Tree'
- ap: 2724
  img:  'http://lh6.ggpht.com/pxaCt7clhIXc1RVGMMJZsmnbEWNWjFYJiUrQMev_SeOmXBothvOzmfnirQ5_W8CMa7hpigqydQhKMa4XFCAi'
  lat: 40.108173
  level: 5
  lon: -88.230209
  name:  'Mural on South Sixth Street'
- ap: 2724
  img:  'http://lh5.ggpht.com/Cq11wEFMsdIFhXzaJC3SnRexaZJe_sDAmGF6eleWD_J54IJbalqFkUfxbSWKB1SCti-5EnGLR14gnlOtJYKW'
  lat: 40.09928
  level: 5
  lon: -88.237305
  name:  'Harold "Red" Grange Memorial'
- ap: 2724
  img:  'http://lh3.ggpht.com/I8Cra-oBAq7td_84j0G8l8DIMXhxPP-O8A8xPb1WZb8O2s9DBapV_osKefRuzzDGDhcPRA9WT7yaPBvkGE4g'
  lat: 40.112836
  level: 7
  lon: -88.22802
  name:  '1909 Senior Memorial'
- ap: 2724
  img:  'http://lh3.googleusercontent.com/hF5kZFrZGRZkYYPDY8q06SkEPkSLljkbEbCI4gcyZ1QU1-wpfBV_Cma3GT6YE6PTdRBZr-7NuaDvVEm7oQU'
  lat: 40.128105
  level: 4
  lon: -88.210924
  name:  'Busey Woods Trail - A Change of Scenery'
- ap: 2537
  img:  'http://lh4.ggpht.com/2j92v5RucwqepFVAGPjzWWGkGueAbE7ZlVAh_PKwLdaxCdQfFgDHv5eInFs1Hb3WRxkcliRx4YRrbp7McBI'
  lat: 40.054626
  level: 5
  lon: -88.256104
  name:  'John L. Jones Park'
- ap: 2537
  img: http://i.imgur.com/5j1qaiT.png
  lat: 40.040518
  level: '?'
  lon: -88.384748
  name:  'St Boniface Catholic Church'
- ap: 2537
  img: http://i.imgur.com/5j1qaiT.png
  lat: 40.679293
  level: '?'
  lon: -89.010376
  name:  'a65f75d2346749368a97d56defbebbdf.16'
- ap: 2537
  img: http://i.imgur.com/5j1qaiT.png
  lat: 40.312242
  level: '?'
  lon: -88.201368
  name:  '2012 Employee Dedication Bench'
- ap: 2537
  img:  'http://lh5.ggpht.com/KeE2mCastNpakZHF9Jh4QCUf9dxQOnMiQb2Rfki_4r4R_ry-Zyk4IfCIo0jybb89O-BG6bVz71u25L85nJ55'
  lat: 40.054264
  level: 5
  lon: -88.248287
  name:  'Colbert Park'
- ap: 2537
  img: http://i.imgur.com/5j1qaiT.png
  lat: 39.910243
  level: '?'
  lon: -87.936328
  name:  'cab6c1253cdc4370b3ba9b6c3162ec99.12'
- ap: 2537
  img: http://i.imgur.com/5j1qaiT.png
  lat: 40.550357
  level: '?'
  lon: -86.510302
  name:  '4f209295e99c44ea9f14247c61c46937.16'
- ap: 2537
  img: http://i.imgur.com/5j1qaiT.png
  lat: 41.156259
  level: '?'
  lon: -87.657985
  name:  'd8beb8f8277845a9b61f2f4176f70a00.16'
- ap: 2537
  img: http://i.imgur.com/5j1qaiT.png
  lat: 40.476096
  level: '?'
  lon: -88.38096
  name:  'New Beginnings Christian Church'
- ap: 2537
  img: http://i.imgur.com/5j1qaiT.png
  lat: 41.198294
  level: '?'
  lon: -87.965684
  name:  'cc04fcf97d464f36b84254aec1fcca9f.16'
- ap: 2537
  img: http://i.imgur.com/5j1qaiT.png
  lat: 40.106513
  level: '?'
  lon: -88.5585
  name:  'Lodge Christian Church'
- ap: 2537
  img: http://i.imgur.com/5j1qaiT.png
  lat: 40.107613
  level: '?'
  lon: -88.426429
  name:  'US Post Office, N Main St, Seymour, IL'
- ap: 2537
  img:  'http://lh4.ggpht.com/0pYkppjw5D-G0gCZ1pULK83NAqN9qsyzbBnG8K8YMyMekJwqUrZQDRpTqgqB3rrRD6zJezplE_wlFOTPLovb'
  lat: 40.127745
  level: 5
  lon: -88.287039
  name:  'Parkland College'
- ap: 2537
  img:  'http://lh3.googleusercontent.com/abyzHmsDcu4wr2nZ5KrzfryQDjq08lgz16ggCtHboK-pAhp8lhjyJoStUFTg-XDe4SPzYjAxvNLQuix4tsgc'
  lat: 40.132193
  level: 5
  lon: -88.279832
  name:  'Tribute to Olympic Athletes'
- ap: 2537
  img:  'http://lh4.ggpht.com/T-65fHAmnGmht8xdcXCF8weDy3uDecS4uOASIFtQBn7v84jrUpS3m9_rbJ1MNz5Syzjr8g_zO6YPklMYjlZQ'
  lat: 40.13695
  level: 5
  lon: -88.259966
  name:  'Goodwill Donation Center'
- ap: 2537
  img:  'http://lh3.ggpht.com/7sJlWdBFFcLCXWnnfB6SVTzCCDM0Q7KyV5jALfrWG3ICtkw7HXrjzaRrnzSiv19wIswpZoTxKYudzYiZnT9Shg'
  lat: 40.112536
  level: 7
  lon: -88.256779
  name:  'Framer''s Market'
- ap: 2537
  img:  'http://lh6.ggpht.com/NH1CnJnblS1bpZxZJ0VxAHy0tYw7BiYdVK5V9KnTw0N1KMf8OFR6FZP01shVet9ha4cEfSYufO9a1bv8Sqyd'
  lat: 40.12142
  level: 6
  lon: -88.243105
  name:  'US Post Office, N Neil St, Champaign'
- ap: 2462
  img:  'http://lh3.ggpht.com/2iQCqFSkI6vQaVf1ADFUP89q8eAUWoZah6JiJ1sA75sp6rK8jpFvWFNaW5E1QXBZnrpD8MIZotWwavGGm5iG'
  lat: 40.118598
  level: 5
  lon: -88.286666
  name:  'Kaufman Park Underpass'
- ap: 2312
  img:  'http://lh4.ggpht.com/TlG5EEvh_SZmKrAszUcimO4IIRD2zNw36GKbS6g-pdtCXlPZTjyA4q0KavljRDq1KMCcHgxs_OfHWjVYUvc'
  lat: 40.118705
  level: 3
  lon: -88.286198
  name:  'Weighted'
- ap: 2537
  img:  'http://lh5.ggpht.com/nWEtxuKQdy0teBBue1DYmG7P3SF5-3A6zlB7GwVHBWlolAZYGq6Br78lWcF9ltFy-KeSlozXie2RmU6JfCUX'
  lat: 40.142673
  level: 7
  lon: -88.244603
  name:  'Italian Statue'
- ap: 2537
  img:  'http://lh4.ggpht.com/53avgB1jGEftJ9eyV5l3nee16yHgYDAXkZoonzyXO3mwPLijOgz1uOtcxfKdCaRzaBqW-BQ4ft-Od3uZnja8'
  lat: 40.118436
  level: 5
  lon: -88.26383
  name:  'Davidson Park'
- ap: 2537
  img:  'http://lh3.googleusercontent.com/vJ_iyOb44eFzOJUNpRouOPDI8rKgOESn7TWw9U9BR3OcWsb6Oak-SSfVH4iPPmtXJdk30rqet1D0KxVohiBC'
  lat: 40.114712
  level: 6
  lon: -88.238392
  name:  'Mexico Mural'
- ap: 2537
  img:  'http://lh6.ggpht.com/_k_xJSt6mwst9haWnz5tw__yVrH9BLFSKnCMCEw9V271FMTnmEoDA4E6HprjvPTSiaBeKZmxdG3waPIapBMa'
  lat: 40.125369
  level: 5
  lon: -88.250074
  name:  'Mini Park VIII'
- ap: 2537
  img:  'http://lh4.ggpht.com/tLO2wjyCgyune3KDOlQMV_oiDRxVsHqO1gAG_0xs9TvKOiuWRVmJcO29WI7jELxoxncaXpy91kMa89Uj65JVNw'
  lat: 40.11784
  level: 4
  lon: -88.24286
  name:  'Kaufman Memorial'
- ap: 2537
  img:  'http://lh3.ggpht.com/TNDkyQnVEXdm2c8_gpZa0jhlwhKtO0T8Yaqx9BCnvpjJHBRKYMu71Kz7U4wOp-eSKD5jlReyruVEwFyyvRLuZQ'
  lat: 40.129028
  level: 5
  lon: -88.218345
  name:  'Flagpole Dedication'
- ap: 2537
  img:  'http://lh4.ggpht.com/KS4k0iDFceOcG_wEnQeqAeJpCkwjbjTItb2FUsyUJGsnhDizNqvrXmfee70SUhCcQ10_m1vv1vtcNRrFhIc'
  lat: 40.126039
  level: 5
  lon: -88.209117
  name:  'Water Sculpture'
- ap: 2537
  img:  'http://lh5.ggpht.com/vYay8RKsCV_BP_MkeFm7se0VZoYthm-1pThiATAADleBlTsPowobgZyUoU7DUto6p5cpg9adpCcTgNR6iop0Jw'
  lat: 40.120121
  level: 5
  lon: -88.251967
  name:  'Sesquicentennial Neighborhood Sign'
- ap: 2537
  img:  'http://lh4.ggpht.com/1BgYrJYdcGdepVZ6ibhTjtjZ6MyzKnQzLL4wxEnn_CEPnrJmOKHzPXm1qinGRA78MqKq11gKRlprm3Z7mDr0'
  lat: 40.115645
  level: 5
  lon: -88.243036
  name:  'The Art Party Studio'
- ap: 2537
  img:  'http://lh6.ggpht.com/HvC073U-qgv-Zdd0zHS5_UQsybUORqZiuhnRY5V1bWxlRPwBG9564LEVab8tUebtP8OzNkBVp3K39WZkahjw'
  lat: 40.118119
  level: 6
  lon: -88.24714
  name:  'Police and Firefighters Memorial'
- ap: 2537
  img:  'http://lh6.ggpht.com/YEHyAsx3ysK3IxTTbSx5dLEcHRtRVKQ4XTvE0Kvkd3iIW3mA6lplwojkVOpWCemyQS6G3JESxZnMFQtVf7V3'
  lat: 40.11652
  level: 6
  lon: -88.241845
  name:  'Mike ''N Molly''s'
- ap: 2537
  img:  'http://lh6.ggpht.com/iVHoGDIqnjdRupoPTpZLPtrzaCpEGW6HV4QHZ5WW185rmkrOxvl-C7uIN_gNZnCrm-djktoPC1J-9vjBZfCb1w'
  lat: 40.115718
  level: 1
  lon: -88.228521
  name:  'Red Lines Sculpture'
- ap: 2537
  img:  'http://lh4.ggpht.com/-MJc8fCVxpxV7prlhkP3sXPWZ7jsr8Behc29zUJqdz_V57jSg7SzyMUUv7B9Frzu36mJhM2PQkr_LJk-zyM'
  lat: 40.117729
  level: 4
  lon: -88.243645
  name:  'Boltini Lounge'
- ap: 2537
  img:  'http://lh4.ggpht.com/3gTAX6rKgNjLmBOYvAVTgSPQej5yRF_38uRllp9H4n5N6pvwWo5kDMDwlIkFVPPl30BXPSGAlZ9pO9B4DMk'
  lat: 40.116218
  level: 5
  lon: -88.242141
  name:  'Live Action Games'
- ap: 2537
  img:  'http://lh6.ggpht.com/RR0i4QdfoY8NkTQtssdOtDLhAEaCR7e-R4ipk5NzdKe9lTGDq2nyKI_7sF2BCXrgCZAZ2zEEtIzS7vg6Pu0hzA'
  lat: 40.126458
  level: 6
  lon: -88.218544
  name:  'The Vineyard Church'
- ap: 2537
  img:  'http://lh4.ggpht.com/u_MtizNv_keIXM4ITgtjqC8nr5JvB8UpDBg_5_08uQDTsQr44mwr6ZlkhTp0iKbvcV9xCJqXDeN66xYWaI0'
  lat: 40.116227
  level: 7
  lon: -88.233833
  name:  'Haley-Walker-Ginza Building'
- ap: 2537
  img:  'http://lh4.ggpht.com/9dqmZPc9OI1ON-iEnfXAxSAMX2M07pEgKUsb47vLrTrW2BW61siFLquk1fXbldWXGPg69XGdSG4wKPGS5rI'
  lat: 40.113521
  level: 7
  lon: -88.244122
  name:  'Artistic Graffiti at MCS'
- ap: 2537
  img:  'http://lh3.ggpht.com/GGBe9Hug3fUbRCRAMs_kO1fg2HHQ95ZDBdW0S2tAHakvhQbWxlttanjhGNJJcyVRruUlL7zjQnPGI2bu8Wc4'
  lat: 40.117905
  level: 4
  lon: -88.242149
  name:  'Read All About It'
- ap: 2537
  img:  'http://lh3.ggpht.com/ugJXpaIWZ-wI1vpderJmQjM8r0T5_Li2j4hvvsu4fRM9k3MeBpETqj2LFNd1pEkcfH0I9bgZh--5g1AEJKkq'
  lat: 40.092745
  level: 6
  lon: -88.251235
  name:  'William C Fox Honorary Plaque'
- ap: 2537
  img:  'http://lh4.ggpht.com/XlTZ26_29c4-74t23p1lgghqNfLI7aS3_kradmcl7vVQzV9jJRu78D1HdzJf-sWibnak644kxCBJDnA594PVaw'
  lat: 40.092849
  level: 6
  lon: -88.251586
  name:  'Boulware Trail'
- ap: 2537
  img:  'http://lh3.ggpht.com/AD9d7JPmLdYRdpxESO9iORy1GRXAcN1jzn8dDNvm6FO7cIHVsjwAKI8LmbW4dico1Xe9jzJfsZZriP0CxXA46w'
  lat: 40.104084
  level: 6
  lon: -88.241616
  name:  'Honorary Memorial Steam Ventilation Pipe'
- ap: 2537
  img:  'http://lh3.googleusercontent.com/enpZZ8JRREFPTvYd3jbeUlpS-mmcwKe5fsvoWRPkfMUj6PijyI-5tbR55UItBoNJAFSl9fAAOvXb6BpWCJT4'
  lat: 40.102495
  level: 7
  lon: -88.242132
  name:  'Nuclear Physics Lab'
- ap: 2537
  img:  'http://lh3.ggpht.com/swF7asGHDD1L9hslewSBg2z-tocpd_HXkIYuOmz739SWxCj8KBqf-kcOPOFPoE8pLXKDxR6Z8jAJ8Kx7Fbnc'
  lat: 40.089334
  level: 7
  lon: -88.253652
  name:  'Mattis Park'
- ap: 2537
  img:  'http://lh6.ggpht.com/mDDXLg-Kxa85n85a45UIY1BKvN044ZCj-7Zg7xv0Igfi8ZNuhHl9mUWwkBE9fiTYw8UTFp98gSoFn0K6nWfn3g'
  lat: 40.129332
  level: 5
  lon: -88.229679
  name:  'Pilgrim Missionary Baptist Church'
- ap: 2387
  img:  'http://lh3.googleusercontent.com/Y_tt1T3L4hwgfoM9WAoWl_iUdE_djgpah00bBWDeQGlKVgz2R7GQzHL9nVHcL4wQxZKMFt6u_PIdd9sSPz4U'
  lat: 40.12744
  level: 4
  lon: -88.22595
  name:  'Mt Olive Baptist Church'
- ap: 2462
  img:  'http://lh5.ggpht.com/d55SFGnpg6Ia5aPchxqYJDOsY_nJCJIdAOO9qxXzD_vObYZGhCLcunBb0a6G5qAhu9RPf5WSQIkysqGMrb7T'
  lat: 40.104743
  level: 3
  lon: -88.232979
  name:  'Vietnam War Memorial and Flagpole'
- ap: 2537
  img:  'http://lh5.ggpht.com/gkIcCbfmQWyJ7s9ryhzfOOn1K-oa8huqzZN80X2psVjx_6Iur5egjGncbUIAMLiAJAf9qG1Ac8lX2MomHYY'
  lat: 40.108185
  level: 5
  lon: -88.225203
  name:  'Statue at Medical Sciences'
- ap: 2537
  img:  'http://lh3.ggpht.com/pVUYGCf7vsAndVd4vhK_pC9p6e9OvGa4ZiWuZg0ELOFDWptBba4H2N4PNZPjQdHXnV1GQyLTpCXQWDMKDUqn'
  lat: 40.108875
  level: 6
  lon: -88.227835
  name:  'Lion''s Head Planter'
- ap: 2537
  img:  'http://lh5.ggpht.com/-OqC4qsxJReOCIM0nMbVjvfydYq6x9bfLc7fmyI-u3x_ygkr5RCE-Ct-uYn-wvhkpdLRjIXEkiODbTkV1iufX14GyE_Qzy1Vkz2mpimaCx26Bo8'
  lat: 40.109364
  level: 6
  lon: -88.227697
  name:  'The Diana Fountain'
- ap: 2537
  img:  'http://lh6.ggpht.com/q48Oqk2mm3dXQ2ppK-aYGXKjIiTAOEZfrFkiLK9LXRz2uN9hSKihKeCwfg33q1Z2zMTIMjqJRjPA1U_V3pbR6Q'
  lat: 40.104417
  level: 5
  lon: -88.231962
  name:  '1926 Sigil'
- ap: 2537
  img:  'http://lh3.ggpht.com/1JgqaWx4DIU04ms-XmufSumQ5BDP07SB97-kBjzxDePlLQR9HagCTfqdviW9ErxCqpvXgynqeosQhERhCat6'
  lat: 40.108781
  level: 4
  lon: -88.226388
  name:  'Illinois State Water Survey Plaque'
- ap: 2537
  img:  'http://lh4.ggpht.com/m6NugtNnF8mim1fUMFDjmScu99lS5PjmUlCT9kKOOsIMqCH5uu5MRPhMusl6BPPpZ7Z3hnYTQZALmqSpLHxs'
  lat: 40.103652
  level: 6
  lon: -88.230025
  name:  'Pillars at Wohlers Hall'
- ap: 2537
  img:  'http://lh4.ggpht.com/7NJ1wKtp4ioJudcPhY5qErw0Nh7MKYhm0RnQXURwQtlyukI7tbSb4MQT3Ob6P7qz3QCAyNwOSzkjcvBjw4FpZw'
  lat: 40.10565
  level: 6
  lon: -88.221497
  name:  'Gove Plaza'
- ap: 2537
  img:  'http://lh5.ggpht.com/lagLH-yy6la5yqn0YoNwS7uxRSPXDfSP2QwvgnDmG-ZcaxqMNKYlASfYjw50kzq9GOOJ-0nmAa-3IlmGe-A'
  lat: 40.105777
  level: 6
  lon: -88.222002
  name:  'Preschool Learning Plaque'
- ap: 2537
  img:  'http://lh5.ggpht.com/3RfiPeOzF67ubNX-vkwUJ6-EYld6BKuoBernq0_9kOjlIsSPr3saR9FIQzN7uiw7ouF0CpNflOnL0mUj9zbqdQ'
  lat: 40.109452
  level: 7
  lon: -88.229031
  name:  'Illini Hall'
- ap: 2537
  img:  'http://lh5.ggpht.com/kElaGOaV9aI8SrnM1D65gx9J0Ky1AKrN9Yo-pXVmDhELt2pee4MwVRiCqCmlqWzUWj5pS33GnEzAiXmiWKsw'
  lat: 40.108111
  level: 5
  lon: -88.229625
  name:  'Illini Sports Mural'
- ap: 2537
  img:  'http://lh4.ggpht.com/EsyXMnqVMX7wQ4YmoCFRiNljaJqaXrQvzyzzooqx2fPxCSkJMkdEssTbf618D8Qp9hh3E4Ud3hL1M3v-TsbO'
  lat: 40.104688
  level: 7
  lon: -88.230676
  name:  'Sousa Archives Center-Amer Music'
- ap: 2537
  img:  'http://lh5.ggpht.com/ucFkWovrZBr6wFMicSGD78p44tqzcyfJCvQuAocYo0do3ODoHsOeAMphZZferoOLkGfuJPQVlILRzKG1vAPg'
  lat: 40.109172
  level: 7
  lon: -88.231151
  name:  'Illini Life Christian Fellowship'
- ap: 2537
  img:  'http://lh3.ggpht.com/fxsMa6MK6sWcY8fyTRPmRixomHagKag2YrMZjovxjujmavVawLdmU0Mi0HpNq5kH7UUoXfELEoBOFTkzeRwV2hp9PknjajWlvhX6jYIyUSrrH76k'
  lat: 40.10952
  level: 6
  lon: -88.228288
  name:  'Altgeld Hall'
- ap: 2537
  img:  'http://lh5.ggpht.com/8-Baqz4PiYwmi1rtJaKCkrxJHu87dAW9dGkAq6Ab0cwWBHH4Tq_1PfQtEL7h_L4K7LIly1kVPPMLGPsgM89Z6Q'
  lat: 40.098549
  level: 5
  lon: -88.23713
  name:  'Great War Memorial Inscription'
- ap: 2462
  img:  'http://lh4.ggpht.com/ezHSw_hRdts3U3bzkEEn46LneS1miDpbSGoxg0v1TqG_W82bvfR2uSTZeDFfhG0kmPJAkOblWP_ZilA6TP8'
  lat: 40.112523
  level: 1
  lon: -88.227765
  name:  'Bardeen Quadrangle - North Side'
- ap: 2462
  img:  'http://lh5.ggpht.com/dEeT4acpLu-WQFlZWd3psap5qAqqPTSVzm8Qt1QtpqtwZ0j1V9eKFcmpgN9K_x1PL4XVchuevw25rxHekz3tvQ'
  lat: 40.111968
  level: 5
  lon: -88.226793
  name:  'Bardeen Quad Structure'
- ap: 2537
  img:  'http://lh4.ggpht.com/n7S7CjMfxfFwYHpq5HrRc6lFaFZYFVb4vYJAcTAc8MZgOgDNYI7QBChMeKIY-OSJkDSdwCf5KsJYmDesbHhq'
  lat: 40.127017
  level: 4
  lon: -88.209948
  name:  'Busey Woods Gateway Trail'
- ap: 2537
  img:  'http://lh3.googleusercontent.com/IL1IY2pEoa4vQNpzLwvTQY2XdPSKTnAOTyAaJle-S-3FAQF1BJqAxI5mRqem75ioMEmfTui9CLSzjwbI8P5C'
  lat: 40.128772
  level: 5
  lon: -88.211041
  name:  'Busey Woods Trail Shifting Views'
