- ap: 14720
  img:  'http://lh4.ggpht.com/vKgqIecJshMQxrhO-ZhMjcIyARuJdyU63wKfzAG0wouZex6LVzO46Qi5zM1N3Jx8xyantDFk9sQGsSEBhb-y'
  lat: 40.101327
  level: 8
  lon: -88.251412
  name:  'Zeus Memorial'
- ap: 12283
  img:  'http://lh6.ggpht.com/5CDidk0pqfUtSW_Yqouuf3diX8drdMu9DoT728QpSz8q6A-WxNhT0yLcgM_7gGpyIAeXrHiTkIzzaVJFgnN9WA'
  lat: 40.099852
  level: 8
  lon: -88.251947
  name:  'Our Friend Tim Palmer'
- ap: 11346
  img:  'http://lh6.ggpht.com/yjfa0jJLjsfLRf9Zn9iafMp3MuIhgCi0WiOCF8GqTGiGvzEnsPGrFa0H1n-uzWhVehLbt44ShthsA32VzHd5iQ'
  lat: 40.099737
  level: 8
  lon: -88.251157
  name:  'Tyler Van Atkins Memorial'
- ap: 10783
  img:  'http://lh4.ggpht.com/GCS0-CwKl9SLe2zfeL7FPDuKv5ZFDhlnX3hMXZSJLvK-u73RlgWbn_FgnOHZi-0wqMk52z_YLSAMReYTSaoP'
  lat: 40.10659
  level: 5
  lon: -88.227679
  name:  'Lincoln Hall'
- ap: 10220
  img:  'http://lh5.ggpht.com/jQxBvX2jWXZCQP5ap9HmKaDDgG40pdH5nPpBNcYppZdxce6GWdxMRTYyqKrLxnk_TsmMAd7G6gRwJ6YI7S-v'
  lat: 40.107574
  level: 6
  lon: -88.227843
  name:  'Iconic Pillars'
- ap: 10033
  img:  'http://lh3.googleusercontent.com/vRH1cgHOuzbgU69F49MdsOQye4VG9lH8rjDcYQWGq9_8VcBu010oHhoinNmA_Dn9JZGLmS7ehSQJ9h1uDMGBaw'
  lat: 40.107087
  level: 5
  lon: -88.227801
  name:  'Class of 1912 Pillar'
- ap: 10033
  img:  'http://lh3.ggpht.com/o6_RpCgHFDA4MceKnIqFkksRYWZkhEKsAZE3VNGl5iS5zkkQWJdBKOY-gNca5iB37jbgnoYsbc1ROtZ-bQhJIw'
  lat: 40.108833
  level: 5
  lon: -88.228125
  name:  'Class of 1902 Memorial'
- ap: 9844
  img:  'http://lh3.googleusercontent.com/Nj5Ai888qxXriCQAeWkG8SbHbFuOlsYYCL3FjX-pCkblSOg30VuNF9lK9SQj4UDlg9R8XMYXpAcWyE9xIcA'
  lat: 40.135716
  level: 6
  lon: -88.291946
  name:  'Campus Solar System - Jupiter'
- ap: 9470
  img:  'http://lh5.ggpht.com/w9vRSV8NBR1gsi8ndeSUNJN2X-ftwCCQ7Jd3dcLVhPw6r1w0x1QE4hNgpCJBKimUeq-HToz_yq9S3rYkzC5bjw'
  lat: 40.114687
  level: 6
  lon: -88.22473
  name:  'Web Browser Plaque'
- ap: 9470
  img:  'http://lh3.ggpht.com/F-cwL1kpN8KTxTiRAdaaAFictKYDbMRhPltdDuO0_6jhG8_6fxg1_yHzy1kBs1WXPRZ8UQDrxqY1fCdmHXFU'
  lat: 40.108042
  level: 5
  lon: -88.22808
  name:  'Earl W Porter Memorial Tree'
- ap: 9279
  img:  'http://lh4.ggpht.com/CuRKYla63wCvLaTdKqGMMAd1Mr0_HK3v2iQjltrJwmsOownFtry6TsHMkAeHmOP6ULUYA53u4MUP61rgLzs6'
  lat: 40.1097
  level: 6
  lon: -88.228059
  name:  'Liza Kotz Memorial Plaque'
- ap: 9096
  img:  'http://lh5.ggpht.com/4DJAFPeZ_w65Km7VDnsbOqouQaeBuPuxA0KHPQToT_B6o1hBxzdu3kn89UhHgv22Ygj52Fx9QqcbzOytuw'
  lat: 40.100078
  level: 8
  lon: -88.250683
  name:  'Brian Clark Memorial Plaque'
- ap: 9096
  img:  'http://lh5.ggpht.com/Lup2et0i5h8oHqtBffIdoyX5uclC2MBn9ZnnKnYPr4RIFSflf9bi78zBHK7QqycA0qgEev9qOk0zU-1o1hg'
  lat: 40.108451
  level: 6
  lon: -88.228733
  name:  'The Centennial Colophon'
- ap: 9094
  img:  'http://lh6.ggpht.com/ccBTHN5qNJjNkD0fG_ipEQKtSNVqZu8Rrp_xkW2wZqmKB-oUGkM97IzwRiThXQIQFp4KEsLk8bL06Bx6Z4s'
  lat: 40.109592
  level: 6
  lon: -88.22514
  name:  'Ecclesia Noctus'
- ap: 8909
  img:  'http://lh3.ggpht.com/1JgqaWx4DIU04ms-XmufSumQ5BDP07SB97-kBjzxDePlLQR9HagCTfqdviW9ErxCqpvXgynqeosQhERhCat6'
  lat: 40.108781
  level: 5
  lon: -88.226388
  name:  'Illinois State Water Survey Plaque'
- ap: 8909
  img:  'http://lh6.ggpht.com/yE7aPklOUj6Y4vlNLUrqm7uJbj0TAVjhl_vSEgy7CHGlkTo5yyJGeTCUnRsHYe2UAZq2h_Y3AD_m3y3i2B8'
  lat: 40.106876
  level: 6
  lon: -88.228565
  name:  'Lincoln Hall Sigil'
- ap: 8722
  img:  'http://lh6.ggpht.com/qSCp5fQMlyCQ-GOAgiSFy5gaHJei705Pa3eOlJiYO5wGjZTYtjA8q7QWWfAWcLKjxZSaFiMfXOPR8SO7rWU'
  lat: 40.099353
  level: 8
  lon: -88.251876
  name:  'Raymond B. Cattell Memorial'
- ap: 8720
  img:  'http://lh4.ggpht.com/GcCZ7JTzkEHTZnUWfpUgibDh2Wa4nzGM9-k13AG4I2RwFiPa6exz1vCzj7Hwvf_oPwJvYJt0xoRE6GZXmCMX'
  lat: 40.132625
  level: 6
  lon: -88.292636
  name:  'Campus Solar System - Earth'
- ap: 8720
  img:  'http://lh5.ggpht.com/BoAN9OSCH5u7G1sestzZaXjjik82i-SteF6-r5KTTyl530q9H5G3ibjJdqpGGY-nL8MypRXn2twwvn_y5nMmug'
  lat: 40.133159
  level: 6
  lon: -88.28778
  name:  'Campus Solar System - Saturn'
- ap: 8533
  img:  'http://lh5.ggpht.com/orl0d4FNIpZ7xsdZmVyH_732dMd4uGM01fQ-P5V82KufzWBOMbpankzTgjeS3frZhS7apS3qCrS2o4jtw7pAkg'
  lat: 40.105605
  level: 5
  lon: -88.227414
  name:  'Charlene E. Haight Bench'
- ap: 8346
  img:  'http://lh6.ggpht.com/rDThTbD9GU2Wvv8ZnUbLlUM5N0lb2OAYi3qDkxwfYALO2O0t_O9u19aQ4EQbxGlRScGdQ94AjAeqlc2WpNGZ'
  lat: 40.107379
  level: 5
  lon: -88.228355
  name:  'Carolyn Smith Ainsworth Memorial'
- ap: 8159
  img:  'http://lh3.ggpht.com/rUgM7jkTqL0VHxvsSW0yWuNJF5UrU62ITflghfn4PfKjn6L4WGz0ALkv98fc_q9dmK9SSpU1PXIawGvcRwE'
  lat: 40.098246
  level: 8
  lon: -88.251974
  name:  'Hessel Park'
- ap: 8157
  img:  'http://lh5.ggpht.com/M86zCVcXjmwIC0SQgJ3q_heSiWsj4BJoAcO4SpBWLGzt7XQ3kJMk_1GdLAM_SOt_OkZnGrAEV9_g2KSQCguZ'
  lat: 40.133808
  level: 6
  lon: -88.284367
  name:  'Dodds Park Softball Complex'
- ap: 8157
  img:  'http://lh3.ggpht.com/3WnMbDq1Vm3HiqAM5qk1r9m3OqcO-YUN0nCOt2yRfUxVWLZ-8huxevlCI0JnIJgpSBZN4mtw0gxJnrGtuaS9iUf7k-JFfmRGRkBXQafWO9MIk_oJ'
  lat: 40.115491
  level: 7
  lon: -88.227358
  name:  'Arnold O. Beckman Statue'
- ap: 7972
  img:  'http://lh4.ggpht.com/B_I1b0Jy3vW41RX8jjCNPP68AULplU0Pf8ddolyKmpEWCfBVShQkmjF1HfTPzDjmBBQGgOs0jHW-rUR0mv8BkA'
  lat: 40.098789
  level: 8
  lon: -88.251685
  name:  'Curtis William McKinney Memorial'
- ap: 7972
  img:  'http://lh6.ggpht.com/MzDfG6eMMwVr56zIpVxRJKU2aoUq-95CLeBhoiEQQKzpC2zulq5jFDLv1IK0JcRy5Q0PhRAreZ1p2ElsdnNu'
  lat: 40.108048
  level: 6
  lon: -88.226279
  name:  'Nuclear Magnetic Resonance II Plaque'
- ap: 7785
  img:  'http://lh3.ggpht.com/yeYI3q7rDQLA5xBcWfH-Caw2Uh740ZPRQjjyvOrZz7ZyLI-gxBpi8yqxqDrlOBzG9YHs6YlxdgX0obTpXlQ'
  lat: 40.117681
  level: 5
  lon: -88.241405
  name:  'Jupiter''s Downtown'
- ap: 7596
  img:  'http://lh3.googleusercontent.com/mRLfm7nmeWoRTWuL9j9CIdpj5Wi6Lj_ghejJOVgI2tREVdkZjp_vLtvGFd53n6ey4lYuJCvRblhcq2QJAzHc'
  lat: 40.132819
  level: 6
  lon: -88.286151
  name:  'Dodds Park'
- ap: 7596
  img:  'http://lh4.ggpht.com/DTGKMEvXrKSLJVBZP6bN7EF-DMHt5l_x3o-C-Ln0FjrGCQcTdcLNaZDI2_OCwEzuqgh8HyyqJwyQkc4-0H8g'
  lat: 40.106037
  level: 5
  lon: -88.226237
  name:  'Triplets'
- ap: 7596
  img:  'http://lh5.ggpht.com/MWJ2u6CgyftB6h05_WRqj_eYi-vhbwuOZ_9mxAS3eS-wY6XbpKlfBgzmohkwEj6Q2FoR0mm678IAtKTcei8'
  lat: 40.106846
  level: 5
  lon: -88.226647
  name:  'Illini Supersweet Corn Plaque'
- ap: 7409
  img: http://i.imgur.com/5j1qaiT.png
  lat: 41.894687
  level: '?'
  lon: -87.609994
  name:  '71d41d0e027641a9a8ce927698097c51.12'
- ap: 7409
  img: http://i.imgur.com/5j1qaiT.png
  lat: 42.401374
  level: '?'
  lon: -86.288005
  name:  '9c168d55307d46deafd3684ceac79063.16'
- ap: 7409
  img:  'http://lh6.ggpht.com/1i7JFIfvKI3IMOAekdomh9jm9HrAhBBdNIOyX81Nkq1Bh49sBqKg37sMm99MYm8yJjHsG4dBdnRg1X5Aq-c'
  lat: 40.104796
  level: 5
  lon: -88.227461
  name:  'Undergraduate Library at UIUC'
- ap: 7035
  img:  'http://lh4.ggpht.com/4LxsGZZMk3DnpJXUvqzrL54CHSP5TDXjUnDJyHmCCTtCJIjGEI7kxT9g4uxfSPh0X6yGLgQo1jfqbu7B8VEr'
  lat: 40.099084
  level: 8
  lon: -88.251826
  name:  'Irina P. Stewart Memorial Plaque'
- ap: 7035
  img:  'http://lh3.ggpht.com/lzCSS0_tjwUV7JQ2fgLI0e05IrzPxlVUs-6aEPOwUv67IanQJSTi71gkw0SGm8asmoE_r3Xoh048Fd9xRpE'
  lat: 40.099169
  level: 8
  lon: -88.251419
  name:  'Lyman Larson Memorial'
- ap: 7035
  img:  'http://lh5.ggpht.com/pnMcOl0FAs-A861T6mvs4EQGCm08ZQGxUcMdclhxsgyUThD6KymilbixZqTcT464ZFRUnjMoFee37DuNXxcm'
  lat: 40.10719
  level: 5
  lon: -88.226585
  name:  'College of Agriculture'
- ap: 7035
  img:  'http://lh4.ggpht.com/7U0YXCB_DIhnqPJyjyLpNn6kg4lU8HvKL87ddBKWq1sptvVLvCEiCuNEnghQtqDGSN2OBNcOUK9nZcYjY4Vr'
  lat: 40.107887
  level: 5
  lon: -88.225998
  name:  'Lifesaving Antibiotic Plaque'
- ap: 7035
  img:  'http://lh5.ggpht.com/uP38yDCg4dPRI1F0r0ALGArEc8Q9eoRuaxkfxZTafZZr9tMcbLUZek1hZRbLUxHJVGPcLSf_JKbotbTBeR7nfA'
  lat: 40.107226
  level: 5
  lon: -88.22858
  name:  'Class of 1897 Tree'
- ap: 7035
  img:  'http://lh4.ggpht.com/Mr8XeGiDafWk47NSkxDW3WManlpDnqzQWOT1VE2j0f0jFdh3tCvvntj45n1BJEnHylldZRnpPEOJ8OLeFZI'
  lat: 40.114405
  level: 6
  lon: -88.224198
  name:  'Siebel Center for Computer Science'
- ap: 7033
  img:  'http://lh4.ggpht.com/h3t9nwbrudSHJ4Ll-zBceLi_U0iwpgbsVd8Wjzy_JgqMiXIqIu4CILUiFnKdayIi0htMXQ5CNowcXO7XUqI'
  lat: 40.13401
  level: 6
  lon: -88.28239
  name:  'Eddie Albert Gardens'
- ap: 7033
  img:  'http://lh4.ggpht.com/nxDeNwbXxYuo1VyX_qnfxvSql7bfLS5wokO9KwPy6x9CPdTsbILpEr9jM-sXHDsic6WPJnbvWci9eDEcNOWo'
  lat: 40.129554
  level: 6
  lon: -88.286025
  name:  'Dodds Park Soccer Fields'
- ap: 6659
  img:  'http://lh3.ggpht.com/kAxEWb1VdMZ1-OTPwyl-CGWs0lF3FNth0gbxr6aqk6BaG_tfbCZM31s6UWKUY8aFtUA3j2GFL2z6yvu95yz3'
  lat: 40.115068
  level: 6
  lon: -88.228451
  name:  'Electrical and Computer Engineering Building'
- ap: 6659
  img:  'http://lh5.ggpht.com/3RfiPeOzF67ubNX-vkwUJ6-EYld6BKuoBernq0_9kOjlIsSPr3saR9FIQzN7uiw7ouF0CpNflOnL0mUj9zbqdQ'
  lat: 40.109452
  level: 7
  lon: -88.229031
  name:  'Illini Hall'
- ap: 6472
  img:  'http://lh5.ggpht.com/_Tp5JJFIIlt0iHHyC_A_gnEm1sxUEKDHmQr0oby74HL0rnFZ5JrnuvOTPk6_vulsU_GJue_7RAAX2Y7I2Wxw4A'
  lat: 40.132354
  level: 6
  lon: -88.292578
  name:  'Campus Solar System - Venus'
- ap: 6472
  img:  'http://lh4.ggpht.com/2JNDO54Hu2KzjIaEeCIFVgD7gEa5VXNBsIemFYp6cgiTUbsSpOwLTc-HqZb__uut24jHpVnQVokRVtL00ozu'
  lat: 40.132056
  level: 6
  lon: -88.292671
  name:  'Campus Solar System - Mercury'
- ap: 6472
  img:  'http://lh5.ggpht.com/tfAfnmo6mSMc6U0P533NMFJRGwn6lasmx-MLR2JJg1QOizMKkghFU8E7hb2zgYgdQEbgnCJUlvZIMdrrJe4'
  lat: 40.100822
  level: 8
  lon: -88.25193
  name:  'Seeds of Kindness Bench'
- ap: 6472
  img:  'http://lh4.ggpht.com/p1kbhH-3K08NNqTt_6-223uI0PurGUV2HeAWGYPRx3OnNYMY-kARoW1zZ2pZBHthAYRZbIgf6ioRawHi0BmUx786y5ffm0kmZsskaOiluDUhSIiI'
  lat: 40.106173
  level: 5
  lon: -88.22719
  name:  'Foellinger Auditorium'
- ap: 6472
  img:  'http://lh3.ggpht.com/2LmoiHH6s6FrGUTRiNNoF0WIY5lVvkXP3CTOxQjNjG2_jrgsDmaxyIZxewF_wa8mFgO41Avi733oq5-CVio'
  lat: 40.10631
  level: 4
  lon: -88.228952
  name:  'Pi Beta Phi Sorority'
- ap: 6472
  img:  'http://lh4.ggpht.com/fYq8Qzd7VmDjN_GIWRjblwSGoKKIaUFJTgmMNsJrfWO6c5cZu8xnJc4kDm35ITLO2ePeYakXEDKubdwi0x1K'
  lat: 40.105179
  level: 5
  lon: -88.226931
  name:  'Astronomy Department Sundial'
- ap: 6472
  img:  'http://lh5.ggpht.com/szWXjFVU67N6nJHeZbrcsC2b8J7kXF7nBh_RooZZ5-ezcJsxWUvA7NZrGjJxfwTzVkc2HYMYLwh19UaYEbm3-Vmu4ZAG8959ZOG44cpeeyoUHtkD'
  lat: 40.108422
  level: 5
  lon: -88.227811
  name:  'Henry Administration Building'
- ap: 6472
  img:  'http://lh3.ggpht.com/wOZOXhKOnhbKEPMQke-zGIG_vheDkHM8q19B1n_is5H7t1whBcQxBIGZI6VIPNw8mdCNXG6EUZeSjd1YLdngdg'
  lat: 40.108965
  level: 5
  lon: -88.227184
  name:  'U of I Mother''s Association Plaque'
- ap: 6472
  img:  'http://lh5.ggpht.com/ZDv0mHiZcEfLxGVibvfnMCu7reJceCVnxa4GeBjK2DO4Y4a0x-M7C2M0rEam-_bPlr2e2476RXe15pRY48s'
  lat: 40.114351
  level: 6
  lon: -88.227096
  name:  'Chi Epsilon Civil Engineering'
- ap: 6472
  img:  'http://lh5.ggpht.com/f710C9AvOEB7ieCI4f382wWUP4OgDxiqPzbxqxct6Ugf2PWBfyXyDpG_JcRQ6PaZ_jS0jpXXBhNSt_u9rFA'
  lat: 40.113864
  level: 6
  lon: -88.224839
  name:  'Plato: A Social Networking Revolution Begins'
- ap: 6285
  img:  'http://lh5.ggpht.com/5WZPQL7oa-VYm5x9viEwKiCeApkaxUNXa-mHYU-9S9_fOCFAqFLktoU4hnu-RM6tx8X0tMs2PHUyDnkS6fqI'
  lat: 40.111391
  level: 6
  lon: -88.224416
  name:  'Gone Fishing'
- ap: 6098
  img:  'http://lh3.ggpht.com/VrbXGwlUosNLEkVdshWUFoVa3KtlJQoEU4yLYygvftYbPCmxo644Uvar_v8Kb9RS53hB0tXgvV44GotrxZyu'
  lat: 40.098592
  level: 8
  lon: -88.251676
  name:  'Ruth and Fred Steigmann Plaque'
- ap: 6098
  img:  'http://lh3.ggpht.com/G1CvGhpethi5UmprDWxZN9rTblHa3anSsQz1UPgJtkREkfN7lDFoxFObst0609Cg5mofuZxJKr0ddNKhY4VL'
  lat: 40.098464
  level: 8
  lon: -88.251426
  name:  'Ruth Haasis Memorial'
- ap: 6098
  img:  'http://lh3.ggpht.com/8FqlniFErK7cq59awiT84u8KyV4FIRd5krZzfYa58zJToFps7whdBnriPqvO_kFKeLUE3SWbJhCOPuvUQzaGFA'
  lat: 40.100691
  level: 8
  lon: -88.251337
  name:  'In Loving Memory of Zeus'
- ap: 6098
  img:  'http://lh3.ggpht.com/u-v3itkeM0VuM3kSQsa0wO5TAPiR3fou2d-_1ukh5ZZQlHVDJyJ6vyb3Q3ONlRDfvaHf2Nw-aWwerNtqz3rH'
  lat: 40.106197
  level: 5
  lon: -88.228614
  name:  '1913 Pillars'
- ap: 6098
  img:  'http://lh3.ggpht.com/rT55OoX-8s-w_ikrqOgpC7QkK-Iqp4ylicElGoWFagKRQ8LX3Uvv8TZ5Xc8BlId1btzo5FTbgddPN72kYwA'
  lat: 40.114327
  level: 6
  lon: -88.224492
  name:  'Siebel Courtyard Structure'
- ap: 5909
  img:  'http://lh4.ggpht.com/0pYkppjw5D-G0gCZ1pULK83NAqN9qsyzbBnG8K8YMyMekJwqUrZQDRpTqgqB3rrRD6zJezplE_wlFOTPLovb'
  lat: 40.127745
  level: 6
  lon: -88.287039
  name:  'Parkland College'
- ap: 5909
  img:  'http://lh4.ggpht.com/0UzQDuaKLiiPhEgEmKghfkzvXj6lROhxPIDJuI4nWLJFvdxJwGNcJZ1va0K_9cy4L2u0Zyeqv_qlIAwch5o'
  lat: 40.133475
  level: 6
  lon: -88.293988
  name:  'Parkhill Applied Technology Center'
- ap: 5722
  img:  'http://lh5.ggpht.com/THzk1iE4eBFdHkEgW_OGBWS54BbJw46faUZQS1Ad_IROHGgmVaXrphXJuL1O8N9k4G8_jaDT4P9tmLxMNi0W'
  lat: 40.131713
  level: 6
  lon: -88.29276
  name:  'Campus Solar System - Sun'
- ap: 5722
  img:  'http://lh3.googleusercontent.com/SjusdEZ1n6AkcvHdrM3TfGAqP_W5LJRmm4qEdm5xmdvHcBejD6Jg0kXCZaHyUk5WGeE8Zu0RrSSq_1VDXFU'
  lat: 40.117419
  level: 5
  lon: -88.240991
  name:  'Old News Gazette Offices'
- ap: 5722
  img:  'http://lh3.ggpht.com/eIZLSi2oHXQIznnki3LOUvKrTTcJ6a2d9xmuW9B9IjzRMAyaWG19Qw6gTUGWsC5V7R3LlRVD-ySQPp_6uK_aZw'
  lat: 40.117519
  level: 5
  lon: -88.240577
  name:  'Spiral Flight'
- ap: 5722
  img:  'http://lh4.ggpht.com/Zom5xkViTBf5wGkPFjYta7PfPZDicQD2VL2bQItgdzMxvQ1x7zqM3Zgynd7a6XBMT6qMAMKagxWMdpMlPcveaw'
  lat: 40.105849
  level: 5
  lon: -88.227679
  name:  'Lincoln Scholarship Plaque'
- ap: 5535
  img:  'http://lh5.ggpht.com/-aOZyLFNK96FhUdQBYhmRPZrs_PB1oiLRcrPjKwFBANQ42LxLbbHfTZVw_F01meecQXfNQwJYy7qqVh8Q0gR9g'
  lat: 40.133768
  level: 6
  lon: -88.281275
  name:  'Butterfly'
- ap: 5535
  img:  'http://lh4.ggpht.com/mlUN5QXAR7rKFvUg7yhxcae3udkR7zCJVaWt5sq_YA47piV6tRi42RNN9fEtT_FafT7lhqg26WM1VETbz5E'
  lat: 40.098239
  level: 7
  lon: -88.25376
  name:  'Hessel Park Christian Reformed Church'
- ap: 5535
  img:  'http://lh5.ggpht.com/BK5TjuMzuJgDVPz4C8HRjfZKeaoISnPJ-H7VaYeMNUYmxvvUY7RzIIlR13FjW9HHF_i5-znqs3O6nMxKPfcj'
  lat: 40.102188
  level: 4
  lon: -88.251507
  name:  'Little Free Library Charter 5753'
- ap: 5535
  img:  'http://lh3.googleusercontent.com/zmBaxEMhC7WvQDOei5LjXnSrM2p368YlSMZPtCtSY0t6bGsHjg5Bc91PGGsJ0oGn_hifKeBSMB_3BKH3hbwP'
  lat: 40.105567
  level: 5
  lon: -88.227662
  name:  'Freedom of the Press Plaque'
- ap: 5535
  img:  'http://lh6.ggpht.com/fmwXS4vSqefbmXDWmZSLjVARfYE8HU3kSTuyc8sUvk2m8luvvHf1LHjv6Yu0UjOPHYh_eGbaBrHgiAXfHo0'
  lat: 40.10503
  level: 5
  lon: -88.228342
  name:  'Classics Library'
- ap: 5385
  img:  'http://lh6.ggpht.com/pYay9oPZwUNKfLdWJ1JMI5tA9-Gd0vsBddLTz7fXN6wUW7F23hLMWRwFZNnXyomRkc2f9sqCGMxNWuYHPFZx'
  lat: 40.109142
  level: 4
  lon: -88.228748
  name:  'Kappa Alpha Psi Plaque'
- ap: 5535
  img:  'http://lh3.ggpht.com/MhImfPRi7WC74Qg-w4TCrNnC1hTih4TLCipNyUswQRp6HDkM5XS2cJqL0vrBH5sb7VdgzafkvLVAVEk3R-W6'
  lat: 40.105511
  level: 5
  lon: -88.227195
  name:  'Bruce Perona Memorial Plaque'
- ap: 5535
  img:  'http://lh3.googleusercontent.com/EvLov_3eYLGHotkWec9w3T1VCPQri5SR8JLZjbJUaxRsyGPLS4YQNXf90xlPoKjxGYlml9N8IDYKwpNvVIWlVA'
  lat: 40.114563
  level: 6
  lon: -88.228735
  name:  'End Caps Sculpture at ECE'
- ap: 5535
  img:  'http://lh3.ggpht.com/2WMtYMnBjTlw-gPK9quwjMde6Heie7SQHCZT41kPiIpOwxXEIQWbB_euK-R5rZhqUcmGuZJ0tIBh_801KGyVsw'
  lat: 40.11453
  level: 6
  lon: -88.227324
  name:  'Beckman Institute - Upwells Fountain'
- ap: 5348
  img:  'http://lh5.ggpht.com/BUGNnLReyCBJJj9_zpqgwv5_CAyiW8fWBpyVs0ip1hT5NEE6YKCYzlc8ahldKzk_xv-4uckNJNb6NrJd6r33qg'
  lat: 40.116989
  level: 5
  lon: -88.242255
  name:  'Blind Pig'
- ap: 5348
  img:  'http://lh4.ggpht.com/PHV-1ZpFzCAl_ViCKwBY_x2pIDbVyaT7wJH1sTvFJCxrSdRrO1x7NaXq9OdRGwz_Mls4iwk6wuGHMBArfV54'
  lat: 40.098688
  level: 8
  lon: -88.25063
  name:  '"New Holland Yellow Dinosaurs" at Hessel Park'
- ap: 5348
  img:  'http://lh5.ggpht.com/HhVreJipNvxPRVFpmsh2BPo9PcpPO2Q2l3jCpDjIKgfKGycoTNPXR4DKiYccBXW4X-4dJf_vV0ESsWAWHcChsg'
  lat: 40.100936
  level: 8
  lon: -88.250855
  name:  'Donald F. Bresnan Memorial'
- ap: 5348
  img:  'http://lh4.ggpht.com/N-xxTzGXK34K-VdTOWaWrFJeP9_SLZ7ZBluxK2mjP51yZx_5HOMi_mb4Nu2rWgo3gOqUb19_cPb662sI7td_'
  lat: 40.105687
  level: 5
  lon: -88.225714
  name:  'Smith Memorial Hall'
- ap: 5348
  img:  'http://lh4.ggpht.com/9hzMj8KV-HraIucojjHAEgyMZsJAR9TWvNS-QSBB5LTYBOTwwqfTQySJ_Sz88eP3eyFWFYhx5qDVY93t8fk'
  lat: 40.108032
  level: 6
  lon: -88.225702
  name:  'Centennial Court'
- ap: 5348
  img:  'http://lh3.googleusercontent.com/v44Gf5oEZGcwkQcA2wWz-uAeDFESHj7sEloxdCJd316RPH3w_ln8_9mBEMbAqGyI_2Y2qaYp525PnRip9Rg'
  lat: 40.105315
  level: 5
  lon: -88.226125
  name:  'U of I Observatory'
- ap: 5348
  img:  'http://lh4.ggpht.com/H1kV6JSczzSbcCblAHg5ZOgITW1mBAz0_oLbqbzxBlijGTBn7TP6KwA6UI0AAGrCN4VF0DAF79Vcj6_2R4dsB8LRTq6tud6v'
  lat: 40.107753
  level: 5
  lon: -88.228913
  name:  'Zipcar-Wright Street & Daniel Street'
- ap: 5348
  img:  'http://lh5.ggpht.com/1fPvqpqXG5PDCkmegoWb9Tv9N5_MZh9XjmZpbyNEs5yPDsCscbrPB1cO_Pf8GT35HYrTF01FZ6s5VPIpjJ_20A'
  lat: 40.107098
  level: 4
  lon: -88.228984
  name:  'Saint Andrew''s Church'
- ap: 5348
  img:  'http://lh5.ggpht.com/BRRDKCyBRSA90katSWGccxinlIeZVFPrMr-6O3bI9db463bYKB6Pb_Iw3vWmyCktM38SU4rZCqUAask_yJJ5'
  lat: 40.115438
  level: 6
  lon: -88.22582
  name:  'Learning And Labor Plaque'
- ap: 5348
  img:  'http://lh3.ggpht.com/LR76HrJqriPFUoc2XSs7jb2SotnStZv20kI7rgUx8B5HqhmetnTW4MA1tCp1ws4g5gw0sf9g7M3Lwq4VwfpD'
  lat: 40.111687
  level: 6
  lon: -88.225353
  name:  'Transportation Building - University Of Illinois'
- ap: 5161
  img:  'http://lh5.ggpht.com/ENeQgqydWbi9-Oyf7vizunoRqJdsZV4o0RA_956wjGI8hqpTCHBPyWMpbTrrkwYpj5tgzDRvevGmvH4eFRU'
  lat: 40.099593
  level: 8
  lon: -88.251724
  name:  'Blessings from Devon Elaine Cattell'
- ap: 5159
  img:  'http://lh5.ggpht.com/d_xORafhhRGmWQQYxORFs1dW_6uXGimDkw117yVoO46fU96UHRY1GWk3ln65AsNRtevh1vFgECrCK8gJD4Y'
  lat: 40.133113
  level: 6
  lon: -88.279062
  name:  'Champaign County Workers Memorial'
- ap: 4972
  img:  'http://lh6.ggpht.com/6pMlM7pPsp-5PTNYZ8AJgo5ODURCPJO-_LigeHL2TMhjfK9MS17iEcpQqc89n5gyUdEO8seZrlThTGbKEqg'
  lat: 40.132999
  level: 6
  lon: -88.292808
  name:  'Campus Solar System - Mars'
- ap: 4972
  img:  'http://lh5.ggpht.com/dEeT4acpLu-WQFlZWd3psap5qAqqPTSVzm8Qt1QtpqtwZ0j1V9eKFcmpgN9K_x1PL4XVchuevw25rxHekz3tvQ'
  lat: 40.111968
  level: 7
  lon: -88.226793
  name:  'Bardeen Quad Structure'
- ap: 4785
  img:  'http://lh6.ggpht.com/Nv0tMktEkkuoGtg1QEPS1N2nTcBPg8ipu31i72XPDTGQ4HQI5oL58Ig8kofXUH_aCC2aaJ-NylWKPkC3hIBS'
  lat: 40.116218
  level: 8
  lon: -88.228757
  name:  'The Presidents'' Walk'
- ap: 4785
  img:  'http://lh4.ggpht.com/nWSZEVnpEj78GBs58tujBturUcAqKjsgYU_9v_qXRS_K_ROKLNgBwnqKopJse169VJqqWtn6oo3h_qABlaw'
  lat: 40.117571
  level: 5
  lon: -88.240851
  name:  'The Accord'
- ap: 4785
  img:  'http://lh6.ggpht.com/5tR3GirLCJ25x9j0BfwipsCOjlPMYGMmFrzEkhsJ4eGZ84FFe1_KnUmW3OBzAKAzQgPWPxt1WLJG2DvjFy6W'
  lat: 40.109015
  level: 5
  lon: -88.224982
  name:  'John J. Morris Jr. Memorial'
- ap: 4598
  img:  'http://lh3.googleusercontent.com/M_qK64GKnnRqEI0mDBCxmdDqvQtr6sboADts_687xYboCfdeE-9gJwAPNC_Gt99-mA2X_3p-8RfH8-x7LMW5'
  lat: 40.132777
  level: 5
  lon: -88.287351
  name:  'Parkland College Prairie Restoration Reserve'
- ap: 4598
  img:  'http://lh5.ggpht.com/ZfmaOk3UM4PNzP-z0AvBPFqYLc6wAEDSPhL1cSVjXMAFSv4Jadm-hV--eP3OaJuaksphYKN5s6bhWhluTGs'
  lat: 40.133327
  level: 6
  lon: -88.280335
  name:  'Prairie Grid'
- ap: 4598
  img:  'http://lh5.ggpht.com/Ubq0MuIsu5MU-I8JiOC7oX_aheDNBNsG-UlSMPqA5BRkHJX9BDDUPWGQxXllzVgaxFeo23u3zu_hlJesprpNJg'
  lat: 40.133421
  level: 6
  lon: -88.280893
  name:  'Greenbelt Bikeway'
- ap: 4598
  img:  'http://lh3.ggpht.com/sMx0P-GO5ovW4D9GxUctotNYCfxZGhdOEhiL1DmdIK6HMtm6Q2YB4GNKL53HBW60hQRizKWO_neyW1gOFt4'
  lat: 40.068464
  level: 3
  lon: -88.243473
  name:  'Savoy Rotary Club Dedication'
- ap: 4598
  img:  'http://lh5.ggpht.com/mRJ1JU9RyuNozcaCkQ-Egy63KbWTVpSomrieglFdzh1c9eDAoQQCHmWw065GGIQoOFIorPObgHXhGyNjVb6u'
  lat: 40.068762
  level: 4
  lon: -88.243336
  name:  'Rotary Club Dedication Plaque'
- ap: 4598
  img:  'http://lh3.ggpht.com/S2DoIWxkTKxG56hK4lv2QLq8peGyxtsYcpRM7vWxcHOxECyRXDdeMhD-3E7munflftWVVu_FusxLxzJKIOI'
  lat: 40.110892
  level: 5
  lon: -88.241745
  name:  'Twin City Bible Church Midtown'
- ap: 4598
  img:  'http://lh5.ggpht.com/J4IbsPUjPF6cIlktTr1tOGHi61krS9o1eXeuAlPRBrSYUQrwdyShfNzuzxD0epa_cBMPF1xJ9YhoBA5VOQtYRw'
  lat: 40.105467
  level: 5
  lon: -88.225644
  name:  'Smith Music Hall'
- ap: 4598
  img:  'http://lh3.ggpht.com/whmQSPmix2tEoKcWwrVrV0H0JzNf1tzyuohI3ykSa-Qx4rUcLTf4686WcnJjygsMY2QPUWhvVVzlmMMHof94'
  lat: 40.105907
  level: 5
  lon: -88.22564
  name:  'Andrew De Grado Memorial'
- ap: 4598
  img:  'http://lh4.ggpht.com/fsiB6WgZi3nqrUsbGpwpdNX2HKV1YsNECGrmvuGGjZk2CSsA5AHYM6iJLYo6O0yYgQUMQRdm_LZJCL8KI98Isw'
  lat: 40.104617
  level: 5
  lon: -88.228156
  name:  'Creation of Research Library Plaque'
- ap: 4598
  img:  'http://lh5.ggpht.com/gkIcCbfmQWyJ7s9ryhzfOOn1K-oa8huqzZN80X2psVjx_6Iur5egjGncbUIAMLiAJAf9qG1Ac8lX2MomHYY'
  lat: 40.108185
  level: 3
  lon: -88.225203
  name:  'Statue at Medical Sciences'
- ap: 4598
  img:  'http://lh6.ggpht.com/WtqWBwqpYTSw3g9ru5NwcFn5iK5STxWgy2kv4OUTWqwtzx76-9Msz0eqoiw0qpEYE1U4zdt9rzzNZMDNagNg'
  lat: 40.107943
  level: 6
  lon: -88.226751
  name:  'Class Of 1917 Plaque'
- ap: 4598
  img:  'http://lh5.ggpht.com/Zoidr1eUAO2UEM6SyifBpkC3K42Ctl355Krd3S2ZU3BbbIMt1XFKF4C35huJT7a-K1PMF6JCK3ztTnr2Wbc9zw'
  lat: 40.109178
  level: 7
  lon: -88.22945
  name:  'Pineapple Pillar'
- ap: 4448
  img:  'http://lh3.googleusercontent.com/U_-4hKnh83ZT50dnywqzC7jR6ialVAMHwoWLMsG5km5adHpOU2FNmfe58sV_IDOBaVBAJbKZafokPWLzKLGgTQ'
  lat: 40.111268
  level: 4
  lon: -88.223809
  name:  'Goodwin Avenue Bridge'
- ap: 4411
  img: http://i.imgur.com/5j1qaiT.png
  lat: 39.951576
  level: '?'
  lon: -90.20876
  name:  '2719674f27164480aac1d2c66c7f97f9.16'
- ap: 4411
  img: http://i.imgur.com/5j1qaiT.png
  lat: 40.441099
  level: '?'
  lon: -89.313489
  name:  'fa303e162e1349c7ac2d93cf3df18bf0.16'
- ap: 4411
  img:  'http://lh6.ggpht.com/S7Utf4_59vQkAP5JhC3mdbzVLKBTt-0zoJ2UjfxUnN10VBbixO-_VwvssWd1LbFSx_yafaijd_U0wTGo870'
  lat: 40.100941
  level: 8
  lon: -88.251314
  name:  'Gabriel Patrick Maxeiner Memorial Plaque'
- ap: 4411
  img:  'http://lh5.ggpht.com/C6wRSaEWO1NYGY5luyYZKHG3Z3aib4aflaPdV7B9G6N6adE890g3QuPRSvCUhsdFHqjoVUjo27mfz9WsjXyuhQ'
  lat: 40.100521
  level: 8
  lon: -88.250864
  name:  'Gabriel Patrick Maxeiner Memorial'
- ap: 4411
  img:  'http://lh5.ggpht.com/-UWK84I78Sftf7yg-E2pg6xEAWTvyiThgJBJlxbqOZPYKNmzQ8uGgEEMetzplrG1HpXG5kQqNItUeXKxOHDsGA'
  lat: 40.100286
  level: 8
  lon: -88.251747
  name:  'Tennis Anyone'
- ap: 4411
  img:  'http://lh4.ggpht.com/1LUozaukItxu6cHk_7wORzYYNvskCHi_wUxbNOAcIXNbgLuYn7VElFG0tzY02e6pY-AEL8nNHAL6ewLCaLMH'
  lat: 40.10567
  level: 5
  lon: -88.228634
  name:  'Public Broadcasting Plaque'
- ap: 4411
  img:  'http://lh6.ggpht.com/rnWumKyBYpVW5hCfQDlvRaT_666UPI5lo3k6HGdxWuLVsDbD8c7l-BU1HwhBqiGeCW28iEghSQtvZFzqK4w'
  lat: 40.109013
  level: 5
  lon: -88.22587
  name:  'Understanding Photosynthesis Plaque'
- ap: 4411
  img:  'http://lh3.googleusercontent.com/OuV-xkKMYekdQdkQ7ADOaDN6edPO8xYZvaEbWyHP6JyqwkHzp9R8_ahyUbfwy94AY0LtAPJet4eGG9iAsKY4'
  lat: 40.108965
  level: 5
  lon: -88.226465
  name:  'Harker Hall Fountain'
- ap: 4411
  img:  'http://lh3.ggpht.com/pVUYGCf7vsAndVd4vhK_pC9p6e9OvGa4ZiWuZg0ELOFDWptBba4H2N4PNZPjQdHXnV1GQyLTpCXQWDMKDUqn'
  lat: 40.108875
  level: 5
  lon: -88.227835
  name:  'Lion''s Head Planter'
- ap: 4411
  img:  'http://lh4.ggpht.com/RweWMyuvBgAFSULZ8Wlp43vydPiEhELt6PCp8R9_ZJHCPvMTutxfO2z4hDsrhsFAYbjrh4a1uZeaOz6mWCJD'
  lat: 40.106958
  level: 6
  lon: -88.228125
  name:  'Engraved Poetry on the Lincoln Hall'
- ap: 4411
  img:  'http://lh3.ggpht.com/mRCpYiTnH0rrWGXaOj5qrhYjnvlhpQ8iY4UG3vy_gu2HW2GChgp0aXQ0Uih6XRZcUOJVyzyPggWicFdh7sHrfA'
  lat: 40.106179
  level: 5
  lon: -88.227593
  name:  'Charles P. Wolff Memorial and Tree'
- ap: 4411
  img:  'http://lh5.ggpht.com/fHd4PN9y6K8vITWYf02HBqZwj7gTOYz9XqUVbI3_bHVW0KUAbFgY_jdyXgwKOFRz8VeKMD2BkELNjIedp5Le'
  lat: 40.108821
  level: 5
  lon: -88.228411
  name:  'John Milton Gregory''s Grave'
- ap: 4336
  img:  'http://lh3.ggpht.com/x5fBw8MRogV8dm3kPO5zKNkUrQxn0dM7d1PIoASdX1_Rc8H5Duex4iZdOoIlqazCGll25TmptsWIRq1JFmj6'
  lat: 40.112135
  level: 5
  lon: -88.225762
  name:  'Computer Based Education Plaque'
- ap: 4411
  img:  'http://lh5.ggpht.com/4eagHlnlpVbtFi_knZN73PIs2A--Ipj6SOlkQADePlfnzfOnJn-cAv0IoNNv4qR8WrbUFImUKHBknyaoAewO'
  lat: 40.111383
  level: 6
  lon: -88.225675
  name:  'Only Rain Down The Drain'
- ap: 4411
  img:  'http://lh5.ggpht.com/sIbYMQQ_Zap8IM-0OSNfDcmhqlGrLw12pnC_OdD-CIksN6uBVuBi0m-ZNPiXF3Eijc8dtCbZLYdv_yX_qGKR'
  lat: 40.114982
  level: 6
  lon: -88.223894
  name:  'Campbell Hall'
- ap: 4411
  img:  'http://lh4.ggpht.com/L3_3bdFGcwi5zvNhxvPnMFZZEm1bKFSEVI3DOlF-FaUcX4jDGEwZ8xezrXUq6-71tbPP7kIe9PT1CTTY-ZjJ7A'
  lat: 40.114539
  level: 5
  lon: -88.224663
  name:  'Bench of Opportunity'
- ap: 3848
  img:  'http://lh3.ggpht.com/6Fer3GtYrst46oErqZdyi-cArt8MkVMBnho4Lei9skNu9ne3ktFspBwKvXS0rum8O2K7Qpso6J6lO0sipio'
  lat: 40.110656
  level: 5
  lon: -88.240991
  name:  'Mural At Wild Side '
- ap: 3848
  img:  'http://lh3.ggpht.com/2wN9MWxEFPbMzRPAzNmaAiCOQJj_EFr94Y1YkQP_wMlyajkajmcw00gqW-EluMvpQmvnGgcQ-WdPxjcYTmr2'
  lat: 40.106519
  level: 4
  lon: -88.223748
  name:  'Thunderbird Theatre Mosaic'
- ap: 3848
  img:  'http://lh3.googleusercontent.com/XQb7KWjSJlhbfrYsW2727_AeRoEQ5BbG0fRTTY5js_4zRdArbiRhCRkXunVa81rQpk9yX4RB6x1dV97DnYN7'
  lat: 40.104722
  level: 5
  lon: -88.223683
  name:  'Louise Freer Hall'
- ap: 3848
  img:  'http://lh6.ggpht.com/Pnd8JOVl_Lm-LFi5TL9dblCUNbrwX2rh4_oKgOC5Ynga-E_Y207oGsL4Uz931FTapBrs35H98qxJU4Cm_Gk'
  lat: 40.113024
  level: 5
  lon: -88.229095
  name:  'University Place Christian Church'
- ap: 3661
  img: http://i.imgur.com/5j1qaiT.png
  lat: 40.020795
  level: '?'
  lon: -89.48304
  name:  '471d8afd168d46008e66a79e31045981.12'
- ap: 3661
  img: http://i.imgur.com/5j1qaiT.png
  lat: 42.403068
  level: '?'
  lon: -86.273922
  name:  '897d4532336c48d99509d7a2607982eb.16'
- ap: 3661
  img: http://i.imgur.com/5j1qaiT.png
  lat: 42.403168
  level: '?'
  lon: -86.276755
  name:  '57aed4cfd9164b75b84de5432c870318.16'
- ap: 3661
  img: http://i.imgur.com/5j1qaiT.png
  lat: 42.403097
  level: '?'
  lon: -86.27704
  name:  'a09cf88ae2a34e308dba964b2f24486e.16'
- ap: 3661
  img:  'http://lh6.ggpht.com/dI4xaWnG0DZUP0uJY6mH7dt0Mym9RSF71Y9EW7cHcTwlxlumShbTK73b2epHwOng4JJOjyc52eMv188FeiHYfg'
  lat: 40.131965
  level: 6
  lon: -88.278016
  name:  'Augustus K Riggin'
- ap: 3511
  img:  'http://lh6.ggpht.com/g4DT6SGoajyo3AEVQR_e1LuxmgdTecqzlqjxrY3qYL6mnr6FHMUAtS6E9ZnWczuWrf7WWRNC0XRF5iVTWdS-uQ'
  lat: 40.132002
  level: 5
  lon: -88.277467
  name:  'Dodds Park'
- ap: 3661
  img:  'http://lh3.googleusercontent.com/DJEd6b3-MwXXA5oX_rKCuAtk2dlQ1yS2p9nG8oDmc86DmbzFvhKsP-KR9nKAzn84UUf_K5LjjTMgrt7AjCoU'
  lat: 40.110853
  level: 3
  lon: -88.238339
  name:  'Boneyard Greenway'
- ap: 3436
  img:  'http://lh5.ggpht.com/X-Tq3QbQ3JvCApWIGFxRwDJId7aLa8hY_ka0eU3QySTcZBgXcbPC4UXEQ9VVMsA-dYRxGqAdCotw-q7dby8f'
  lat: 40.088412
  level: 3
  lon: -88.251667
  name:  'French L. Fraker Memorial'
- ap: 3661
  img:  'http://lh6.ggpht.com/PrKWQe_StHjP7QQeyxlKiMSxAelIQlmbHzFMejewhMdVT0J-uvMpZCUGvQy_dZfrqfDnkmrIZYWkZORSGrnp'
  lat: 40.088449
  level: 4
  lon: -88.251396
  name:  'Boots''s Garden'
- ap: 3661
  img:  'http://lh3.ggpht.com/fvQtXA7uQ_ump_R8JixzV9ndFr5gVzIttL7RP9cD1MYPv5sui8NvcUwgkO7V83M9DpRjiqE505roZ62DjPgHCQ'
  lat: 40.122254
  level: 4
  lon: -88.219635
  name:  'King Park 1967'
- ap: 3661
  img:  'http://lh3.ggpht.com/OwtLBhgC6DoVKIQig8B4LZitIgWrx8rj8ejtnl3FyU2bAwcsRbcardVZSCLCP7U9es_sHo_Ee-iwR_mxOt_V'
  lat: 40.121852
  level: 4
  lon: -88.219695
  name:  'Preston Jackson Byways to Equality'
- ap: 3661
  img:  'http://lh5.ggpht.com/kElaGOaV9aI8SrnM1D65gx9J0Ky1AKrN9Yo-pXVmDhELt2pee4MwVRiCqCmlqWzUWj5pS33GnEzAiXmiWKsw'
  lat: 40.108111
  level: 6
  lon: -88.229625
  name:  'Illini Sports Mural'
- ap: 3661
  img:  'http://lh6.ggpht.com/T15jgBwdGgKfY5ZEkmL6_eEeGWALRclzodBAIpqOXMAO4sP9g1Mt8CwDQCh5tDr_sZan-95c8YRI6F-W63_-'
  lat: 40.105692
  level: 6
  lon: -88.227097
  name:  'A Son of Deucalion'
- ap: 3661
  img:  'http://lh4.ggpht.com/IZUCSooIdo5qUAG278Al-JEKCRv842M0uDMusE78yaL4p-QCYu2A4UXE6X2jTFemr_w8ZfD6g_lQqjwbdg'
  lat: 40.109702
  level: 4
  lon: -88.227571
  name:  'The Ray Bulinski Room'
- ap: 3661
  img:  'http://lh6.ggpht.com/cUV2o6ZPyJSFnHYl7jePeUIS7BrVr1H5D8Zbf7B3B8ALrTq7pTI3e271i1DHztqUGXITpiA399P3vNP83fk0'
  lat: 40.105767
  level: 6
  lon: -88.223378
  name:  'Busey Hall'
- ap: 3661
  img:  'http://lh4.ggpht.com/BakPypxJUdTOMFo4cSzlewsmPlHw3DyQp4kVY2zAFfJvhvj9CnaQm6cqvB22BqjknBbUYxEb_eYnIZ2skgfO'
  lat: 40.11586
  level: 5
  lon: -88.227238
  name:  'Flow'
- ap: 3661
  img:  'http://lh4.ggpht.com/nCIRPoMhADi7TL4q2u4MuBiXC1akVoL07As3dRfJNrhBjk7TMQ6R08CVcjyVIhHKHcOuAFQpwqld8JgdcgIB'
  lat: 40.113961
  level: 6
  lon: -88.22709
  name:  'Nathan M. Newmark Civil Engineering Laboratory'
- ap: 3474
  img: http://i.imgur.com/5j1qaiT.png
  lat: 41.96438
  level: '?'
  lon: -87.632348
  name:  '3e80a79b13e74f3a9d999f32d2216f1d.16'
- ap: 3474
  img: http://i.imgur.com/5j1qaiT.png
  lat: 41.964757
  level: '?'
  lon: -87.63561
  name:  'd14509386e3448c4a28e7406e327676b.16'
- ap: 3474
  img: http://i.imgur.com/5j1qaiT.png
  lat: 41.966142
  level: '?'
  lon: -87.63908
  name:  '745ad558df784ebc82380c0f9ce88d77.16'
- ap: 3474
  img: http://i.imgur.com/5j1qaiT.png
  lat: 42.403066
  level: '?'
  lon: -86.274967
  name:  'ce2a99b4e32e48cabdad7a1ace73fef5.16'
- ap: 3474
  img: http://i.imgur.com/5j1qaiT.png
  lat: 41.867446
  level: '?'
  lon: -87.612569
  name:  'c4a3139f171b4fbebb0ca6cbfd7e032d.16'
- ap: 3474
  img: http://i.imgur.com/5j1qaiT.png
  lat: 41.883586
  level: '?'
  lon: -87.613191
  name:  'e1d48d9a615145f88d01bfd24fe4db54.16'
- ap: 3474
  img: http://i.imgur.com/5j1qaiT.png
  lat: 41.964336
  level: '?'
  lon: -87.633564
  name:  '7fbe13944b5d4af78e982aada5eda453.16'
- ap: 3474
  img: http://i.imgur.com/5j1qaiT.png
  lat: 41.964572
  level: '?'
  lon: -87.635157
  name:  '725b1323c80b40b1b04c3054a81e4ecf.16'
- ap: 3474
  img: http://i.imgur.com/5j1qaiT.png
  lat: 40.190541
  level: '?'
  lon: -90.142716
  name:  '29a1ead4e61e4cc4a6749034de2897c0.12'
- ap: 3474
  img: http://i.imgur.com/5j1qaiT.png
  lat: 40.312242
  level: '?'
  lon: -88.201368
  name:  '2012 Employee Dedication Bench'
- ap: 3474
  img: http://i.imgur.com/5j1qaiT.png
  lat: 40.753838
  level: '?'
  lon: -88.29154
  name:  'f87bcd5251964920aeee2b3093ac8a54.12'
- ap: 3474
  img: http://i.imgur.com/5j1qaiT.png
  lat: 40.466664
  level: '?'
  lon: -88.375445
  name:  '8027cdd796814d63b3d817cdead1e269.16'
- ap: 3474
  img:  'http://lh6.ggpht.com/3dciax4v-S3OKvaO4a0G1H6yuvp2pnzFQjCsu-OOQlDP45Xh_c19QLwzEh4YixwMVCCk9396VC26HkZpcaDX'
  lat: 40.069362
  level: 5
  lon: -88.252978
  name:  'Skateland'
- ap: 3174
  img:  'http://lh4.ggpht.com/ryDcZUJK2aQ_fI0-hY850_t4ZmG2hNmtCx7cxbX83w3cnUWdI-ywpTuQrUVQNxGl3_DcxxNr6bupfDTsagRa'
  lat: 40.117107
  level: 3
  lon: -88.242467
  name:  'Radio Maria'
- ap: 3249
  img:  'http://lh5.ggpht.com/EaT0PxhOud4vjm0kHYMit1zq4b2aTjV4M2olWNI-rM0oUVFeEI4kgeWGcrbk_EvcGBz6hwrN_wYLDLK3CUBi'
  lat: 40.088861
  level: 3
  lon: -88.251811
  name:  'A Flagstone Garden in Mattis Park'
- ap: 3474
  img:  'http://lh4.ggpht.com/wyM69v5COeXPWWt_LnfNM6UlZe8vhGenr3i6cKAsnyELc0kC82jEE4kljcMgjf5IByJFesORVLdjdKjLoAON'
  lat: 40.068553
  level: 4
  lon: -88.243226
  name:  'Nolda and Carl Dohme Memorial'
- ap: 3474
  img:  'http://lh6.ggpht.com/RR0i4QdfoY8NkTQtssdOtDLhAEaCR7e-R4ipk5NzdKe9lTGDq2nyKI_7sF2BCXrgCZAZ2zEEtIzS7vg6Pu0hzA'
  lat: 40.126458
  level: 6
  lon: -88.218544
  name:  'The Vineyard Church'
- ap: 3174
  img:  'http://lh3.ggpht.com/mtgiI5TKcuExETpmdSqIFabkYgVZTaXXLJnaIyzxeHPIunWoj_Fj8BqqwZG4nVQwSnngv15YxD-c_m9CHkr3'
  lat: 40.111202
  level: 3
  lon: -88.226447
  name:  'Boneyard Creek Memorial Streamflow Gaging Station'
- ap: 3474
  img:  'http://lh6.ggpht.com/pxaCt7clhIXc1RVGMMJZsmnbEWNWjFYJiUrQMev_SeOmXBothvOzmfnirQ5_W8CMa7hpigqydQhKMa4XFCAi'
  lat: 40.108173
  level: 7
  lon: -88.230209
  name:  'Mural on South Sixth Street'
- ap: 3474
  img:  'http://lh6.ggpht.com/BzDhCANV_iNTHhKFBGLuaUqOvChRZtPWnJ2Xk4h7NsKJHmTGgCWtFHWv2PpDA2fCsHHKSCRTrUNK8AKrLRnS'
  lat: 40.108066
  level: 5
  lon: -88.230687
  name:  'Community United Church of Christ'
- ap: 3474
  img:  'http://lh5.ggpht.com/1yq3oFq9p_Yl5cUf5h7IEfZPAbae2MT7lA0DFo1DHwPWPZJJ-Ez-2AE2oTzHEHWsEJQVUcUwh3j_d3kOYgDS'
  lat: 40.110095
  level: 6
  lon: -88.22862
  name:  'Alma Mater Plaza'
- ap: 3474
  img:  'http://lh3.ggpht.com/b9HBD2zL4T02YqqDOnuBzYEU0UECTZDRgjLjZJV7cnX75wbmiWtc5yBUo_FZrZ8yBH69UsrbeJlq-VS-mPmi'
  lat: 40.109438
  level: 6
  lon: -88.226301
  name:  'Illite and Clay Mineralogy Plaque'
- ap: 3474
  img:  'http://lh6.ggpht.com/yYW6Egg1lWn6UqqLzlgqwCQhtbuxiZSW4TmvI1XBPs33OTTJ0oh51XZXOIILxGI2juoO-E_YfG5UHmeb34rSOw'
  lat: 40.109165
  level: 6
  lon: -88.230269
  name:  'John Street Plaque'
- ap: 3474
  img:  'http://lh5.ggpht.com/39qvivJbsTr57F8HWz9_3WhqwtI6kCbL9qeIckApwB7s51qHqm4RS4qZLPkY2GUv6A2wi2wrlNxhnIN6xGKS'
  lat: 40.113427
  level: 5
  lon: -88.229089
  name:  'Lee Williamson Memorial'
- ap: 3474
  img:  'http://lh5.ggpht.com/cHXnlWuRvdsWlYl544dN4Z4dFmU3Wzw1BEovUj84953CC59BdwR-5pDK8MUkpnAECo3RjUVQMAS0elR08dvD'
  lat: 40.115302
  level: 6
  lon: -88.224932
  name:  'National Center for Supercomputing Applications'
- ap: 3474
  img:  'http://lh3.ggpht.com/xId6g6VicbS3F1vf-TwfkAOcAj2J4qElQNbgW1wmhWy5cxh-ZSjfN5a3K9w7mGOmQymgNDrLMQCjkUPl_ifzcA'
  lat: 40.111517
  level: 6
  lon: -88.224103
  name:  'Ceramics Building'
- ap: 3474
  img:  'http://lh6.ggpht.com/iVHoGDIqnjdRupoPTpZLPtrzaCpEGW6HV4QHZ5WW185rmkrOxvl-C7uIN_gNZnCrm-djktoPC1J-9vjBZfCb1w'
  lat: 40.115718
  level: 6
  lon: -88.228521
  name:  'Red Lines Sculpture'
- ap: 3474
  img:  'http://lh5.ggpht.com/Lci4hchvPddvCn0adEUsjrUPGPoQlR5HVSfAA694lfczUe6nbgy8qQsLRgRnZJ4nHPN-ogww3D4BAXJpBawznA'
  lat: 40.114734
  level: 4
  lon: -88.22362
  name:  'Friends of WILL Plaza'
- ap: 3474
  img:  'http://lh3.googleusercontent.com/NRpdP-ebGuykq3sH1NZBQVjhmSdVJW3F4MTCRdXrWKQf3Z5dBgo0Phhyqnel5IrJmriQRmJNFR12lRDrjxJ9'
  lat: 40.114911
  level: 6
  lon: -88.227781
  name:  'Electrical & Computer Engineering Building'
- ap: 3474
  img:  'http://lh3.googleusercontent.com/7F3ArbPGhGx3ARCB26P8ldeKhXR15uyu4UN1LUyzoEGT06tuE6FPUKzyT1cdcLR7IVr6pBXdMLRdER5o4ZY'
  lat: 40.111715
  level: 1
  lon: -88.207738
  name:  'Urbana''s Bell'
- ap: 3474
  img:  'http://lh6.ggpht.com/Ka3_jVwGHc3wyrranDgkb0UqVN7M7Nbduod4wPmrn2Z51l0LRk5C3Pqg-Ml443gh9dYYglolVJmLLA8ZZcF90CPY5mu8fVkZyRifcuECtQnRhlBCGA'
  lat: 40.111685
  level: 3
  lon: -88.208653
  name:  'Iron Post'
- ap: 3474
  img:  'http://lh6.ggpht.com/RH3MbwozH7YnjZhF6W7_9XqmrK02-9MNQd_3QdyYWQZ9OkYL4uEh1afAxpqy_DfYXl_LAIhTAmpIL_8JG68'
  lat: 40.111284
  level: 2
  lon: -88.208185
  name:  'London Town Mural'
- ap: 2911
  img:  'http://lh5.ggpht.com/nWEtxuKQdy0teBBue1DYmG7P3SF5-3A6zlB7GwVHBWlolAZYGq6Br78lWcF9ltFy-KeSlozXie2RmU6JfCUX'
  lat: 40.142673
  level: 6
  lon: -88.244603
  name:  'Italian Statue'
- ap: 2911
  img:  'http://lh3.googleusercontent.com/gCJN301o7TKMPpTwXYpuWceaR0wtjm4S3By0SJ5ubrMNK0UEKo6bMcldlreNdLDqpnrYOFmjqByM6vCJDCT-'
  lat: 40.086378
  level: 4
  lon: -88.251308
  name:  'Life Lessons from Kimberly Kueffler'
- ap: 2911
  img:  'http://lh4.ggpht.com/OKjZe5DNbqsjBvhTWI2C_GTSbIMUanllb49pzoadj3izBmngp5kFNgLokw6jbL1Y3BnreLD-LmzLdNEx-eRI'
  lat: 40.105694
  level: 5
  lon: -88.225345
  name:  '1981 Iota Chapter White Anchor'
- ap: 2724
  img: http://i.imgur.com/5j1qaiT.png
  lat: 42.40148
  level: '?'
  lon: -86.287044
  name:  'be78c15683554893a96f56b528eb8f83.16'
- ap: 2724
  img: http://i.imgur.com/5j1qaiT.png
  lat: 41.891383
  level: '?'
  lon: -87.610138
  name:  '8490a15bbc6d40e68d80c7d9626f193c.16'
- ap: 2724
  img: http://i.imgur.com/5j1qaiT.png
  lat: 41.887284
  level: '?'
  lon: -87.613057
  name:  'fd03f88ca8384a13bd1b6ea60bcec0a7.16'
- ap: 2724
  img: http://i.imgur.com/5j1qaiT.png
  lat: 42.401723
  level: '?'
  lon: -86.280789
  name:  '4223928c11f54f978302390dae5cac4c.16'
- ap: 2724
  img: http://i.imgur.com/5j1qaiT.png
  lat: 41.86308
  level: '?'
  lon: -87.614121
  name:  'e0c6eb1a4c424ec1a4649a959fed8908.16'
- ap: 2724
  img: http://i.imgur.com/5j1qaiT.png
  lat: 42.403038
  level: '?'
  lon: -86.270821
  name:  '46bae287c222465c910f5a07338d2fc0.16'
- ap: 2724
  img: http://i.imgur.com/5j1qaiT.png
  lat: 41.8879
  level: '?'
  lon: -87.612783
  name:  '4eb307f4c630437db5e3ae701016519a.12'
- ap: 2724
  img: http://i.imgur.com/5j1qaiT.png
  lat: 42.401928
  level: '?'
  lon: -86.282129
  name:  '85c85407c75c4644a1e41ffa5a211494.16'
- ap: 2724
  img: http://i.imgur.com/5j1qaiT.png
  lat: 42.401972
  level: '?'
  lon: -86.281143
  name:  'f8b2c5c42445442e982537e565c986af.16'
- ap: 2724
  img: http://i.imgur.com/5j1qaiT.png
  lat: 42.40188
  level: '?'
  lon: -86.282463
  name:  'b9d68e45473941df8150e2fe46e65617.16'
- ap: 2724
  img: http://i.imgur.com/5j1qaiT.png
  lat: 41.886514
  level: '?'
  lon: -87.613201
  name:  '5efc6c0ab2684acd9b39968d45364fa9.16'
- ap: 2724
  img: http://i.imgur.com/5j1qaiT.png
  lat: 42.402992
  level: '?'
  lon: -86.269691
  name:  '866f8f1cccda4bcb80bcf803f082bb1d.16'
- ap: 2724
  img: http://i.imgur.com/5j1qaiT.png
  lat: 41.891065
  level: '?'
  lon: -87.61055
  name:  '5f5a1a66edbd45a5bcdb4032a5f5d782.12'
- ap: 2724
  img:  'http://lh4.ggpht.com/bzGBa_8g8we9vEYlZ-a10Ugz_B36DNFCNFsnUmAPy3Aji53kcVj0FaVE28zxnedZgY5Ozi94A8obmXuFQ1vL'
  lat: 40.132632
  level: 5
  lon: -88.279968
  name:  'Vernon W Fitch Memorial'
- ap: 2724
  img:  'http://lh3.googleusercontent.com/abyzHmsDcu4wr2nZ5KrzfryQDjq08lgz16ggCtHboK-pAhp8lhjyJoStUFTg-XDe4SPzYjAxvNLQuix4tsgc'
  lat: 40.132193
  level: 6
  lon: -88.279832
  name:  'Tribute to Olympic Athletes'
- ap: 2724
  img:  'http://lh3.ggpht.com/M4bKZ-CKQxZ9kYbwoDe79j6v5hIrWVwAcRzAUm9hg6fREm0ubCBwul695BAa_BhnyxOXdXIub7UvBaqxHnk'
  lat: 40.098803
  level: 4
  lon: -88.283425
  name:  'Taylor Memorial'
- ap: 2724
  img:  'http://lh5.ggpht.com/Tn5ARN-X6VTc2q6atZ2WYq3c2g3gbSGXu6_vXf1MDwHfLpdTtnQ-CilBAVGvL6R-SHhq3fJ4WZI-yiJKmIId'
  lat: 40.110398
  level: 5
  lon: -88.235143
  name:  'US Post Office, E Green St, Champaign'
- ap: 2724
  img:  'http://lh4.ggpht.com/vxjetUOC6_S8Ru3Q1ivzG4NE4bAAWg7_opiMwStExCoUHiRaIab8NyXLypEOAo7KBtsRQRzJX-TimhsOlBu3'
  lat: 40.087121
  level: 4
  lon: -88.251406
  name:  'Amdocs Shelter'
- ap: 2724
  img:  'http://lh5.ggpht.com/_gJqtOHLZ9UHsmd_iLjxMsPw5eF5YzqE63qEAzURvSp_3OL9ZrPjM-usiUeYx95b7zTdNodab42cQiyiRRja'
  lat: 40.087835
  level: 4
  lon: -88.251299
  name:  'Amdocs Shelter'
- ap: 2349
  img:  'http://lh3.googleusercontent.com/OJqY1AUoZ28MDbchhtJ4BXjAeEUJsIUW9en5XctYJukeTYOV_zmwBnngt6wmdVqSjj0G4qwF-Mr7Hsqx8LKl'
  lat: 40.109736
  level: 2
  lon: -88.224983
  name:  'Methodist Symbolism'
- ap: 2724
  img:  'http://lh6.ggpht.com/C7ThuP5fwrDTu5cMDpoeGmRjotNh6eUnPf3ksvSsUj5NkHZ0yKbIUnF8cSikhX-I_7O42CTwqjhLq9z3jkIL'
  lat: 40.111844
  level: 6
  lon: -88.228609
  name:  'Talbot Labs '
- ap: 2724
  img:  'http://lh3.ggpht.com/HX3mWBGofQk08Qdp7A6KMK1AnSXlLEPJR-n6oeX69Efiiss29GHsLiDsHhRS5K8DrXh-QXP1T0AMaOsJmx_w'
  lat: 40.106921
  level: 6
  lon: -88.230145
  name:  'University Lutheran Church'
- ap: 2574
  img:  'http://lh4.ggpht.com/ZwDzLvPP0KTL_mUj9ta-0DRkbA4q3X7b-r02bm3rTibFkPbu00GKehClddYfSkXbwVuJ4pjt4T7yo7ou54ov'
  lat: 40.111869
  level: 4
  lon: -88.227932
  name:  'Talbot Lab Mural'
- ap: 2724
  img:  'http://lh5.ggpht.com/WZc539Zuz4CnOeahoDxnw7bXfoXbAW8PlbPdBvZNK5s1q7hQoFcVebhZRoTQV6uPovHywWaXUsleNvoQP2wE'
  lat: 40.113647
  level: 6
  lon: -88.227628
  name:  'Micro and Nanotechnology Laboratory'
- ap: 2537
  img: http://i.imgur.com/5j1qaiT.png
  lat: 41.892269
  level: '?'
  lon: -87.609873
  name:  '93a1b13c02d04db99ebaf46f118bef83.16'
- ap: 2537
  img: http://i.imgur.com/5j1qaiT.png
  lat: 41.883186
  level: '?'
  lon: -87.613692
  name:  '43ff6baa80f8414db3fb51d1877b35d3.16'
- ap: 2537
  img: http://i.imgur.com/5j1qaiT.png
  lat: 42.40187
  level: '?'
  lon: -86.282885
  name:  '925374a07ea54991930c54b17438563f.16'
- ap: 2537
  img: http://i.imgur.com/5j1qaiT.png
  lat: 41.863449
  level: '?'
  lon: -87.614021
  name:  '0747fa0741784a8790d829fe4656a9f0.16'
- ap: 2537
  img: http://i.imgur.com/5j1qaiT.png
  lat: 41.86491
  level: '?'
  lon: -87.613576
  name:  '90e2ec5f32414d4595d1518dfe80bceb.16'
- ap: 2537
  img: http://i.imgur.com/5j1qaiT.png
  lat: 39.719395
  level: '?'
  lon: -90.247862
  name:  '532ad3dc3fe14846ab862abf425a5b4e.16'
- ap: 2537
  img: http://i.imgur.com/5j1qaiT.png
  lat: 44.61588
  level: '?'
  lon: -87.428349
  name:  'a27975b1a2bc49ca9b4dd063497fde96.16'
- ap: 2537
  img: http://i.imgur.com/5j1qaiT.png
  lat: 42.767852
  level: '?'
  lon: -86.202976
  name:  '008ad68521fa4a23bf7a536bf812ed37.16'
- ap: 2537
  img: http://i.imgur.com/5j1qaiT.png
  lat: 44.607633
  level: '?'
  lon: -87.43205
  name:  '8e6a8255e7c342e8806313a728bf9918.12'
- ap: 2537
  img: http://i.imgur.com/5j1qaiT.png
  lat: 41.860189
  level: '?'
  lon: -87.614266
  name:  '25d45ae679034789be3dae0702b41d98.16'
- ap: 2537
  img:  'http://lh4.ggpht.com/a1FVYK5FqYQAl_d_TEIbk8PE4kKJVyIHNjJiJWlhHcozcrVi9qVZ137z5mYYlOeePqk0aqBqWwdZxEIgkxz0HA'
  lat: 40.132588
  level: 4
  lon: -88.279491
  name:  'Ronald D Schafer Plaque'
- ap: 2537
  img:  'http://lh5.ggpht.com/DebAit5dt4fRUaqvm-qbtIu1w1qep15Lpzb1kkMbiUT3_qT31rdXxCeIVQ_szOWqP16Es-q5irPAf-80kc6IAA'
  lat: 40.0986
  level: 1
  lon: -88.283262
  name:  'Diaz Memorial'
- ap: 2537
  img:  'http://lh4.ggpht.com/GH0L77ajJqdeWLVc2Mn_FFhT4HGW8EMC3C1us7H_4f8LxWfQRnYQL6J8MDPNvomSwZP9gl8yMqo0qmwuOphB'
  lat: 40.098826
  level: 5
  lon: -88.284599
  name:  'Bocci Ball Court'
- ap: 2537
  img:  'http://lh3.ggpht.com/07XrBN-er6Ecleor0n9RJ4DfGO6B2yn-ZxjI-Uy8Ba46Jtb6cXNVmATPiPiGyk-1jZ4wxa7-EeIWbWUqArCG'
  lat: 40.142554
  level: 6
  lon: -88.243468
  name:  'Dog Heart'
- ap: 2537
  img:  'http://lh5.ggpht.com/FEi_8ic1_FXYTyUlXgNz6IOiBsLCPTURCMQCXc2T-lpcQV-d_wdBC3YEDYltNn09_oi76voYbhGSi8P6r6QZ'
  lat: 40.141914
  level: 1
  lon: -88.235279
  name:  'Judson Chapel Baptist Church'
- ap: 2537
  img:  'http://lh3.googleusercontent.com/hJZWoErzM-MuXulq4FlhlZwMbJX1Isd81GBUBVKayd57jVIVxUle3itd-1DRKo2VaNXznWr1X639fa44Etk'
  lat: 40.141919
  level: 6
  lon: -88.244611
  name:  'Marketplace Mall Carousel'
- ap: 2537
  img: http://i.imgur.com/5j1qaiT.png
  lat: 40.110982
  level: '?'
  lon: -88.163907
  name:  'Urbana Post Office'
- ap: 2537
  img: http://i.imgur.com/5j1qaiT.png
  lat: 40.084939
  level: '?'
  lon: -88.168778
  name:  'Stone Creek Fountain 2'
- ap: 2537
  img:  'http://lh3.ggpht.com/AD9d7JPmLdYRdpxESO9iORy1GRXAcN1jzn8dDNvm6FO7cIHVsjwAKI8LmbW4dico1Xe9jzJfsZZriP0CxXA46w'
  lat: 40.104084
  level: 7
  lon: -88.241616
  name:  'Honorary Memorial Steam Ventilation Pipe'
- ap: 2537
  img:  'http://lh3.googleusercontent.com/0sr-qQ4Z1TW1AZ62RFHko9Cbb8g36Renb3nRyxFJr_r68iVMsuh_EwrbThhXg2hVyqNQSjX7rFVvrWpfHS4'
  lat: 40.103958
  level: 5
  lon: -88.240451
  name:  'Bruce D. Nesbit African American Cultural Center'
- ap: 2537
  img:  'http://lh6.ggpht.com/9gMh8fB58u0oHc_J2mpLyKwtakXUwh9gBBf6Rgi2dc1Khes439IR93o3xpNaE45sGeCW56uW0NY7n_gLwvmP'
  lat: 40.086686
  level: 4
  lon: -88.252282
  name:  'Elsie Mattis Springer Memorial'
- ap: 2537
  img:  'http://lh3.ggpht.com/ei2Kly4PJYB7wpv5MtMVvHz793oQIWOLbz-mjq2ICitv-6BTGVsfA0kPQXiwg3O2Mi__LvZvuashS63u2rwa'
  lat: 40.117638
  level: 6
  lon: -88.227214
  name:  'Under the Sea Mural at Presence Covenant'
- ap: 2537
  img:  'http://lh3.ggpht.com/OtT56RocwPxPgcve6b9P9h4GvUFT5XVlsBBqmCg-K8i6I1c-3RVRip5KtAoqlaUqE2BUkSwl8clISDit9EU'
  lat: 40.119453
  level: 3
  lon: -88.219746
  name:  'Family Video'
- ap: 2537
  img:  'http://lh4.ggpht.com/cXzBVEYwsBuU4BX2Fkwi_8TwqSW6ExF6m7IyyHAOrdCMru_sr74MrtK8iGVa0zj3YFt--pdhmI5xwUIeJw'
  lat: 40.120191
  level: 5
  lon: -88.215485
  name:  'Champaign County Fairgrounds'
- ap: 2537
  img:  'http://lh6.ggpht.com/fBCIw-ohQqPYmU_DWfwbcZnXqbmVh6zOWlUta8mx1F53zxG1Wxr08J9-fOCaz1B9i_8Nb3Il_kqdxzdyRyc'
  lat: 40.109043
  level: 5
  lon: -88.224397
  name:  'Archaea Plaque'
- ap: 2237
  img:  'http://lh6.ggpht.com/eVUed3229Zh9saFzaZQcI6LXsyDB0IJxc9v-Aa9Oa0AhjQLXBIVSuu1qUQwJVXWgmXYPY9sqTzK73Le4BuU'
  lat: 40.11122
  level: 3
  lon: -88.224097
  name:  'Nuclear Radiation Laboratory'
- ap: 2237
  img:  'http://lh6.ggpht.com/vlKOFCgVZb_8XoZHDdzD2X9Xsejb8QVVqEM5U4YfgnKJbQIIHHSK2hSpgycF7vqRkGKRYYnbjVTyKS8dsHF3ChRyF01faLh907jhNd__xiEkGTWx'
  lat: 40.111225
  level: 3
  lon: -88.226537
  name:  'Fire College Plaque'
- ap: 2537
  img:  'http://lh3.ggpht.com/KxQsev6i7POmNh1IadCWwWQSMdCuLIYpPwIdenSlVtzum523D1R-1kfeTbuOGTkt_jDwn4jswCu1edkumm2-'
  lat: 40.110037
  level: 2
  lon: -88.23549
  name:  'Red Lion'
- ap: 2537
  img:  'http://lh3.googleusercontent.com/vw4Js8jf11Ok889K1stO5ujNjIO9Ah9DEbsg1xBTrVbaeyBetcG75B8YS8CkQA0KVC8NA5Z02n220SI1UzdB'
  lat: 40.10985
  level: 5
  lon: -88.227236
  name:  'Illini Union'
- ap: 2537
  img:  'http://lh4.ggpht.com/0j8eeTKJgjnYhHpf4qH_70CZHLbujC5v-XP_ndcqh1xIR-5V2K_CGdjIe1ZfMbwvSyISxxYKoZynw1DaQcj8'
  lat: 40.105874
  level: 5
  lon: -88.230562
  name:  'St. John''s Rectory'
- ap: 2162
  img:  'http://lh5.ggpht.com/tGPCRHNr4nuHRON7RaLcO3CcrRygkmN1XBdp0HsdTAkUF_IrbfmlyzJuqHTZzJonP7RBwdy8c6q5llROUur7YA'
  lat: 40.10975
  level: 2
  lon: -88.225299
  name:  'Methodist Scriptures'
- ap: 2162
  img:  'http://lh5.ggpht.com/LqyQMijwA_lYTV2EqLa9HoWNGh9YIVl8tE-65352cSjsJQ_XZYhixnzzoYuqTR31UzW060oLhJl0avgLPRpyZw'
  lat: 40.111
  level: 2
  lon: -88.22715
  name:  'Ross J. Martin Memorial'
- ap: 2537
  img:  'http://lh3.ggpht.com/5LauQ0fBXP1B19qO58sJB9VHwcGam3p1zZ8-GNTq2upSQO5r3w_I99N4XONxBuFaDcmb-LACk1RonkPGJKUx6_zeun6bCqEKIgtjgoInoPAgA-Bo'
  lat: 40.104719
  level: 1
  lon: -88.225076
  name:  'Darwin''s Playground'
- ap: 2537
  img:  'http://lh3.ggpht.com/fxsMa6MK6sWcY8fyTRPmRixomHagKag2YrMZjovxjujmavVawLdmU0Mi0HpNq5kH7UUoXfELEoBOFTkzeRwV2hp9PknjajWlvhX6jYIyUSrrH76k'
  lat: 40.10952
  level: 6
  lon: -88.228288
  name:  'Altgeld Hall'
- ap: 2537
  img:  'http://lh3.googleusercontent.com/hvoLMUc9UoNVVPttxWTc8PzOWdu5MBmPETnBexH7Alyl20WGCrNa0G_j7DwvD3qbhqpTaeThFhGDV2rCtp8'
  lat: 40.107629
  level: 6
  lon: -88.224484
  name:  'Bucky Balls'
- ap: 2537
  img:  'http://lh5.ggpht.com/VYMooLhz51W3fCgti3L9LEQNMJjmFeW30saxIYK34yGEReG1naEKEd3eW1uyFgSlzpu-P5KertNDe4Z6qu8'
  lat: 40.109913
  level: 5
  lon: -88.228393
  name:  'Alma Mater Statue'
