- ap: 9472
  img: http://i.imgur.com/5j1qaiT.png
  lat: 40.312242
  level: '?'
  lon: -88.201368
  name:  '2012 Employee Dedication Bench'
- ap: 8722
  img: http://i.imgur.com/5j1qaiT.png
  lat: 40.106513
  level: '?'
  lon: -88.5585
  name:  'Lodge Christian Church'
- ap: 7222
  img:  'http://lh4.ggpht.com/W2chhQwPqSJEkl57NVoIL-OE4KFvJfp7Bsrrxza1apCYltcT3npz95LJxqHxvT9ZZu7wxF2gQy-5bpKal2p2'
  lat: 40.115838
  level: 5
  lon: -88.241338
  name:  'Illinois Terminal'
- ap: 6848
  img: http://i.imgur.com/5j1qaiT.png
  lat: 40.341303
  level: '?'
  lon: -88.525734
  name:  'baa4782d579a4b15b184b207abe0257e.16'
- ap: 6848
  img: http://i.imgur.com/5j1qaiT.png
  lat: 40.341598
  level: '?'
  lon: -88.525757
  name:  'c9c7bb1cc98a403fb4aff200ccc5f242.12'
- ap: 6659
  img:  'http://lh3.googleusercontent.com/FMrsRGg4e1AuMu6m4uCIpM5nawtelx8reIfMtog4nuxXU9C7--UKQnUEAm9s4Vc7OfMjfIDX5loNOw4Agz2HAw'
  lat: 40.118715
  level: 5
  lon: -88.242373
  name:  'Richard D James Mural'
- ap: 6098
  img: http://i.imgur.com/5j1qaiT.png
  lat: 40.342828
  level: '?'
  lon: -88.525765
  name:  '487b3aa9f43e4b18b2b7699b56f0d8e0.12'
- ap: 5535
  img:  'http://lh4.ggpht.com/ryDcZUJK2aQ_fI0-hY850_t4ZmG2hNmtCx7cxbX83w3cnUWdI-ywpTuQrUVQNxGl3_DcxxNr6bupfDTsagRa'
  lat: 40.117107
  level: 5
  lon: -88.242467
  name:  'Radio Maria'
- ap: 5535
  img:  'http://lh5.ggpht.com/BUGNnLReyCBJJj9_zpqgwv5_CAyiW8fWBpyVs0ip1hT5NEE6YKCYzlc8ahldKzk_xv-4uckNJNb6NrJd6r33qg'
  lat: 40.116989
  level: 5
  lon: -88.242255
  name:  'Blind Pig'
- ap: 5161
  img: http://i.imgur.com/5j1qaiT.png
  lat: 40.275273
  level: '?'
  lon: -88.353476
  name:  '28272aaee3234a039246a4282f96c916.16'
- ap: 4598
  img:  'http://lh3.googleusercontent.com/0hydzoUNO41CcF2qZhlhMbaEgMVFjql3_RSDgrJLVIToqRsqh2aBcAoXsrxAlwXqgTcB1R71HZiHrjq1KdnXgA'
  lat: 40.11243
  level: 5
  lon: -88.235749
  name:  'Fountain at Scott Park'
- ap: 4598
  img:  'http://lh6.ggpht.com/QKHOcl5WKE1EB7Y8PfPqhuJQN7SxpWIvLb13vJp2KJC61ToSi1evTEpgeOtPjAfKuIlQnBq1tApVM5TwJHI'
  lat: 40.118042
  level: 3
  lon: -88.248912
  name:  'Indian War Memorial'
- ap: 4411
  img: http://i.imgur.com/5j1qaiT.png
  lat: 41.946998
  level: '?'
  lon: -87.639407
  name:  '19acef1b08684397bf268a34e9bdbb7d.16'
- ap: 4411
  img: http://i.imgur.com/5j1qaiT.png
  lat: 42.396552
  level: '?'
  lon: -86.283274
  name:  'Kids Corner Park'
- ap: 4411
  img:  'http://lh6.ggpht.com/ea6HxAw7m0OhhPqJJkZR9u60pR1sab_JdxaOyEltqmQd-63FFJzPY72jEnu08g9Gcjjj5cf3jyyS_M1E7OIbfg'
  lat: 40.11616
  level: 5
  lon: -88.241422
  name:  'It''s A Mistree'
- ap: 3848
  img:  'http://lh3.ggpht.com/4NvHbplhArQJrKIkJMw4Ia0q_OtktXP-jC6FtPlgn6V49hv8LJbu0RC2ff0eTy3bF3ihXL12v5CPGwvlRNBF'
  lat: 40.127538
  level: 8
  lon: -88.199119
  name:  'Perkins Historical Site'
- ap: 3848
  img:  'http://lh6.ggpht.com/RR0i4QdfoY8NkTQtssdOtDLhAEaCR7e-R4ipk5NzdKe9lTGDq2nyKI_7sF2BCXrgCZAZ2zEEtIzS7vg6Pu0hzA'
  lat: 40.126458
  level: 5
  lon: -88.218544
  name:  'The Vineyard Church'
- ap: 3661
  img:  'http://lh6.ggpht.com/ka79B_ahK9kHLiOCOnKsp3SooZlPGgMuIOO25OaqPU7eoUALOBzaa40ZCStdo4v6rCYW0VS_pNgW3PJyUDKxpXI-n55zohIxJwRJEq5gslJKwS5ykQ'
  lat: 40.11794
  level: 3
  lon: -88.248679
  name:  'Fonderia'
- ap: 3661
  img:  'http://lh5.ggpht.com/YocRb1dDCcpm0U8keXOUw8027b8CDe6BEVz67_8upRGTD4LmkMdcszz7gGWAnWWHrPD-fgNmRRVukdg-s5u8zw'
  lat: 40.127387
  level: 5
  lon: -88.18759
  name:  'Judge Webber Park'
- ap: 3474
  img: http://i.imgur.com/5j1qaiT.png
  lat: 42.783314
  level: '?'
  lon: -87.761254
  name:  '049de703919c4b9c8237fb9c1edf1a72.16'
- ap: 3474
  img: http://i.imgur.com/5j1qaiT.png
  lat: 41.986171
  level: '?'
  lon: -87.649506
  name:  '04c6c22af52c457898048b9fda6418bd.16'
- ap: 3474
  img: http://i.imgur.com/5j1qaiT.png
  lat: 42.754392
  level: '?'
  lon: -86.12641
  name:  '725af867bcdc4bb4b9dabd6896ad2a1e.16'
- ap: 3474
  img: http://i.imgur.com/5j1qaiT.png
  lat: 41.946678
  level: '?'
  lon: -87.638965
  name:  '7a817a2d2b8a473e90bb1d0607ebdf0b.16'
- ap: 3474
  img: http://i.imgur.com/5j1qaiT.png
  lat: 40.878365
  level: '?'
  lon: -88.777245
  name:  'a58a2b0d69594c249e6fa1e2f1d103b1.12'
- ap: 3474
  img: http://i.imgur.com/5j1qaiT.png
  lat: 41.961753
  level: '?'
  lon: -87.635149
  name:  '6c2507186ab34c85872712308bb809fe.16'
- ap: 3474
  img:  'http://lh5.ggpht.com/quR7Kzalr2uxeV70VwLSj7LDpe5ywDhO4LlSp1eTAhoVOCsyWIga42hKlmcrjiGlI3hZd24DWvtOfYe21RM9yA'
  lat: 40.11721
  level: 5
  lon: -88.236627
  name:  'Don Moyer Boys and Girls Club'
- ap: 2949
  img:  'http://lh5.ggpht.com/c-upLAoA6V12_Enn5doC2Hqtp3W9dLMIb34VHt0aVni2lW2OF5Lddn2c-1XcxmmaN7um9eyxqOF5c3c0hs4'
  lat: 40.118139
  level: 1
  lon: -88.248407
  name:  'The Americans Creed'
- ap: 2724
  img: http://i.imgur.com/5j1qaiT.png
  lat: 39.680223
  level: '?'
  lon: -88.288274
  name:  'f0ae5f8377c046e2b413e075d00bedcb.16'
- ap: 2724
  img:  'http://lh4.ggpht.com/9Rg84EpxbL2Yg5gK7imF1lg4LpVcRz8fS4QGQe_hQfaeN-crjjc8p1MnWvQtnHIJ9c2N-tOiI2lgFMkIfP-V'
  lat: 40.127139
  level: 5
  lon: -88.23398
  name:  'Church of the Living God'
- ap: 2537
  img: http://i.imgur.com/5j1qaiT.png
  lat: 39.927387
  level: '?'
  lon: -88.827943
  name:  '3a93d428514c450199fb8ecd47e5b43b.16'
- ap: 2537
  img: http://i.imgur.com/5j1qaiT.png
  lat: 40.012126
  level: '?'
  lon: -88.725116
  name:  'dc665dcfd2fb45bd9e43f361d8096357.16'
- ap: 2537
  img: http://i.imgur.com/5j1qaiT.png
  lat: 39.984616
  level: '?'
  lon: -88.263266
  name:  '6fc2b246c1ea47d0ba7c8aaacc073f38.12'
- ap: 2537
  img:  'http://lh3.ggpht.com/STEfnDDHEff3fffoWiEjvWm4SETgCRyRIvPgf92kzrsxo3sdh1SNg1AmGiFqvspDfSx0OXri-AXVfOZRWRMe'
  lat: 40.13156
  level: 6
  lon: -88.239027
  name:  'Human Kinetics Park'
- ap: 2237
  img:  'http://lh3.ggpht.com/F_QKFluz0Gh6sC9FPGcL_wT-n-zRGyp0qQ9mnghB2L5Aer_c6Qm1q7KeGoCaGwDoJax_R_sK1atr3F0hP4Ap3w'
  lat: 40.136807
  level: 3
  lon: -88.257174
  name:  'Champaign Fire Department Mural'
- ap: 2312
  img:  'http://lh3.ggpht.com/xAJIzhGMpnqEYisIgB5-btiULPi6cL4uLys9fqf8_smF-6qAXP9rUsCbWIgPVIIHfGINQNF2Ypx58YvDo1hh'
  lat: 40.127093
  level: 4
  lon: -88.23927
  name:  'Bridgewater Park'
- ap: 2537
  img:  'http://lh3.ggpht.com/1G0o5RjtXyfAjbI-E2honhhelnuiq4lIkpHmB44e-AwSBuIxVOdLPVYjImbTMS8kyBdZuKuiMQHciUIdAWg'
  lat: 40.118368
  level: 2
  lon: -88.243737
  name:  'Frank Robeson Memorial'
- ap: 2537
  img:  'http://lh5.ggpht.com/3RfiPeOzF67ubNX-vkwUJ6-EYld6BKuoBernq0_9kOjlIsSPr3saR9FIQzN7uiw7ouF0CpNflOnL0mUj9zbqdQ'
  lat: 40.109452
  level: 5
  lon: -88.229031
  name:  'Illini Hall'
- ap: 2537
  img:  'http://lh5.ggpht.com/1yq3oFq9p_Yl5cUf5h7IEfZPAbae2MT7lA0DFo1DHwPWPZJJ-Ez-2AE2oTzHEHWsEJQVUcUwh3j_d3kOYgDS'
  lat: 40.110095
  level: 6
  lon: -88.22862
  name:  'Alma Mater Plaza'
- ap: 2537
  img:  'http://lh4.ggpht.com/q2L_InMJy4JZq79dX9LLf9XauoaXGOLl7SWvVyD9F_jIgyqpn7SsqHfY9EMYq1SLteTpj0cQDZN4f9x0IuvV5w'
  lat: 40.107273
  level: 6
  lon: -88.222942
  name:  'Tryon Festival Theater'
- ap: 2537
  img:  'http://lh5.ggpht.com/o-kaBPu6kwiDnL2T5S5uQNOaquEtumPFT9hq4jX9uRcqpMRXMO4B80QO3gskaj677koefR0kBxjAnWHs6uwL'
  lat: 40.108675
  level: 6
  lon: -88.221303
  name:  'Levis Faculty Center'
- ap: 2537
  img:  'http://lh4.ggpht.com/0j8eeTKJgjnYhHpf4qH_70CZHLbujC5v-XP_ndcqh1xIR-5V2K_CGdjIe1ZfMbwvSyISxxYKoZynw1DaQcj8'
  lat: 40.105874
  level: 6
  lon: -88.230562
  name:  'St. John''s Rectory'
- ap: 2387
  img:  'http://lh4.ggpht.com/m6NugtNnF8mim1fUMFDjmScu99lS5PjmUlCT9kKOOsIMqCH5uu5MRPhMusl6BPPpZ7Z3hnYTQZALmqSpLHxs'
  lat: 40.103652
  level: 3
  lon: -88.230025
  name:  'Pillars at Wohlers Hall'
