- ap: 13218
  img:  'http://lh3.googleusercontent.com/y0rrjoCeaUkyAgUkJRkr2IYQgDQ3K6Vt9sUdR7rpMiOaxHqewda8goYAgVa20Y8L1QHIIodAGPdbDuMZOok1'
  lat: 40.127703
  level: 6
  lon: -88.211526
  name:  'Busey Woods Trail - Wet to Dry'
- ap: 12657
  img: http://i.imgur.com/5j1qaiT.png
  lat: 40.312242
  level: '?'
  lon: -88.201368
  name:  '2012 Employee Dedication Bench'
- ap: 10220
  img:  'http://lh5.ggpht.com/sF7lKjQa6S3nhaNE0eY9h2BozLXUrtnucsZvqAKKD_ZrLPFTVf8thR2l28H7-R4sxheNrwB3hEujhIk1_4E'
  lat: 40.126699
  level: 7
  lon: -88.209995
  name:  'Fly Fishing Sculpture'
- ap: 9283
  img:  'http://lh4.ggpht.com/GsF83mQilY6LIEvSeaGzU2sGjQnFmNgTzi6gPFGKt1K-Yd40nunFYDQs97tOMf-RgMbeGBl2pwi33cd0L11U'
  lat: 40.126708
  level: 6
  lon: -88.208946
  name:  'Busey Friendship Grove'
- ap: 8909
  img:  'http://lh4.ggpht.com/MhW7sdKYdOt__Gmefy7CMOI4_Q8_dqGGb_qolwk4Uf7b_fpr8t5QM5QiCFUOe_ZpsgAfLhPSU_lbVTX5DIEX'
  lat: 40.125951
  level: 7
  lon: -88.209474
  name:  'Give Creeks A Chance Street Art'
- ap: 8720
  img:  'http://lh3.googleusercontent.com/5Te-dafekqHMAY-HjKfNk0CcYyFpxK86OuYWSOTFv8saT6pfl_rqyJMVlnF2ccsu1T2mA6ScXOl5SUPIMypR'
  lat: 40.126769
  level: 6
  lon: -88.215041
  name:  'Busey Woods Swampland Overlook'
- ap: 7409
  img:  'http://lh3.googleusercontent.com/hF5kZFrZGRZkYYPDY8q06SkEPkSLljkbEbCI4gcyZ1QU1-wpfBV_Cma3GT6YE6PTdRBZr-7NuaDvVEm7oQU'
  lat: 40.128105
  level: 4
  lon: -88.210924
  name:  'Busey Woods Trail - A Change of Scenery'
- ap: 7409
  img:  'http://lh3.googleusercontent.com/eTQ9CkXix_kovUmX48krAoSy9iHiLPqf47J3f7AZN6Rk3GFlkf4DJKkCp51iJvzi5Vt3M3wjjMcwOc_4scYq'
  lat: 40.127246
  level: 5
  lon: -88.210084
  name:  'Gateway Trail Information Kiosk'
- ap: 7409
  img:  'http://lh3.googleusercontent.com/IjFn38FDtBJH-mPUV2G-iLjG9eOxcQ0m6Go6BOImGLXhu03Bd5Vs8EtAzPrfKH7uQFYlI_S8eQCZkaZp7kTO'
  lat: 40.125757
  level: 6
  lon: -88.20788
  name:  'Nature Center / Family Aquatic Center'
- ap: 7409
  img:  'http://lh5.ggpht.com/n-WJVk4VFfgCVfLuyItrEjDCHgOd5YN1Z1ts6qT6-RmXvFyDeNKYarXwzwHKyd5B9tGmezRoEzKX4EFKmaY'
  lat: 40.124947
  level: 5
  lon: -88.210509
  name:  'Trail Marker in Busey Woods'
- ap: 7109
  img:  'http://lh3.googleusercontent.com/vRH1cgHOuzbgU69F49MdsOQye4VG9lH8rjDcYQWGq9_8VcBu010oHhoinNmA_Dn9JZGLmS7ehSQJ9h1uDMGBaw'
  lat: 40.107087
  level: 3
  lon: -88.227801
  name:  'Class of 1912 Pillar'
- ap: 6285
  img:  'http://lh6.ggpht.com/RR0i4QdfoY8NkTQtssdOtDLhAEaCR7e-R4ipk5NzdKe9lTGDq2nyKI_7sF2BCXrgCZAZ2zEEtIzS7vg6Pu0hzA'
  lat: 40.126458
  level: 6
  lon: -88.218544
  name:  'The Vineyard Church'
- ap: 6098
  img:  'http://lh6.ggpht.com/dIDmkL7jHZb1am2ptK9LrO6Ht_8jTKb3IOvGamBqIYzLXPgtEoPCV_9dMsqLxrgz8_MSq3UsEy9t49y_pqOd'
  lat: 40.125715
  level: 7
  lon: -88.2091
  name:  'Crystal Lake Park Aquatic Center'
- ap: 6098
  img:  'http://lh4.ggpht.com/KS4k0iDFceOcG_wEnQeqAeJpCkwjbjTItb2FUsyUJGsnhDizNqvrXmfee70SUhCcQ10_m1vv1vtcNRrFhIc'
  lat: 40.126039
  level: 7
  lon: -88.209117
  name:  'Water Sculpture'
- ap: 6098
  img:  'http://lh4.ggpht.com/JVNlRlxb-5k_pDpi5lUduOZu2NO-CKdaVaa4Jj_IHDLIxC31OEc6zpyO8qklRI58_wB2fH1m8LUHOJW_GME'
  lat: 40.125389
  level: 5
  lon: -88.209627
  name:  'Crystal Lake Tree House Club'
- ap: 5535
  img:  'http://lh3.googleusercontent.com/uMbzVioq9unnFDGacYnsGny4JTtrKoGuPJj22cChPVUqowmnw1xksjfIosvYJ09QV75VuGd5-rq60N1a6BxG'
  lat: 40.127017
  level: 5
  lon: -88.209948
  name:  'Busey Woods Gateway Trail'
- ap: 5535
  img:  'http://lh3.googleusercontent.com/3D4iw0KqepF1bbKRNj6ebypAUq7FVTqBJbO7gFD--1oICgz-GwSb12jnN9ELtg61k8V8G_6E4C1pdiMj8qz-Hw'
  lat: 40.128772
  level: 4
  lon: -88.211041
  name:  'Busey Woods Trail Shifting Views'
- ap: 5535
  img:  'http://lh3.googleusercontent.com/3Myf6CnmcDIYbRC1TWtiQ0Q34tm-r8kQZQ8GjoGZ4AI5ome7PHiB7E6Maihk_SvkVJF8LPW5RSjo36Bsa7VM'
  lat: 40.12807
  level: 6
  lon: -88.215897
  name:  'Busey Woods Trail Entrance'
- ap: 5535
  img:  'http://lh3.ggpht.com/V-oTVbkji_q7V9k0WGhQyDum7PEtruXdbp6e-PzZq3sFNxGWdA79FLEv8uGaZrcSwWE15UhTtBB0ZMW0Ig3j'
  lat: 40.127466
  level: 6
  lon: -88.216274
  name:  'Lincoln Bindery'
- ap: 5348
  img:  'http://lh4.ggpht.com/GCS0-CwKl9SLe2zfeL7FPDuKv5ZFDhlnX3hMXZSJLvK-u73RlgWbn_FgnOHZi-0wqMk52z_YLSAMReYTSaoP'
  lat: 40.10659
  level: 6
  lon: -88.227679
  name:  'Lincoln Hall'
- ap: 5348
  img:  'http://lh3.ggpht.com/F-cwL1kpN8KTxTiRAdaaAFictKYDbMRhPltdDuO0_6jhG8_6fxg1_yHzy1kBs1WXPRZ8UQDrxqY1fCdmHXFU'
  lat: 40.108042
  level: 5
  lon: -88.22808
  name:  'Earl W Porter Memorial Tree'
- ap: 4598
  img:  'http://lh3.googleusercontent.com/hJZWoErzM-MuXulq4FlhlZwMbJX1Isd81GBUBVKayd57jVIVxUle3itd-1DRKo2VaNXznWr1X639fa44Etk'
  lat: 40.141919
  level: 6
  lon: -88.244611
  name:  'Marketplace Mall Carousel'
- ap: 4598
  img:  'http://lh6.ggpht.com/WtqWBwqpYTSw3g9ru5NwcFn5iK5STxWgy2kv4OUTWqwtzx76-9Msz0eqoiw0qpEYE1U4zdt9rzzNZMDNagNg'
  lat: 40.107943
  level: 6
  lon: -88.226751
  name:  'Class Of 1917 Plaque'
- ap: 4598
  img:  'http://lh4.ggpht.com/p1kbhH-3K08NNqTt_6-223uI0PurGUV2HeAWGYPRx3OnNYMY-kARoW1zZ2pZBHthAYRZbIgf6ioRawHi0BmUx786y5ffm0kmZsskaOiluDUhSIiI'
  lat: 40.106173
  level: 6
  lon: -88.22719
  name:  'Foellinger Auditorium'
- ap: 4411
  img: http://i.imgur.com/5j1qaiT.png
  lat: 40.300414
  level: '?'
  lon: -90.059051
  name:  '8ee15f03cc19457b8c7e0ff8c0def982.16'
- ap: 4411
  img: http://i.imgur.com/5j1qaiT.png
  lat: 39.864806
  level: '?'
  lon: -89.595007
  name:  'aa11d688cb34472a9158d2ae1b367cf4.16'
- ap: 4411
  img:  'http://lh3.ggpht.com/07XrBN-er6Ecleor0n9RJ4DfGO6B2yn-ZxjI-Uy8Ba46Jtb6cXNVmATPiPiGyk-1jZ4wxa7-EeIWbWUqArCG'
  lat: 40.142554
  level: 5
  lon: -88.243468
  name:  'Dog Heart'
- ap: 4411
  img:  'http://lh5.ggpht.com/pnMcOl0FAs-A861T6mvs4EQGCm08ZQGxUcMdclhxsgyUThD6KymilbixZqTcT464ZFRUnjMoFee37DuNXxcm'
  lat: 40.10719
  level: 5
  lon: -88.226585
  name:  'College of Agriculture'
- ap: 3661
  img:  'http://lh6.ggpht.com/duOeXcOSQLWosdD0JJXg3pWWQp4t5sL0x9qDHoTIBFNOzEW0t53Lt2cnwgV2E_Su0l1ajIQxPtVbbK_sDRaS'
  lat: 40.141775
  level: 5
  lon: -88.242671
  name:  'Marketplace Mall Fountain'
- ap: 3661
  img:  'http://lh3.googleusercontent.com/mLqVBFC7xDFMCE6vvQLt7bEwzmAtOWSfPoxCDNPJ0aagTDdQtJZKZTbPDs_QXPyKJ-tqZHYr89xorZ0Aa0M'
  lat: 40.128515
  level: 7
  lon: -88.212038
  name:  'Busey Woods Trail - A Helping Hand'
- ap: 3474
  img: http://i.imgur.com/5j1qaiT.png
  lat: 40.160008
  level: '?'
  lon: -89.387825
  name:  '7bb0a855a0ad476da15c867fae0f4350.16'
- ap: 3474
  img: http://i.imgur.com/5j1qaiT.png
  lat: 42.099208
  level: '?'
  lon: -90.124409
  name:  '10ed20c191ba41f2adae711e31eefc91.16'
- ap: 3474
  img: http://i.imgur.com/5j1qaiT.png
  lat: 41.812964
  level: '?'
  lon: -89.960782
  name:  '3c1dbc0d09074f82a2a6e59c61662eb6.16'
- ap: 3474
  img: http://i.imgur.com/5j1qaiT.png
  lat: 41.562534
  level: '?'
  lon: -89.650933
  name:  '3a45fd306eda4e65b42f9e07672cd0cf.12'
- ap: 3474
  img: http://i.imgur.com/5j1qaiT.png
  lat: 40.121231
  level: '?'
  lon: -90.562682
  name:  '885c1ed8599f4cf789c7f8b515af72cb.16'
- ap: 3474
  img: http://i.imgur.com/5j1qaiT.png
  lat: 40.407552
  level: '?'
  lon: -90.15499
  name:  '3f2d0e4d31d447ffa1a56feea2ef39f1.16'
- ap: 3474
  img: http://i.imgur.com/5j1qaiT.png
  lat: 40.374119
  level: '?'
  lon: -89.547077
  name:  'a5aedbc11874475aaf493785aebc1e7c.12'
- ap: 3474
  img: http://i.imgur.com/5j1qaiT.png
  lat: 40.799199
  level: '?'
  lon: -90.165121
  name:  '9a7e2748618f4613b9fbe346efa65b8d.12'
- ap: 3474
  img: http://i.imgur.com/5j1qaiT.png
  lat: 39.984882
  level: '?'
  lon: -88.258895
  name:  '0532d10ca76f4f4a899fb08a14bf968f.16'
- ap: 3474
  img: http://i.imgur.com/5j1qaiT.png
  lat: 39.914462
  level: '?'
  lon: -88.27434
  name:  'e6d5eb29ead54497b74dab02ff62f147.12'
- ap: 3474
  img: http://i.imgur.com/5j1qaiT.png
  lat: 39.91465
  level: '?'
  lon: -88.273338
  name:  'd7386e06127b49d6b843c5d81d79fe83.16'
- ap: 3474
  img:  'http://lh5.ggpht.com/tuo_ByFTbwLitFP5cBseOibqRxENxbCwOJ30dCnja5ijBI_qBv5vqNP7ZuZXnxhYM6ms_GbExZEwwKVUtwV2'
  lat: 40.093712
  level: 5
  lon: -88.281583
  name:  'Brownfield Dedication'
- ap: 3474
  img:  'http://lh6.ggpht.com/p2F3xw4xL4UdiMM9aSy628ISSglrvjPexpF3j340tMAP9MX07yh_sJv7kHVkeud8lyFf2ZwDohw3zsRS2PSd'
  lat: 40.093914
  level: 5
  lon: -88.281531
  name:  'Terry M. Warmbier Memorial'
- ap: 3474
  img:  'http://lh6.ggpht.com/Jz3ahY5LQ13wKWLY9SEvexiinJa3GeO1eB_FynplikRpa77swLST6cUAJjPpqKDSq2KU4Dcyui-QBstz_Z3k'
  lat: 40.094624
  level: 5
  lon: -88.282953
  name:  'Greenbelt 2'
- ap: 3474
  img:  'http://lh5.ggpht.com/nWEtxuKQdy0teBBue1DYmG7P3SF5-3A6zlB7GwVHBWlolAZYGq6Br78lWcF9ltFy-KeSlozXie2RmU6JfCUX'
  lat: 40.142673
  level: 5
  lon: -88.244603
  name:  'Italian Statue'
- ap: 3474
  img:  'http://lh5.ggpht.com/kElaGOaV9aI8SrnM1D65gx9J0Ky1AKrN9Yo-pXVmDhELt2pee4MwVRiCqCmlqWzUWj5pS33GnEzAiXmiWKsw'
  lat: 40.108111
  level: 5
  lon: -88.229625
  name:  'Illini Sports Mural'
- ap: 2911
  img: http://i.imgur.com/5j1qaiT.png
  lat: 40.5586
  level: '?'
  lon: -88.52144
  name:  '37b8010f3577489a917b0fbc9441ffff.16'
- ap: 2724
  img: http://i.imgur.com/5j1qaiT.png
  lat: 40.272743
  level: '?'
  lon: -88.675349
  name:  'Adams Leaning Wheel Grader'
- ap: 2724
  img:  'http://lh3.ggpht.com/5awYU9vtQhrJgqVWTgorW3FfOKgjEZtgRjWYRBTLqZxOOiuKje_aALtsSDOrslkMHWZqO4ZLwael60DZWxY'
  lat: 40.111807
  level: 4
  lon: -88.295361
  name:  'Unity Baptist Church'
- ap: 2724
  img:  'http://lh5.ggpht.com/0m1i3CJSj3bKhLj5BgXi8SFpgoihNsBoN6fpccgDU2tjtPcA5BqB1IxvR0yAX9FWkgt3_Q8gbAyGfdJDliGP'
  lat: 40.115142
  level: 5
  lon: -88.238658
  name:  'First Street Antiques'
- ap: 2724
  img:  'http://lh5.ggpht.com/ftmAzbnKocZkda7k1ZC-3gMqr3UiOKXsS9qFSxN8V4C6_DEZr79lkSpPL00EmiZn50-ZPzTQZZlBLlOdL4Rd'
  lat: 40.116219
  level: 5
  lon: -88.23253
  name:  'Skyward Railway'
- ap: 2724
  img:  'http://lh6.ggpht.com/o5v6x0IS1pBK2dWUvxkTn4pb6FfZnj8RLeXKDhPtC9Db_KQTVRqO-ye9oQATUZIczQsTyfBFXI1KvNsP020ZCc1BpubNrbvzVaKrsMTRErtsBNDb'
  lat: 40.082594
  level: 4
  lon: -88.202694
  name:  '"Here and There" at Meadowbrook'
- ap: 2499
  img:  'http://lh5.ggpht.com/yi0V8I6S2E0v2oc1FMMtt5n823XeDVA_UcGxIRKd87LWu-xz_yY5qTWwmEbVC_STI_YNdHQYFuhNbjFafu4XW73mRfrZ5VRAGtkd1JiHBMyphaKx5Q'
  lat: 40.083139
  level: 3
  lon: -88.202075
  name:  'Southern Passage'
- ap: 2724
  img:  'http://lh6.ggpht.com/OeWiEqijQeAf256S5XDmv8VIj-SUQ0QHnet5J28ThcRwPEYY7-uk4CXixqualhlYxTcgKYe55FOcK_Ov7BE30jWvWzeBabSEra5jDLx3ZGj-XSs'
  lat: 40.08069
  level: 3
  lon: -88.20463
  name:  'Swift'
- ap: 2724
  img:  'http://lh6.ggpht.com/k_7DcxCHlkFP0CTNHoTY5V3-yA-EKIuGisBB8E77m940i61vkhvgHMsmxpNBkUhVm6Oy2XzndXI9_HF9MNJt-bahjS2gelImbCJmBrpBHpGW9VvA'
  lat: 40.080794
  level: 2
  lon: -88.203294
  name:  '"Fluke" at Meadowbrook Park'
- ap: 2724
  img:  'http://lh3.ggpht.com/3Zmkt--7llPgVt7DBvxcj4VWf2chqeJFGGK3MxoJQUsf4eyqv2iI35GHX8cDE1VJzJcS7rt1tLhm2NSszA4J'
  lat: 40.080946
  level: 4
  lon: -88.20312
  name:  'Jack and Marilyn Memorial Bench'
- ap: 2724
  img:  'http://lh6.ggpht.com/LJB7sU5C-p9Dsf4gZ7RkqrEbfZnlh-rR33SARIHJOOUld5Lhb6_CH4gN1rtHGaLP4sPAsl8gN6mFkpl7ZQ5_'
  lat: 40.081475
  level: 4
  lon: -88.20239
  name:  'Prairie Buoy'
- ap: 2724
  img:  'http://lh4.ggpht.com/kRHQwpjarX7HfwQLr4A30xQMO7de9l3eYpGLma1L5s-RekStFVQR9wmELAfa5uJPMOlf5gV2dSJD3kGjJYz1SLzbacRg2RpKXPScnDHAk2ncu1s'
  lat: 40.082189
  level: 3
  lon: -88.202575
  name:  '"Position 1" @ Meadowbrook Par'
- ap: 2724
  img:  'http://lh3.ggpht.com/BozajMgDcVYIYb0VfltzZ6ndh8oSFMdmzkwFA2GLdCTMF2_Bs6XYBAk47PZLTxtpck_7SPUwMGHgw8SW8T8x'
  lat: 40.083218
  level: 3
  lon: -88.201089
  name:  'Minimalist Response III'
- ap: 2537
  img: http://i.imgur.com/5j1qaiT.png
  lat: 40.878365
  level: '?'
  lon: -88.777245
  name:  'a58a2b0d69594c249e6fa1e2f1d103b1.12'
- ap: 2537
  img: http://i.imgur.com/5j1qaiT.png
  lat: 40.457257
  level: '?'
  lon: -88.372597
  name:  'ebaa4a5573f7449399263066d9248473.16'
- ap: 2537
  img: http://i.imgur.com/5j1qaiT.png
  lat: 41.9686
  level: '?'
  lon: -87.630978
  name:  '47ea0a512aca4efc981ddb89e220e8b4.16'
- ap: 2537
  img: http://i.imgur.com/5j1qaiT.png
  lat: 42.753964
  level: '?'
  lon: -86.195832
  name:  '4d2f7fc7fd6a4b3bb95764855e275e6a.16'
- ap: 2537
  img: http://i.imgur.com/5j1qaiT.png
  lat: 40.441099
  level: '?'
  lon: -89.313489
  name:  'fa303e162e1349c7ac2d93cf3df18bf0.16'
- ap: 2537
  img: http://i.imgur.com/5j1qaiT.png
  lat: 39.80624
  level: '?'
  lon: -87.673321
  name:  '5e0bde2eecea47feb72244027e8346ba.16'
- ap: 2537
  img: http://i.imgur.com/5j1qaiT.png
  lat: 40.743666
  level: '?'
  lon: -88.504875
  name:  '2d719dd62f7e491b860a85095e05d959.16'
- ap: 2537
  img: http://i.imgur.com/5j1qaiT.png
  lat: 40.940924
  level: '?'
  lon: -88.579844
  name:  '11a3e2cd969c410eb119ebd99257965e.16'
- ap: 2537
  img: http://i.imgur.com/5j1qaiT.png
  lat: 42.052212
  level: '?'
  lon: -87.669411
  name:  '104d9a0bac384f00b3dfa667adecb86a.16'
- ap: 2537
  img: http://i.imgur.com/5j1qaiT.png
  lat: 45.372911
  level: '?'
  lon: -86.930833
  name:  '118809195ed14574b56d1bac7b18f270.16'
- ap: 2537
  img:  'http://lh3.ggpht.com/4b6ZQuP0tb_xLUTbymIlLrHiMm8NTxgLY021uO-WQ4Z42V3CMXR_2S_aEZOb929B0D30IddZrRKGigpHQqP2'
  lat: 40.113738
  level: 5
  lon: -88.296023
  name:  'Turtle Rock Sculpture'
- ap: 2537
  img:  'http://lh5.ggpht.com/8EXhrgcMBH0nDBQWTAlAwNIhxzaY7maIjYjg3fJnzGIp6_FNs98dPrYY4mtl4vhkPI5WQ1Xp8_V4vj2hAb9a'
  lat: 40.112026
  level: 5
  lon: -88.295327
  name:  'Carpenter''s Union Hall'
- ap: 2537
  img:  'http://lh3.ggpht.com/waYCvQnciDHIQoBYQqAoe2ioBs3DAhMQQsBboKyfNVNSWibmmRTf0SLvaoU5EwCFyWydn7rCCfrLXtLqQfA8'
  lat: 40.135683
  level: 4
  lon: -88.27634
  name:  'Champaign Fire Department'
- ap: 2537
  img:  'http://lh5.ggpht.com/ulBje3DZHcOGkPDTXihNL1tamRAm_GO1CREW8fA5fV0Znq1eF2J1hnbSZh35emEA1h9cL1qTj9FqGtb8VywgXQ'
  lat: 40.13765
  level: 4
  lon: -88.273074
  name:  'Garden Hills Park'
- ap: 2537
  img:  'http://lh6.ggpht.com/XsUl74M1oxj6ptAvGEBOMH2wivRhxBNns62UJSGcPiQkuJIgPrmUYxMpSZZUfXRMMjrwoxlFK_DbAM78UrOh'
  lat: 40.113499
  level: 4
  lon: -88.244374
  name:  'Shatterglass Studios Mural'
- ap: 2537
  img:  'http://lh3.googleusercontent.com/vMuPZQrBjsuqibkb-FCbuVrZzyuUSOhjlXxxxRc9hq0Y7prkP-Fpk1Hh6o5Eq8BhT6s7GRP5S5z2KFUL7hJY'
  lat: 40.113606
  level: 2
  lon: -88.243766
  name:  'Mural on South Neil St.'
- ap: 2537
  img:  'http://lh6.ggpht.com/Nv0tMktEkkuoGtg1QEPS1N2nTcBPg8ipu31i72XPDTGQ4HQI5oL58Ig8kofXUH_aCC2aaJ-NylWKPkC3hIBS'
  lat: 40.116218
  level: 5
  lon: -88.228757
  name:  'The Presidents'' Walk'
- ap: 2537
  img:  'http://lh4.ggpht.com/ETgOsKlMmsv5wRT-aM33VVVEgFvp3ZoMxqXmYKxROpFAYnfPqjWhltqYBG7ajEuM8XKf3mVeSaF7r9grm2t8'
  lat: 40.113448
  level: 4
  lon: -88.237188
  name:  'Boneyard Creek Second Street  Basin'
- ap: 2537
  img:  'http://lh4.ggpht.com/IZUCSooIdo5qUAG278Al-JEKCRv842M0uDMusE78yaL4p-QCYu2A4UXE6X2jTFemr_w8ZfD6g_lQqjwbdg'
  lat: 40.109702
  level: 2
  lon: -88.227571
  name:  'The Ray Bulinski Room'
- ap: 2537
  img:  'http://lh5.ggpht.com/fHd4PN9y6K8vITWYf02HBqZwj7gTOYz9XqUVbI3_bHVW0KUAbFgY_jdyXgwKOFRz8VeKMD2BkELNjIedp5Le'
  lat: 40.108821
  level: 2
  lon: -88.228411
  name:  'John Milton Gregory''s Grave'
- ap: 2537
  img:  'http://lh6.ggpht.com/UMaVDs4JUJ1obZF_7bkt3YUS02KJCdBmvRnU0gXqrvHeFd-6jyR_VGDBUgiXtVFoAj95F7sZrvFJ1l9fe4S3sBUkt__qi77W2_jm8KR0IU_iwOYcIg'
  lat: 40.080791
  level: 3
  lon: -88.204927
  name:  '"Is It Too Late" @ Meadowbrook'
- ap: 2237
  img:  'http://lh3.ggpht.com/Du0TJmMI1dnX36-rCGs6310UXd29Ay1bttUFdbpIrAA2wGtULNMGT_z3Un2VNx9iV4CxY5Tg8ZO5GpMjnmAQ'
  lat: 40.083189
  level: 3
  lon: -88.202092
  name:  'Twiddle This'
- ap: 2537
  img:  'http://lh5.ggpht.com/fV0EN-O-ZnvYxldL2VCz5p99G1LNJnijI_B_4Erzqyiv3LRx6_oxldoqltlIl7BTh3mAIyiasfxb0k9QgjZP'
  lat: 40.083585
  level: 7
  lon: -88.201439
  name:  'Meadowbrook Park '
- ap: 2537
  img:  'http://lh5.ggpht.com/prfJ78X11LQhmc4oqt5BIM1mvF3nq_ZyuHqdzh9Ab7lz5aRQqfjllde4UKCFCQguDMa0Nl63SsnEstu2uaw'
  lat: 40.083271
  level: 4
  lon: -88.200732
  name:  'Prairie Play'
- ap: 2537
  img:  'http://lh6.ggpht.com/ARxGPDwwD9zGWfT9onLvNXRMYpYW0G7tL4osRfuUfWaG2wAJR486QSRQ_1dw-pJZMHccKUnSShoDVMijLRTh5g'
  lat: 40.07961
  level: 3
  lon: -88.209169
  name:  'Wildflower Walk'
- ap: 2537
  img:  'http://lh3.ggpht.com/gDP5JIyK5XQVuxzTukPDz7JRInXgVqjLvl1SZ1_m_ydC4VzlKAFaG92Jj7kHZGJrhTaK2-bslJBu3rBIoXOX'
  lat: 40.079519
  level: 4
  lon: -88.208849
  name:  'Pascaline Lutete Plaque'
