- ap: 6472
  img: http://i.imgur.com/5j1qaiT.png
  lat: 41.9686
  level: '?'
  lon: -87.630978
  name:  '47ea0a512aca4efc981ddb89e220e8b4.16'
- ap: 5160
  img:  'http://lh6.ggpht.com/MsCeiBKy8tV3-ziINPCBPzkisfwOnBClSPr68FUxT1uMHlVmqtyTYYxNAZapU8bvWdcmm0lsmIzjMyv0CTJ2tQ'
  lat: 40.095364
  level: 2
  lon: -88.217386
  name:  'Miles C Hartley Selection Garden'
- ap: 5348
  img: http://i.imgur.com/5j1qaiT.png
  lat: 41.966004
  level: '?'
  lon: -87.632502
  name:  '367908f1dbf04c84bf3cb27575c4359e.16'
- ap: 4598
  img:  'http://lh3.ggpht.com/bVNaflT1bCgFsUDizKeHZFExlTyUFdVVpjEqrpacNh843YeRnU98IEQb8a02eE36XmEJXAkBC-FG1_3ezYP7'
  lat: 40.095365
  level: 5
  lon: -88.216784
  name:  '1867 Garden'
- ap: 4411
  img: http://i.imgur.com/5j1qaiT.png
  lat: 42.781053
  level: '?'
  lon: -87.757742
  name:  '9a047756efef4b0b809bdb07c058c4b5.16'
- ap: 4411
  img: http://i.imgur.com/5j1qaiT.png
  lat: 42.781176
  level: '?'
  lon: -87.758749
  name:  'da8a9ff388b54e9b8be758bc820d0bcd.16'
- ap: 4411
  img: http://i.imgur.com/5j1qaiT.png
  lat: 42.772688
  level: '?'
  lon: -86.21244
  name:  '8552938d383e44fb8994d5885d59a9ed.12'
- ap: 4186
  img:  'http://lh4.ggpht.com/ZIOjKYlH2wMvdRD5A5HKGJPgBUYAaA7xHjGYnoXNzhzPIE6KR05FBciTJcN-AojoLyuwRlp3SF3TR1PXBrUPjw'
  lat: 40.094935
  level: 3
  lon: -88.216986
  name:  'Leroy Hubble Honorary Bench'
- ap: 3474
  img: http://i.imgur.com/5j1qaiT.png
  lat: 42.772529
  level: '?'
  lon: -86.215837
  name:  '64f91a4e227149ce937f5fb293786cd9.16'
- ap: 3474
  img: http://i.imgur.com/5j1qaiT.png
  lat: 41.965697
  level: '?'
  lon: -87.632747
  name:  '009d44eea192424f8eb810b69311f40a.16'
- ap: 3099
  img:  'http://lh5.ggpht.com/W2upB0MQ9l_1Z1JYjKFslTSSU-oi3b_kOidwTlG4pOCZRHWiD52CzcX2WMquuVEnMpxhtSRQOuAdLgDn8rs'
  lat: 40.096671
  level: 2
  lon: -88.217873
  name:  'Skull And Wagon Wheel'
- ap: 3474
  img:  'http://lh4.ggpht.com/jEbgkWj4jIpuTGF0BsLL3Qhx62u2Xh7IFfVmCspv6e6FjmSfbeTYkwQgAZ75wN8NpO2Lus14Khr5O4f9jvup'
  lat: 40.094517
  level: 5
  lon: -88.217269
  name:  'White Oak'
- ap: 2911
  img:  'http://lh5.ggpht.com/ftmAzbnKocZkda7k1ZC-3gMqr3UiOKXsS9qFSxN8V4C6_DEZr79lkSpPL00EmiZn50-ZPzTQZZlBLlOdL4Rd'
  lat: 40.116219
  level: 5
  lon: -88.23253
  name:  'Skyward Railway'
- ap: 2911
  img:  'http://lh6.ggpht.com/0IsQORyEW-bPA7sEbGspygtoI7ixEshm_2fUw5oeh9AeXg6JN5w0ypYIshpuKm-C0nG4Vm2XmpLvtWTZzWzd'
  lat: 40.111607
  level: 5
  lon: -88.233753
  name:  'Chabad Menorah'
- ap: 2724
  img:  'http://lh6.ggpht.com/I-l0KMezFAwrNcsN5-RPQCQbH4VnCa-C2GtwAQwrtAOcyFmOp_PxGmTwtTHCrR-O1hokLKIrtjyzuTsdP1E'
  lat: 40.112048
  level: 5
  lon: -88.236887
  name:  'Scott Park Rain Garden'
- ap: 2724
  img:  'http://lh3.googleusercontent.com/vw4Js8jf11Ok889K1stO5ujNjIO9Ah9DEbsg1xBTrVbaeyBetcG75B8YS8CkQA0KVC8NA5Z02n220SI1UzdB'
  lat: 40.10985
  level: 6
  lon: -88.227236
  name:  'Illini Union'
- ap: 2537
  img: http://i.imgur.com/5j1qaiT.png
  lat: 41.835853
  level: '?'
  lon: -89.480623
  name:  '17882b9b6e3140739dc93df9bd849dec.12'
- ap: 2537
  img: http://i.imgur.com/5j1qaiT.png
  lat: 41.360718
  level: '?'
  lon: -88.991258
  name:  'bd5ea812a7ab407fad92afc09c9bc4b0.16'
- ap: 2537
  img: http://i.imgur.com/5j1qaiT.png
  lat: 39.912869
  level: '?'
  lon: -88.271225
  name:  '7ae31819d59a42a286e4aba7926a74ac.16'
- ap: 2537
  img: http://i.imgur.com/5j1qaiT.png
  lat: 40.273821
  level: '?'
  lon: -88.676394
  name:  'Blue Star Highway Memorial'
- ap: 2537
  img: http://i.imgur.com/5j1qaiT.png
  lat: 42.781389
  level: '?'
  lon: -87.757824
  name:  'f1b338e3321c46a3b934d916b9212aa6.16'
- ap: 2537
  img: http://i.imgur.com/5j1qaiT.png
  lat: 41.431428
  level: '?'
  lon: -88.345007
  name:  'e5729b394f784af7b533789a1237123b.16'
- ap: 2537
  img: http://i.imgur.com/5j1qaiT.png
  lat: 41.053466
  level: '?'
  lon: -89.04979
  name:  '94b2245b5bf546fe91834ff8f19dc1f4.16'
- ap: 2537
  img: http://i.imgur.com/5j1qaiT.png
  lat: 40.260807
  level: '?'
  lon: -89.231479
  name:  'aa752f8bdbe343118f165b3fec77d290.16'
- ap: 2537
  img: http://i.imgur.com/5j1qaiT.png
  lat: 39.827659
  level: '?'
  lon: -90.563601
  name:  'c5b987ccae3f4ea5884dba90cfb65690.16'
- ap: 2537
  img:  'http://lh3.googleusercontent.com/DJEd6b3-MwXXA5oX_rKCuAtk2dlQ1yS2p9nG8oDmc86DmbzFvhKsP-KR9nKAzn84UUf_K5LjjTMgrt7AjCoU'
  lat: 40.110853
  level: 4
  lon: -88.238339
  name:  'Boneyard Greenway'
- ap: 2537
  img:  'http://lh4.ggpht.com/ryDcZUJK2aQ_fI0-hY850_t4ZmG2hNmtCx7cxbX83w3cnUWdI-ywpTuQrUVQNxGl3_DcxxNr6bupfDTsagRa'
  lat: 40.117107
  level: 7
  lon: -88.242467
  name:  'Radio Maria'
- ap: 2537
  img:  'http://lh5.ggpht.com/BUGNnLReyCBJJj9_zpqgwv5_CAyiW8fWBpyVs0ip1hT5NEE6YKCYzlc8ahldKzk_xv-4uckNJNb6NrJd6r33qg'
  lat: 40.116989
  level: 7
  lon: -88.242255
  name:  'Blind Pig'
- ap: 2537
  img:  'http://lh3.googleusercontent.com/ZEt3dzGoBmn_BW1MwPTE7MY4Jcoj66UkwEA7wA7H40hbb-SwJheC1V67Dh89eAbpG6H_SeWDV3E0X5lRAkQ'
  lat: 40.111342
  level: 4
  lon: -88.23557
  name:  'Boneyard Greenway'
- ap: 2537
  img:  'http://lh4.ggpht.com/HMXgPSuj_Qc06z-u_ElF6pgeWVoxqEAZoT0woVULj2jB8M-G8a4In71YBTnsPrCaJTLx0DFoqB8lQ2847L9M'
  lat: 40.112187
  level: 5
  lon: -88.235913
  name:  'Scott Park Pavilion'
- ap: 2537
  img:  'http://lh5.ggpht.com/f710C9AvOEB7ieCI4f382wWUP4OgDxiqPzbxqxct6Ugf2PWBfyXyDpG_JcRQ6PaZ_jS0jpXXBhNSt_u9rFA'
  lat: 40.113864
  level: 6
  lon: -88.224839
  name:  'Plato: A Social Networking Revolution Begins'
- ap: 2537
  img:  'http://lh4.ggpht.com/q2L_InMJy4JZq79dX9LLf9XauoaXGOLl7SWvVyD9F_jIgyqpn7SsqHfY9EMYq1SLteTpj0cQDZN4f9x0IuvV5w'
  lat: 40.107273
  level: 3
  lon: -88.222942
  name:  'Tryon Festival Theater'
- ap: 2537
  img:  'http://lh3.ggpht.com/oSQ_YOHo2mfYjOa8bPK9ellznKK29UluW-SeXoGYra9VFg8dJp6YQRdHbHHaTExqXs1qUMBNmpI2hUPcC4GI'
  lat: 40.106789
  level: 4
  lon: -88.222992
  name:  'Beginnings of Computer Music Plaque'
- ap: 2537
  img:  'http://lh4.ggpht.com/hJDi8J7CZU-933hT0Culp2nhslv6p8rDRPdTFz6FwNaAjB5CmfkaQzj9sM--E-QBvI8yvIJn1F2jxy7ZKWlh'
  lat: 40.10816
  level: 5
  lon: -88.234245
  name:  'Stratford House'
- ap: 2537
  img:  'http://lh4.ggpht.com/OFVPvdgB3GVpaQknHdnt2okgP3xcQksAH3wvOGYVuP85MMlxo3bQ2SRpBb0hzNfjQoC_5LlRqaE6jLB-h9Gr'
  lat: 40.108092
  level: 5
  lon: -88.234589
  name:  'Koinonia Plaque'
