- ap: 14718
  img:  'http://lh5.ggpht.com/BUGNnLReyCBJJj9_zpqgwv5_CAyiW8fWBpyVs0ip1hT5NEE6YKCYzlc8ahldKzk_xv-4uckNJNb6NrJd6r33qg'
  lat: 40.116989
  level: 7
  lon: -88.242255
  name:  'Blind Pig'
- ap: 12094
  img:  'http://lh4.ggpht.com/ryDcZUJK2aQ_fI0-hY850_t4ZmG2hNmtCx7cxbX83w3cnUWdI-ywpTuQrUVQNxGl3_DcxxNr6bupfDTsagRa'
  lat: 40.117107
  level: 7
  lon: -88.242467
  name:  'Radio Maria'
- ap: 10783
  img:  'http://lh5.ggpht.com/HhVreJipNvxPRVFpmsh2BPo9PcpPO2Q2l3jCpDjIKgfKGycoTNPXR4DKiYccBXW4X-4dJf_vV0ESsWAWHcChsg'
  lat: 40.100936
  level: 8
  lon: -88.250855
  name:  'Donald F. Bresnan Memorial'
- ap: 10409
  img:  'http://lh3.ggpht.com/sisvfsphxy7AK_2qrrqb7lNJk3_7ciHSVJyodINYITBc-UqugyNOooCxKupgJKEg5m_x95eZwouSO2WCmN60ew'
  lat: 40.098579
  level: 8
  lon: -88.249603
  name:  'Chef Ra Memorial Plaque'
- ap: 9472
  img:  'http://lh3.ggpht.com/8FqlniFErK7cq59awiT84u8KyV4FIRd5krZzfYa58zJToFps7whdBnriPqvO_kFKeLUE3SWbJhCOPuvUQzaGFA'
  lat: 40.100691
  level: 7
  lon: -88.251337
  name:  'In Loving Memory of Zeus'
- ap: 9470
  img:  'http://lh5.ggpht.com/H9Tmm-D_Dg3Q1_QsO7RlfHiZrkr4Oc34TPaqym0wpq88iGAGgqIs2QicN-RDnz4iEc7CbRPgGsv4QYUwL2ue'
  lat: 40.117334
  level: 5
  lon: -88.240517
  name:  'Glory Pipes 2.0'
- ap: 9096
  img:  'http://lh3.googleusercontent.com/SjusdEZ1n6AkcvHdrM3TfGAqP_W5LJRmm4qEdm5xmdvHcBejD6Jg0kXCZaHyUk5WGeE8Zu0RrSSq_1VDXFU'
  lat: 40.117419
  level: 6
  lon: -88.240991
  name:  'Old News Gazette Offices'
- ap: 8720
  img:  'http://lh6.ggpht.com/PXc3YHSOsx0c_WrfpzvHHiHEl1FSv5RvbgXj7Ji3-xS7oBwJIkFCD8eQySiUega_iQvX8FiUBuDhXdK9l9QWIA'
  lat: 40.116623
  level: 6
  lon: -88.240844
  name:  'R. Forrest Colwell Memorial'
- ap: 8159
  img:  'http://lh6.ggpht.com/5CDidk0pqfUtSW_Yqouuf3diX8drdMu9DoT728QpSz8q6A-WxNhT0yLcgM_7gGpyIAeXrHiTkIzzaVJFgnN9WA'
  lat: 40.099852
  level: 7
  lon: -88.251947
  name:  'Our Friend Tim Palmer'
- ap: 8159
  img:  'http://lh3.ggpht.com/GGBe9Hug3fUbRCRAMs_kO1fg2HHQ95ZDBdW0S2tAHakvhQbWxlttanjhGNJJcyVRruUlL7zjQnPGI2bu8Wc4'
  lat: 40.117905
  level: 6
  lon: -88.242149
  name:  'Read All About It'
- ap: 7222
  img:  'http://lh6.ggpht.com/ea6HxAw7m0OhhPqJJkZR9u60pR1sab_JdxaOyEltqmQd-63FFJzPY72jEnu08g9Gcjjj5cf3jyyS_M1E7OIbfg'
  lat: 40.11616
  level: 6
  lon: -88.241422
  name:  'It''s A Mistree'
- ap: 7035
  img:  'http://lh6.ggpht.com/OWQz-aJYDevguvgr_HtCYk7ccylYLM1bFU42TK9OJxuZWDA87pAsmcMf1amsxh5EagspcAj7Gf4_ZFeTJSf2'
  lat: 40.117754
  level: 5
  lon: -88.241676
  name:  'Jos. Kuhn and Co. Building'
- ap: 7035
  img:  'http://lh3.ggpht.com/yeYI3q7rDQLA5xBcWfH-Caw2Uh740ZPRQjjyvOrZz7ZyLI-gxBpi8yqxqDrlOBzG9YHs6YlxdgX0obTpXlQ'
  lat: 40.117681
  level: 4
  lon: -88.241405
  name:  'Jupiter''s Downtown'
- ap: 6960
  img:  'http://lh5.ggpht.com/q-mJ2EvrjGn2PfbBh3Pl3XIGUyzTqxGjZmTMhn3k9_2Qi0S2hs3k2ZvpKb4kvt60AXHiyQdxqft5ZecPcg7x'
  lat: 40.098959
  level: 7
  lon: -88.250141
  name:  'Bob and Wilma Tinkham'
- ap: 7033
  img:  'http://lh3.ggpht.com/psgrRGIt786cUSq8EV7SBSDsS-aptrUKjaCXWv864H7OaJL2K71qJpxU9Iw-acwFMi52ZN2qpEmicGmlmhJq'
  lat: 40.121061
  level: 5
  lon: -88.250227
  name:  'Curtis F. Columbia Legacy Plaque'
- ap: 6659
  img:  'http://lh5.ggpht.com/j6Gqd19ib1ziWv7UKoq4_fMXeXtxxdV85TchQ49_mIgeJYs7oUWOj860aB2Ok8NGNY5wNfMqDn7zeSKOgpxEzQ'
  lat: 40.108781
  level: 5
  lon: -88.271694
  name:  'Champaign Church of Christ'
- ap: 6472
  img:  'http://lh4.ggpht.com/nWSZEVnpEj78GBs58tujBturUcAqKjsgYU_9v_qXRS_K_ROKLNgBwnqKopJse169VJqqWtn6oo3h_qABlaw'
  lat: 40.117571
  level: 5
  lon: -88.240851
  name:  'The Accord'
- ap: 6285
  img:  'http://lh5.ggpht.com/4DJAFPeZ_w65Km7VDnsbOqouQaeBuPuxA0KHPQToT_B6o1hBxzdu3kn89UhHgv22Ygj52Fx9QqcbzOytuw'
  lat: 40.100078
  level: 7
  lon: -88.250683
  name:  'Brian Clark Memorial Plaque'
- ap: 6285
  img:  'http://lh4.ggpht.com/3gTAX6rKgNjLmBOYvAVTgSPQej5yRF_38uRllp9H4n5N6pvwWo5kDMDwlIkFVPPl30BXPSGAlZ9pO9B4DMk'
  lat: 40.116218
  level: 6
  lon: -88.242141
  name:  'Live Action Games'
- ap: 6285
  img:  'http://lh5.ggpht.com/tfAfnmo6mSMc6U0P533NMFJRGwn6lasmx-MLR2JJg1QOizMKkghFU8E7hb2zgYgdQEbgnCJUlvZIMdrrJe4'
  lat: 40.100822
  level: 7
  lon: -88.25193
  name:  'Seeds of Kindness Bench'
- ap: 6098
  img:  'http://lh3.googleusercontent.com/5FkLhIMVmAJJSslAXVxY1RNxi-4q5mNAVPK2XgU5LwRM8qcB8BGXOK0GmF6Y_xfgPOhwF_CrbcgVZlJx-Pza'
  lat: 40.11652
  level: 7
  lon: -88.241845
  name:  'Mike ''N Molly''s'
- ap: 6098
  img:  'http://lh6.ggpht.com/hmDofhQgtMboyY40gAShyf0g__uH_qYaFzVKnGKShUBNn-JjwpN526PPOYKyq8kvusIGRrMQIZ7ozPedDVm4iA'
  lat: 40.117495
  level: 5
  lon: -88.241616
  name:  'Lincoln Building'
- ap: 6098
  img:  'http://lh4.ggpht.com/vKgqIecJshMQxrhO-ZhMjcIyARuJdyU63wKfzAG0wouZex6LVzO46Qi5zM1N3Jx8xyantDFk9sQGsSEBhb-y'
  lat: 40.101327
  level: 8
  lon: -88.251412
  name:  'Zeus Memorial'
- ap: 6098
  img:  'http://lh6.ggpht.com/yjfa0jJLjsfLRf9Zn9iafMp3MuIhgCi0WiOCF8GqTGiGvzEnsPGrFa0H1n-uzWhVehLbt44ShthsA32VzHd5iQ'
  lat: 40.099737
  level: 8
  lon: -88.251157
  name:  'Tyler Van Atkins Memorial'
- ap: 6098
  img:  'http://lh5.ggpht.com/8zq5tMevCiipZK8N9-8SZw3vdsA2HwH0E02ormQshGxHVZrB2WPK7OPC8zt6pjLlgpXVuEYHVA_08_Q8fPw-'
  lat: 40.099647
  level: 8
  lon: -88.249648
  name:  'Max Overmyer Memorial Playground'
- ap: 5722
  img:  'http://lh6.ggpht.com/QhX7LQjknZJxL4GjIVRORINW4Ftw5F854uaMsoIWpHQNzoc_1c8nRxsoxw27U0InC7UZkcxueRyo8sqyTD7-iA'
  lat: 40.113262
  level: 5
  lon: -88.257966
  name:  'Grace Lutheran Church'
- ap: 5722
  img:  'http://lh3.ggpht.com/jr89yrsC941ycnfQPQzYkTPCedQ8Suo8eiPCcNLvq0n0fw48_pywxGTqTsKaVh_KXAiza3ke5pjMejqiaD0'
  lat: 40.111568
  level: 5
  lon: -88.267345
  name:  'Illinois American Water Tower'
- ap: 5722
  img:  'http://lh4.ggpht.com/UsWzXzHhg7iWYqgGNNqj1XXLWp2Oj6pNxp7R0PwHI8tzNVuJwD2K0KgVwc0BR_9MEu4QalqL6x1cBnT_vz89'
  lat: 40.108739
  level: 5
  lon: -88.268838
  name:  'New Generation Christian Fellowship Church'
- ap: 5722
  img:  'http://lh3.ggpht.com/WDQ55kRMYCIrw9Pm69IuV6cBTI2nx7Z1gU9yxX2oE2oH9EdPnO1ltxSROAjUmHmBu84SEtHmLKregkDqlLYzUg'
  lat: 40.117126
  level: 5
  lon: -88.240623
  name:  'Depot Barber Shop'
- ap: 5722
  img:  'http://lh5.ggpht.com/1FFq1l5byXiUE1FTO1Ki4CnurAyDTSJ7tatUNPN2PTAm6auSif6bq49bEe3gkQdpk6ixuhsUd-6KYXSi9NV9'
  lat: 40.113425
  level: 7
  lon: -88.238014
  name:  'Champaign Waterfall'
- ap: 5348
  img:  'http://lh6.ggpht.com/cZVUlNaHjfsB6Lu5hnj8JjUk4lvsgOV7DFz4Nl47-RaQObW1VPRpos6hTDD6WgYrNxCh9UKfn5DFU-K7lRe9pQ'
  lat: 40.1164
  level: 6
  lon: -88.242747
  name:  'Sidewalk Art'
- ap: 5348
  img:  'http://lh3.ggpht.com/oHMQr2Z5LayQFbZOwOZK4ZbYQ1OVxs85-qNTvSj8epsP72vQiOdrzVmkuMPFQtCSf9Rr0oqcnSLFjLn-sPw'
  lat: 40.116592
  level: 3
  lon: -88.243236
  name:  'Champaign City Bldg. Landmark Plaque'
- ap: 5348
  img:  'http://lh6.ggpht.com/YdeB0EKlsopL39a9YXWj4JBZgXNNLWHgfe4PQzdpWCNWc0fR1YTj8WjARDHnmrusvKWTqKLcGg8U9frhtsw'
  lat: 40.09821
  level: 8
  lon: -88.249879
  name:  'Hessel Park'
- ap: 5348
  img:  'http://lh3.googleusercontent.com/E2FfrLzJb3mHfXBany5NUYpw8tvRpjHxGQ7W0BTKFPVcMupabCQ2fXgQfa0jajRZbLswWOYbEkCO3hUGbIGD'
  lat: 40.099056
  level: 8
  lon: -88.249136
  name:  '"Cricket" and Bob Barger Memorial'
- ap: 5348
  img:  'http://lh6.ggpht.com/YVbqGVTjJuDMDdj71CP2mWvnUIdgO25PgoDdJwEGnEE_M9I1aDgKyjSr9JOZVU6UQTZQtfUo9RAWyz92n3jtCQ'
  lat: 40.098475
  level: 7
  lon: -88.249208
  name:  'In Fond Memory of William Moore Jr'
- ap: 5161
  img:  'http://lh6.ggpht.com/S7Utf4_59vQkAP5JhC3mdbzVLKBTt-0zoJ2UjfxUnN10VBbixO-_VwvssWd1LbFSx_yafaijd_U0wTGo870'
  lat: 40.100941
  level: 8
  lon: -88.251314
  name:  'Gabriel Patrick Maxeiner Memorial Plaque'
- ap: 5161
  img:  'http://lh5.ggpht.com/-UWK84I78Sftf7yg-E2pg6xEAWTvyiThgJBJlxbqOZPYKNmzQ8uGgEEMetzplrG1HpXG5kQqNItUeXKxOHDsGA'
  lat: 40.100286
  level: 7
  lon: -88.251747
  name:  'Tennis Anyone'
- ap: 5161
  img:  'http://lh5.ggpht.com/C6wRSaEWO1NYGY5luyYZKHG3Z3aib4aflaPdV7B9G6N6adE890g3QuPRSvCUhsdFHqjoVUjo27mfz9WsjXyuhQ'
  lat: 40.100521
  level: 7
  lon: -88.250864
  name:  'Gabriel Patrick Maxeiner Memorial'
- ap: 5161
  img:  'http://lh5.ggpht.com/3t7XZHqwxLZ8Lc9YomR8FInm74U2PAA-DBk8kmdxXIrcXbKa1CoBDTlgdDJeO-_yVT3qNKRnNLzbdil1eH41iA'
  lat: 40.09935
  level: 8
  lon: -88.249766
  name:  'Jim Bickel Honorary Plaque'
- ap: 4972
  img:  'http://lh6.ggpht.com/nRwew4OU3JNWRI1-xCyuN1xwDabajLFDuSlOZ-_M8BwJELli4V8o30JI0UyF6Kpc4gfDGdh10kJ6mD6ggMo'
  lat: 40.108561
  level: 5
  lon: -88.250039
  name:  'Harris Park'
- ap: 4972
  img:  'http://lh4.ggpht.com/BEyFLhgqk0ySf2zElnARv5eyaQggj_zbHSagW3_DGt9BieScmU4jGPvJCjezTjbiCP-DOJPLPfJ3HhnYAiQLEQ'
  lat: 40.119288
  level: 6
  lon: -88.248086
  name:  'The Hartford'
- ap: 4785
  img:  'http://lh3.googleusercontent.com/ryRMzj5c3ls-s5Gocd2-IM_oonInNzjPIbCGJVps6JmZxYcG165NabHKNZW7wAepNc8rtLf3A3E0U1mbq-I'
  lat: 40.108745
  level: 5
  lon: -88.276334
  name:  'Circle K 1713 W John Street'
- ap: 4785
  img:  'http://lh4.ggpht.com/Tpl5ga1h9vBjG88A6xRDnvBxx7F1epdVZYUY-FNnoOS6H_0OkWXC-RqCtNsk5WSZcOBwMvdY56QCHo0hvoE'
  lat: 40.102744
  level: 5
  lon: -88.277916
  name:  'Church of God in Christ'
- ap: 4785
  img:  'http://lh3.ggpht.com/7sJlWdBFFcLCXWnnfB6SVTzCCDM0Q7KyV5jALfrWG3ICtkw7HXrjzaRrnzSiv19wIswpZoTxKYudzYiZnT9Shg'
  lat: 40.112536
  level: 5
  lon: -88.256779
  name:  'Framer''s Market'
- ap: 4785
  img:  'http://lh5.ggpht.com/UTu16bRRNKyJj2cFsU4mRCMkGJbH7YCAm0gQdiJKjnnZtB00kMEb_-Lhf6AnAXRia4MH6FBrWQGkBCrMUz8'
  lat: 40.120135
  level: 5
  lon: -88.253121
  name:  'Rain Garden'
- ap: 4785
  img:  'http://lh3.googleusercontent.com/tWUxy7KQ-q_qBBIgLzTjjezrBpWPSJ_z3FWnvbB8Y5wIiYZW1I5ioL0Tzq60VyalCaIwOk4UI3agM8tFaykY'
  lat: 40.117427
  level: 5
  lon: -88.243235
  name:  'Cowboy Monkey'
- ap: 4785
  img:  'http://lh4.ggpht.com/xS51--rXA9M_IHpXWgFQxKZU-YbD-1zk-nug6k7RyKl8rYeam_YFwMmLNWRRHHzI-rOTGyhTJQQ314WudSQJ'
  lat: 40.117132
  level: 5
  lon: -88.243009
  name:  'Fountain in the Alley'
- ap: 4598
  img:  'http://lh5.ggpht.com/vYay8RKsCV_BP_MkeFm7se0VZoYthm-1pThiATAADleBlTsPowobgZyUoU7DUto6p5cpg9adpCcTgNR6iop0Jw'
  lat: 40.120121
  level: 4
  lon: -88.251967
  name:  'Sesquicentennial Neighborhood Sign'
- ap: 4598
  img:  'http://lh6.ggpht.com/SCYK-XeMmOyfRrTt1-aQNoDA-2Sib4m5Ch26mTwo6XNdVeVnfi7W74Ik6IRLAPSoKzSS97pgwt50Jl9oSgGfP029USxZzQWKNJo3rbs-6YHBPBif'
  lat: 40.116792
  level: 6
  lon: -88.241752
  name:  'WEFT 90.1 FM Community Radio'
- ap: 4598
  img:  'http://lh3.ggpht.com/HW1b8GEkWmutU8Hsv_zX2TXNh-iirGoXN5HmxCJd5nc3o1VeCkahkCZ_vbSxOB_ffrBlWW3M-LLMSo97tg-c'
  lat: 40.123709
  level: 6
  lon: -88.250518
  name:  'Spalding Skate Park'
- ap: 4598
  img:  'http://lh4.ggpht.com/7U0YXCB_DIhnqPJyjyLpNn6kg4lU8HvKL87ddBKWq1sptvVLvCEiCuNEnghQtqDGSN2OBNcOUK9nZcYjY4Vr'
  lat: 40.107887
  level: 3
  lon: -88.225998
  name:  'Lifesaving Antibiotic Plaque'
- ap: 4411
  img:  'http://lh4.ggpht.com/H1kV6JSczzSbcCblAHg5ZOgITW1mBAz0_oLbqbzxBlijGTBn7TP6KwA6UI0AAGrCN4VF0DAF79Vcj6_2R4dsB8LRTq6tud6v'
  lat: 40.116164
  level: 6
  lon: -88.241661
  name:  'Zipcar-45 E. University Avenue'
- ap: 4411
  img:  'http://lh3.googleusercontent.com/M1BXbCtfOfi1ipACxyQaE2jCbcLCxQTsJVIUli8GgprQaS2WmnVuSsqMoFaWub8LM6VF7KK4wSH9SSGdrXM'
  lat: 40.117287
  level: 5
  lon: -88.242984
  name:  'Mural for the Blind Pig Brewery'
- ap: 4411
  img:  'http://lh4.ggpht.com/MvwoDsxwfyNLHzfGkFJl-4VFeX7OvqB0hsMCrZ2D9Olh8GSghAJDfFfDh7a7cOtMIGwEDMyesZoKvKCXAGj4'
  lat: 40.116553
  level: 6
  lon: -88.242268
  name:  'Esquire Lounge'
- ap: 4411
  img:  'http://lh5.ggpht.com/AX1hc0zh7ZtN2MoSsNXTKwRtGJWb8EgeHffmjJfZvCLL7wvvjMZ8d0BwESKKrdNM--UUKA09PrLQ9qmTrMw'
  lat: 40.117186
  level: 6
  lon: -88.241556
  name:  'Champaign Limestone Sidewalk'
- ap: 4411
  img:  'http://lh3.googleusercontent.com/Tixp17uCaP682s77UzvCwWCOE6vg7iB2qEFLjACq7xtVJdHE0K3yKYsl3_SwKbiUfQWwgTQRbvfka3U0NvNc'
  lat: 40.098819
  level: 8
  lon: -88.249214
  name:  'Bette McKown Honorary'
- ap: 4411
  img:  'http://lh3.ggpht.com/161K1avC8teYs8PtJMANd0cBrff72XYRYh2Gjg2_KhkEh6_F6MLd3cfHIXwK8zegd65ISEVxmEoD5THpeY-Q'
  lat: 40.112553
  level: 7
  lon: -88.236253
  name:  'Scott Park North Entrance'
- ap: 3848
  img:  'http://lh4.ggpht.com/oknWvsn3j_8LLqgIevkEiU6a-r9RO-ylFPYVgOPQ6wBXGmnyvWFCGC4eG8qo7Z28JPMEoBE4DUFq2FPfFdXR9Q'
  lat: 40.112908
  level: 3
  lon: -88.237287
  name:  'Stone Arch Bridge'
- ap: 3848
  img:  'http://lh3.ggpht.com/WWhYcmz7SmE72z0SL44DRgW7htbIekUCuGiMB3k2U4oqOpii2n2vl1T7LX91Izu4VR89_uvBjK0HYR2KBM8'
  lat: 40.100276
  level: 2
  lon: -88.223103
  name:  'Taft House'
- ap: 3661
  img:  'http://lh3.googleusercontent.com/0hydzoUNO41CcF2qZhlhMbaEgMVFjql3_RSDgrJLVIToqRsqh2aBcAoXsrxAlwXqgTcB1R71HZiHrjq1KdnXgA'
  lat: 40.11243
  level: 7
  lon: -88.235749
  name:  'Fountain at Scott Park'
- ap: 3586
  img:  'http://lh4.ggpht.com/pWMrJGcrxdHbkyzK9GJLFBQdvgWtZzdJOIMHr66tCffHpsZd5e8NTrSPkYm0T9i4vtEVhARdLo6tZ7xLadU'
  lat: 40.108294
  level: 2
  lon: -88.224348
  name:  'Bird Of Prey Statue'
- ap: 3661
  img:  'http://lh3.ggpht.com/RPwmqKgDoVBfLknuC-LM6Vvni6av9IgVxpZapS8lQSDH-fHokPS_j6pH-R9dax4sKqOB5naETVESobfZWDrC'
  lat: 40.102705
  level: 2
  lon: -88.225051
  name:  'ACES Library Information and Alumni Center'
- ap: 3661
  img:  'http://lh6.ggpht.com/CFr5FDgsztNbeSQUq6x63c17MTKeKxsaUoY7uq6eft3-_1XjCjDOPcpjtaA8iqU-gi7m9txMeWkfG0UuT6mv'
  lat: 40.099069
  level: 4
  lon: -88.225654
  name:  'Frank Kern Robeson Memorial'
- ap: 3474
  img: http://i.imgur.com/5j1qaiT.png
  lat: 41.717132
  level: '?'
  lon: -89.923897
  name:  '2ba17a5e950e4863929d91cf67f68873.12'
- ap: 3474
  img: http://i.imgur.com/5j1qaiT.png
  lat: 41.546105
  level: '?'
  lon: -89.123601
  name:  '3cd1f98b928c41e5beb0e666b4686fc7.16'
- ap: 3474
  img: http://i.imgur.com/5j1qaiT.png
  lat: 41.54743
  level: '?'
  lon: -89.126762
  name:  '4501f776f08d45a084cb064a242ab1e7.16'
- ap: 3474
  img:  'http://lh6.ggpht.com/eeOtj4-6PU8Dt6QXk_TJjgkoEGRW9L8YzUqZE8QV5ZMCHnqA5CzoQoxKpnjCvXwaIflUUvPJmO_S7BdvMhcuzw'
  lat: 40.117588
  level: 4
  lon: -88.241787
  name:  'Adam & Eve Mourning Over the Soul of Abel'
- ap: 3474
  img:  'http://lh4.ggpht.com/9jXAzAxn0JZrLkU9VK9p-mNzjw3x_6QqwMAn4CAEBAHp_lo2iDZeV_y-hoUzP5CYwm8kOMyrTToZQOWJBRnw'
  lat: 40.115095
  level: 6
  lon: -88.249052
  name:  'Bayne & Schumacher Fountain'
- ap: 3249
  img:  'http://lh6.ggpht.com/ZQaguxPyiC-6DeFDFa2niVKJz3ySxwxYaFCv8PRdNuoMYUfP-Xtirg-8pXCTdBCyH1BruprOVmqf3D1kdp7o'
  lat: 40.115225
  level: 4
  lon: -88.248866
  name:  'Holy Cross Catholic Church'
- ap: 3474
  img:  'http://lh4.ggpht.com/IAi2A1ukQunZaoCY1OUJnvZC_MAEjnYzlg7vcsIuPQyLIB710_5ueVQ3El8Pok0aNvlB18-Tdo1euhYbaf0'
  lat: 40.115224
  level: 7
  lon: -88.24957
  name:  'Linda M. Wesolowski Memorial Sign'
- ap: 3474
  img:  'http://lh5.ggpht.com/6qIQAtIoPbAVQ1O3BoOnGg6gtTa9fd0JIkxt6P1kmSimVswLaPpCRaLEudsNcMfP_kKb4SCE1By1o3lhYevmIA'
  lat: 40.1172
  level: 5
  lon: -88.243745
  name:  'Circle of Friends'
- ap: 3474
  img:  'http://lh5.ggpht.com/KuDVZqnpBQnne0a_UqpN4wpsQFlw3nVXAWtRKP_AdZ3CjQ0MHUBgU_2hE8hb71h31FTQbduYmB6DNuVKA0s'
  lat: 40.116822
  level: 5
  lon: -88.243445
  name:  'Remembering Horeb'
- ap: 3474
  img:  'http://lh4.ggpht.com/wbrbzDCo3C4qFJyHTWOST5o8B7kwZSWePUWOboIlYrdvxjrhWLqVQ1MqUF5-Hy4nt26x_oHQq9f8EbfdEjVK'
  lat: 40.117382
  level: 5
  lon: -88.243748
  name:  'Days of Venus'
- ap: 3474
  img:  'http://lh5.ggpht.com/fDRifvVcFT_dKhPuNBN4rR9lNHL0Q6NvbMnGr2-ZdiirR2rJrBcWRi4vyM3-DYNHymUs7bWchaWRaUtBpg'
  lat: 40.098541
  level: 8
  lon: -88.250389
  name:  'Dennis Robert Costello Memorial'
- ap: 3474
  img:  'http://lh3.ggpht.com/eIZLSi2oHXQIznnki3LOUvKrTTcJ6a2d9xmuW9B9IjzRMAyaWG19Qw6gTUGWsC5V7R3LlRVD-ySQPp_6uK_aZw'
  lat: 40.117519
  level: 5
  lon: -88.240577
  name:  'Spiral Flight'
- ap: 3474
  img:  'http://lh4.ggpht.com/ETgOsKlMmsv5wRT-aM33VVVEgFvp3ZoMxqXmYKxROpFAYnfPqjWhltqYBG7ajEuM8XKf3mVeSaF7r9grm2t8'
  lat: 40.113448
  level: 7
  lon: -88.237188
  name:  'Boneyard Creek Second Street  Basin'
- ap: 3474
  img:  'http://lh3.ggpht.com/tXDyz6XRrR2AKSg9Rrj1z6jBG4dz7uR9qFmSUO1bWljMEw67ncNiq-2Hx3O9Fs029iRtvCV1gdlGN7pG69L0'
  lat: 40.114104
  level: 7
  lon: -88.237694
  name:  'Lo Park Fountain'
- ap: 3474
  img:  'http://lh5.ggpht.com/gkIcCbfmQWyJ7s9ryhzfOOn1K-oa8huqzZN80X2psVjx_6Iur5egjGncbUIAMLiAJAf9qG1Ac8lX2MomHYY'
  lat: 40.108185
  level: 3
  lon: -88.225203
  name:  'Statue at Medical Sciences'
- ap: 3474
  img:  'http://lh6.ggpht.com/MzDfG6eMMwVr56zIpVxRJKU2aoUq-95CLeBhoiEQQKzpC2zulq5jFDLv1IK0JcRy5Q0PhRAreZ1p2ElsdnNu'
  lat: 40.108048
  level: 3
  lon: -88.226279
  name:  'Nuclear Magnetic Resonance II Plaque'
- ap: 3474
  img:  'http://lh4.ggpht.com/9hzMj8KV-HraIucojjHAEgyMZsJAR9TWvNS-QSBB5LTYBOTwwqfTQySJ_Sz88eP3eyFWFYhx5qDVY93t8fk'
  lat: 40.108032
  level: 3
  lon: -88.225702
  name:  'Centennial Court'
- ap: 3474
  img:  'http://lh6.ggpht.com/Qfyp6BK43B93Oo5kazv7b-62q_5cx5GKxXPyw6Juss-A6AgPx81B0lyWhzW7Ava9ztLzedt07gEh3ia2PPFDwQ'
  lat: 40.113636
  level: 5
  lon: -88.208146
  name:  'Jolly Roger'
- ap: 3474
  img:  'http://lh6.ggpht.com/FsUBggh0M3sjncoth6JaamkCglQtDsuiR89k30B2sMp7srgh0Hz6trgv7BhNRSJA6qI7OvipV8B3XEhzHmaNxA'
  lat: 40.113513
  level: 5
  lon: -88.207559
  name:  'Black Dog Smoke & Ale House'
- ap: 3474
  img:  'http://lh3.ggpht.com/OCKiEBzmQ9VMmiVZuW498_1iUjQHiKo7krCcba5dOYnEpjzNQkGhJZr8d7jJuSxUSdkvKjjzN-gV47-buFSO'
  lat: 40.114488
  level: 5
  lon: -88.209395
  name:  'Boneyard Whales Sculpture'
- ap: 2724
  img:  'http://lh3.ggpht.com/jW-2Ce-dZ1Q0ljxUo3Cv-jckhBnpc4tF_LgZS1keMALkHV6RdWqDFJ2IDEj9bbeUrZbHubk7zNmzoHoLXmA'
  lat: 40.121037
  level: 5
  lon: -88.21093
  name:  'A Fountain in the Forest'
- ap: 2574
  img:  'http://lh5.ggpht.com/c-upLAoA6V12_Enn5doC2Hqtp3W9dLMIb34VHt0aVni2lW2OF5Lddn2c-1XcxmmaN7um9eyxqOF5c3c0hs4'
  lat: 40.118139
  level: 4
  lon: -88.248407
  name:  'The Americans Creed'
- ap: 2724
  img:  'http://lh3.ggpht.com/UWeM-kXUlZAe2JGWDlEh2q1Orpp53g_qVfSvCepKpOy5gVdmDkxbQ5mdsO8xAvDa7K8Iq1lg-gDoQCzy8sck'
  lat: 40.109127
  level: 4
  lon: -88.221387
  name:  'Morton Weir Memorial '
- ap: 2724
  img:  'http://lh6.ggpht.com/BANSBFfuZ3_0ya-JodV7jEB1a-DwSOyegBwPKAODSUFHLmvI7b8zwSiLUAvvqIAYjpU6S_Lm8XRBJ30KDGCIEg'
  lat: 40.116917
  level: 6
  lon: -88.24078
  name:  'North Star Sculpture'
- ap: 2537
  img: http://i.imgur.com/5j1qaiT.png
  lat: 43.026996
  level: '?'
  lon: -87.881903
  name:  '8909f317a6294b2b9ef0c2a136f4cc24.12'
- ap: 2537
  img: http://i.imgur.com/5j1qaiT.png
  lat: 45.948654
  level: '?'
  lon: -86.241444
  name:  '444b76ac69e14903ae3148dc5876bb3c.16'
- ap: 2537
  img: http://i.imgur.com/5j1qaiT.png
  lat: 40.037391
  level: '?'
  lon: -88.262565
  name:  'Willard Airport Fountain'
- ap: 2537
  img: http://i.imgur.com/5j1qaiT.png
  lat: 40.02827
  level: '?'
  lon: -88.573632
  name:  '320a051b365f497b9ebcf74dc9083b42.16'
- ap: 2537
  img:  'http://lh3.ggpht.com/-mMz5f80ITpPoby5jxbF9QtmyShskFPdt3J1DYxUUOJnPDobi-B33A_7DJQ8N-kfYBjPJR09_PYzGhzSHm0'
  lat: 40.064501
  level: 5
  lon: -88.293621
  name:  'Curtis Orchard Harvest Indian Statue'
- ap: 2537
  img: http://i.imgur.com/5j1qaiT.png
  lat: 40.04101
  level: '?'
  lon: -88.384378
  name:  'St Boniface Cemetary'
- ap: 2537
  img:  'http://lh6.ggpht.com/A3o1Nm3JPbfRGX8fs0D87GlAc2sSTKVl6IimAZxRyIfLyPcsMcbx7s4WqUTkMcz70wzyETv1zaJZtlBTRdBG'
  lat: 40.083723
  level: 5
  lon: -88.288027
  name:  'Windsor Road Christian Church'
- ap: 2537
  img:  'http://lh4.ggpht.com/-P9_K1M8m41FpGEgfyih0JNuexcc1mtm7Hq3LOuozksba15MIQWefDgfBs20Uuf61Txiy9-ALeKCMVWuBi4'
  lat: 40.083514
  level: 3
  lon: -88.276579
  name:  'Christie Clinic Hospital '
- ap: 2537
  img:  'http://lh5.ggpht.com/dnj__uItXDR_xj-g5PNpGYPNjJCPBFpsx3w9sWxvrOlayO6nyG_Qu8MygtuFZm9i4L2Gho0fkOACtzkGR_e2wQ'
  lat: 40.098457
  level: 4
  lon: -88.276763
  name:  'Mini Park IV'
- ap: 2537
  img:  'http://lh5.ggpht.com/EoSf8hHJu8u_sZNBmm3S1GHAWAxUzBsmXEWMMBkHb0fpzxtjz5RHwnclV42-DDwyDr2BION1zqJ4sLIkaiw'
  lat: 40.121818
  level: 2
  lon: -88.222608
  name:  'King Park Tennis Courts'
- ap: 2537
  img:  'http://lh5.ggpht.com/2jocF-ooKfacyT7HSwrwNcZTSN02yFkcmXBkPx777CYuD5O6sHPHwyUabblNOl_37YOxba1Gjid-TOwLVBlJ8g'
  lat: 40.116448
  level: 6
  lon: -88.248459
  name:  'Uppercutted Sculpture'
- ap: 2462
  img:  'http://lh5.ggpht.com/_9uqsDQROIwqIhKx_URY4DdZAapoZBEWK6Eaclt5mM5vPsjwQAD-v8Bv-4b-Smq2F8X4zOgzLx2KwySkFWc'
  lat: 40.118448
  level: 4
  lon: -88.25211
  name:  'First Church of Christ, Scientist'
- ap: 2537
  img:  'http://lh4.ggpht.com/ZwDzLvPP0KTL_mUj9ta-0DRkbA4q3X7b-r02bm3rTibFkPbu00GKehClddYfSkXbwVuJ4pjt4T7yo7ou54ov'
  lat: 40.111869
  level: 5
  lon: -88.227932
  name:  'Talbot Lab Mural'
- ap: 2537
  img:  'http://lh4.ggpht.com/1n-hHkU1cTz6dykw37WBVQqctZlzyl9gYgy7IMi1zcMf1t0ry6F1JPnwlvUjq_6YNdolofY_rLbuL_uLQwg'
  lat: 40.112913
  level: 3
  lon: -88.237848
  name:  '2nd St. Basin Ampitheater '
- ap: 2537
  img:  'http://lh3.googleusercontent.com/EvLov_3eYLGHotkWec9w3T1VCPQri5SR8JLZjbJUaxRsyGPLS4YQNXf90xlPoKjxGYlml9N8IDYKwpNvVIWlVA'
  lat: 40.114563
  level: 4
  lon: -88.228735
  name:  'End Caps Sculpture at ECE'
- ap: 2537
  img:  'http://lh5.ggpht.com/2zEYZdL0tuQhUP5HHcOYFsPQfjx-nNDHhi8DMJEzzkjbEA9hODz2iDCcmj4S9NEGBsHW4nYYR010lA_6kyhk'
  lat: 40.10038
  level: 3
  lon: -88.225191
  name:  'Eleanor Hammers Boner'
- ap: 2537
  img:  'http://lh3.googleusercontent.com/XQb7KWjSJlhbfrYsW2727_AeRoEQ5BbG0fRTTY5js_4zRdArbiRhCRkXunVa81rQpk9yX4RB6x1dV97DnYN7'
  lat: 40.104722
  level: 3
  lon: -88.223683
  name:  'Louise Freer Hall'
- ap: 2537
  img:  'http://lh6.ggpht.com/c2I39IJvSBKmCLonmhP_RN1vLEpYY1recBXFm8xpGHxES4bAN2kvAcda8ZzvT75uq0yWQCv7N_dzP6ce5-Tu'
  lat: 40.108043
  level: 3
  lon: -88.22469
  name:  'Building of Molecular and Cellular Biology Sculpture'
- ap: 2537
  img:  'http://lh4.ggpht.com/6WTMH3liIIuH6pEvRGZOkUNNR84nR8frjFch6yn_4mbGIokY-MajBCG6jZHWU37a8TBI97rYTBlX-ks8m5XJTw'
  lat: 40.112843
  level: 6
  lon: -88.227657
  name:  'Class of 1904 Flagpole'
- ap: 2537
  img:  'http://lh3.ggpht.com/aHqOXq4BX_XXhSNRFJn0768z_1bjWEniMumNJ4FMy9Nv5j3AefPsZDiAGCehCguZ1HFOBMBXxRI4mOXd077e'
  lat: 40.112957
  level: 6
  lon: -88.227127
  name:  'Early Computers Plaque'
- ap: 2537
  img:  'http://lh6.ggpht.com/0WV0zgKIo2AbnMTwJXYSM-C6nik92XvxsPKcZps2SdFzIWJ2bY4k2dHAqdImb1hTCK910NMvQYoKlwWprt6c'
  lat: 40.12034
  level: 4
  lon: -88.211743
  name:  'Alice Mimi Muller Dedication Plaque'
- ap: 2537
  img:  'http://lh6.ggpht.com/jhMQ5IGo-EB8MiVSEIUKmHbHwagHnJzv5RKZvsbHLes_88gz9Kesj98eZWV29mufV0LSUVjs53V5hMFQOG2Q'
  lat: 40.11067
  level: 5
  lon: -88.220974
  name:  'Astronomy Building'
