- ap: 11720
  img:  'http://lh5.ggpht.com/HhVreJipNvxPRVFpmsh2BPo9PcpPO2Q2l3jCpDjIKgfKGycoTNPXR4DKiYccBXW4X-4dJf_vV0ESsWAWHcChsg'
  lat: 40.100936
  level: 8
  lon: -88.250855
  name:  'Donald F. Bresnan Memorial'
- ap: 9846
  img:  'http://lh3.ggpht.com/lzCSS0_tjwUV7JQ2fgLI0e05IrzPxlVUs-6aEPOwUv67IanQJSTi71gkw0SGm8asmoE_r3Xoh048Fd9xRpE'
  lat: 40.099169
  level: 8
  lon: -88.251419
  name:  'Lyman Larson Memorial'
- ap: 9096
  img:  'http://lh3.ggpht.com/rUgM7jkTqL0VHxvsSW0yWuNJF5UrU62ITflghfn4PfKjn6L4WGz0ALkv98fc_q9dmK9SSpU1PXIawGvcRwE'
  lat: 40.098246
  level: 8
  lon: -88.251974
  name:  'Hessel Park'
- ap: 8909
  img:  'http://lh6.ggpht.com/5CDidk0pqfUtSW_Yqouuf3diX8drdMu9DoT728QpSz8q6A-WxNhT0yLcgM_7gGpyIAeXrHiTkIzzaVJFgnN9WA'
  lat: 40.099852
  level: 8
  lon: -88.251947
  name:  'Our Friend Tim Palmer'
- ap: 8909
  img:  'http://lh6.ggpht.com/qSCp5fQMlyCQ-GOAgiSFy5gaHJei705Pa3eOlJiYO5wGjZTYtjA8q7QWWfAWcLKjxZSaFiMfXOPR8SO7rWU'
  lat: 40.099353
  level: 8
  lon: -88.251876
  name:  'Raymond B. Cattell Memorial'
- ap: 7970
  img:  'http://lh5.ggpht.com/TwKxvDv1ImbH5RTs7GHqqK_rPohVtqtgToH7YuDkkwa5BRFiMEcY1vWcFrJLkhaXW6cd2YVL0_Vro2JaA3K1'
  lat: 40.131575
  level: 3
  lon: -88.314062
  name:  'Mark L. Rambow Memorial'
- ap: 7785
  img:  'http://lh6.ggpht.com/yjfa0jJLjsfLRf9Zn9iafMp3MuIhgCi0WiOCF8GqTGiGvzEnsPGrFa0H1n-uzWhVehLbt44ShthsA32VzHd5iQ'
  lat: 40.099737
  level: 8
  lon: -88.251157
  name:  'Tyler Van Atkins Memorial'
- ap: 7409
  img:  'http://lh5.ggpht.com/tfAfnmo6mSMc6U0P533NMFJRGwn6lasmx-MLR2JJg1QOizMKkghFU8E7hb2zgYgdQEbgnCJUlvZIMdrrJe4'
  lat: 40.100822
  level: 8
  lon: -88.25193
  name:  'Seeds of Kindness Bench'
- ap: 7035
  img:  'http://lh3.ggpht.com/1JgqaWx4DIU04ms-XmufSumQ5BDP07SB97-kBjzxDePlLQR9HagCTfqdviW9ErxCqpvXgynqeosQhERhCat6'
  lat: 40.108781
  level: 3
  lon: -88.226388
  name:  'Illinois State Water Survey Plaque'
- ap: 6659
  img:  'http://lh3.ggpht.com/xSCQSCRT6pHyQi9LDI3OamMdZnhLQ06OSlHRHnJC0FkDo93VgOcr3gyAV0aPAKagwq9V5iViSSCgIr6_fWCB'
  lat: 40.134441
  level: 3
  lon: -88.314067
  name:  'Seasons Within the Wetland Environmental Sign'
- ap: 6659
  img:  'http://lh5.ggpht.com/6W_b3aoHNnxViA4TkycmE5hhV5q_VHfypLNlgG4sAyw2eJ5Meyzi2-vwTA8miyKA5pZApxbfpAa7uc0zlCM'
  lat: 40.134758
  level: 3
  lon: -88.313172
  name:  'Sunset Ridge Prairie '
- ap: 6472
  img:  'http://lh3.ggpht.com/j0Yx7yuvUTJbnHtY38VFaty8xpyZMMDS_bSmvbHQx_2nQBiLqF4PGpLNdTGXkRgA3-OANQgASvn1mPGcuJi6HA'
  lat: 40.131715
  level: 3
  lon: -88.31369
  name:  'Mark L. Rambow Tree'
- ap: 6285
  img:  'http://lh6.ggpht.com/gSkiCCAxYwrqFAngG83B_LFqd6Nhlw0xIRsGwVPkAD2N-u-qOYoHAUbgxP6laZhFqbIoQevsE0daWcUAMtbW'
  lat: 40.085688
  level: 2
  lon: -88.330182
  name:  'Metal Mesh '
- ap: 6285
  img:  'http://lh5.ggpht.com/4DJAFPeZ_w65Km7VDnsbOqouQaeBuPuxA0KHPQToT_B6o1hBxzdu3kn89UhHgv22Ygj52Fx9QqcbzOytuw'
  lat: 40.100078
  level: 8
  lon: -88.250683
  name:  'Brian Clark Memorial Plaque'
- ap: 6098
  img:  'http://lh6.ggpht.com/S7Utf4_59vQkAP5JhC3mdbzVLKBTt-0zoJ2UjfxUnN10VBbixO-_VwvssWd1LbFSx_yafaijd_U0wTGo870'
  lat: 40.100941
  level: 8
  lon: -88.251314
  name:  'Gabriel Patrick Maxeiner Memorial Plaque'
- ap: 6098
  img:  'http://lh5.ggpht.com/-UWK84I78Sftf7yg-E2pg6xEAWTvyiThgJBJlxbqOZPYKNmzQ8uGgEEMetzplrG1HpXG5kQqNItUeXKxOHDsGA'
  lat: 40.100286
  level: 8
  lon: -88.251747
  name:  'Tennis Anyone'
- ap: 6098
  img:  'http://lh4.ggpht.com/B_I1b0Jy3vW41RX8jjCNPP68AULplU0Pf8ddolyKmpEWCfBVShQkmjF1HfTPzDjmBBQGgOs0jHW-rUR0mv8BkA'
  lat: 40.098789
  level: 8
  lon: -88.251685
  name:  'Curtis William McKinney Memorial'
- ap: 6098
  img:  'http://lh4.ggpht.com/4LxsGZZMk3DnpJXUvqzrL54CHSP5TDXjUnDJyHmCCTtCJIjGEI7kxT9g4uxfSPh0X6yGLgQo1jfqbu7B8VEr'
  lat: 40.099084
  level: 8
  lon: -88.251826
  name:  'Irina P. Stewart Memorial Plaque'
- ap: 6098
  img:  'http://lh3.ggpht.com/G1CvGhpethi5UmprDWxZN9rTblHa3anSsQz1UPgJtkREkfN7lDFoxFObst0609Cg5mofuZxJKr0ddNKhY4VL'
  lat: 40.098464
  level: 8
  lon: -88.251426
  name:  'Ruth Haasis Memorial'
- ap: 6098
  img:  'http://lh3.ggpht.com/8FqlniFErK7cq59awiT84u8KyV4FIRd5krZzfYa58zJToFps7whdBnriPqvO_kFKeLUE3SWbJhCOPuvUQzaGFA'
  lat: 40.100691
  level: 8
  lon: -88.251337
  name:  'In Loving Memory of Zeus'
- ap: 6098
  img:  'http://lh3.ggpht.com/VrbXGwlUosNLEkVdshWUFoVa3KtlJQoEU4yLYygvftYbPCmxo644Uvar_v8Kb9RS53hB0tXgvV44GotrxZyu'
  lat: 40.098592
  level: 8
  lon: -88.251676
  name:  'Ruth and Fred Steigmann Plaque'
- ap: 5722
  img:  'http://lh5.ggpht.com/ek0AuIkZd5CWKmIdjFjq5gOvptOzC8VJUnyatNG8ZyUoT8-mvkd4seW8Gpbl4kkgiatIbr57h5kK_5z6NSGD'
  lat: 40.131581
  level: 3
  lon: -88.312816
  name:  'Sunset Ridge Park'
- ap: 5348
  img:  'http://lh4.ggpht.com/PHV-1ZpFzCAl_ViCKwBY_x2pIDbVyaT7wJH1sTvFJCxrSdRrO1x7NaXq9OdRGwz_Mls4iwk6wuGHMBArfV54'
  lat: 40.098688
  level: 8
  lon: -88.25063
  name:  '"New Holland Yellow Dinosaurs" at Hessel Park'
- ap: 5348
  img:  'http://lh3.googleusercontent.com/hvoLMUc9UoNVVPttxWTc8PzOWdu5MBmPETnBexH7Alyl20WGCrNa0G_j7DwvD3qbhqpTaeThFhGDV2rCtp8'
  lat: 40.107629
  level: 6
  lon: -88.224484
  name:  'Bucky Balls'
- ap: 5348
  img:  'http://lh4.ggpht.com/Mr8XeGiDafWk47NSkxDW3WManlpDnqzQWOT1VE2j0f0jFdh3tCvvntj45n1BJEnHylldZRnpPEOJ8OLeFZI'
  lat: 40.114405
  level: 5
  lon: -88.224198
  name:  'Siebel Center for Computer Science'
- ap: 5348
  img:  'http://lh5.ggpht.com/f710C9AvOEB7ieCI4f382wWUP4OgDxiqPzbxqxct6Ugf2PWBfyXyDpG_JcRQ6PaZ_jS0jpXXBhNSt_u9rFA'
  lat: 40.113864
  level: 6
  lon: -88.224839
  name:  'Plato: A Social Networking Revolution Begins'
- ap: 5161
  img:  'http://lh4.ggpht.com/1LzO6yLZvWb6_g3FLduNKYb6d5TVljqsdNnQggC6Idh7XbUSLf4TOcuWChcYsVve_pt7N5f77mEJLTqUmA'
  lat: 40.085878
  level: 3
  lon: -88.331166
  name:  'Porter Family Park Dedication'
- ap: 5161
  img:  'http://lh6.ggpht.com/prg5Oedqi1_YJMN9GAesf7bmbUwbMGc9v7E3SYkm-TYdudfpX9SwuC1J4D4zkb1K4yrvF2ZPNWDoUniixORu'
  lat: 40.086493
  level: 3
  lon: -88.330828
  name:  'Environmental Plaque - Prairie '
- ap: 5161
  img:  'http://lh4.ggpht.com/ykcBOYTGpoR392b8KhoJ1HeCMQKdls6__qGzmBtOaVho1L5T2KYhV8130wLVGDT_Hr-dhJX4tl1qSQdDtLZj'
  lat: 40.085955
  level: 1
  lon: -88.332754
  name:  'Robert C. Porter Family Park'
- ap: 5161
  img:  'http://lh3.ggpht.com/rT55OoX-8s-w_ikrqOgpC7QkK-Iqp4ylicElGoWFagKRQ8LX3Uvv8TZ5Xc8BlId1btzo5FTbgddPN72kYwA'
  lat: 40.114327
  level: 5
  lon: -88.224492
  name:  'Siebel Courtyard Structure'
- ap: 5161
  img:  'http://lh4.ggpht.com/L3_3bdFGcwi5zvNhxvPnMFZZEm1bKFSEVI3DOlF-FaUcX4jDGEwZ8xezrXUq6-71tbPP7kIe9PT1CTTY-ZjJ7A'
  lat: 40.114539
  level: 5
  lon: -88.224663
  name:  'Bench of Opportunity'
- ap: 4972
  img:  'http://lh4.ggpht.com/YMDDyyJpIhe7xeYVGH048CFQDr7lX1SIPXzk4kXWr6zVgpUv6D1YGTLKwyg3DrhDoCuv-knBgF2gKZTylVRQ'
  lat: 40.132912
  level: 3
  lon: -88.314568
  name:  'Sunset Ridge Park'
- ap: 4785
  img:  'http://lh4.ggpht.com/A15Qc2ImqJFORKlDItFStr3pkJ1pX5dRyG8VO6RoziKIqMOMMTQdJa-fUInsxL4o7Yxg1XNHfexBZuNAyLG0yw'
  lat: 40.132021
  level: 4
  lon: -88.31285
  name:  'Sunset Ridge Park Dedication'
- ap: 4598
  img:  'http://lh6.ggpht.com/ocpQF23CdY7CXPOYMbPL3wLLV7Rc0VayvSyooA07il2lG0oiiQDbDCnsKqO1ysXJAVlzGikCKS-kVOLb6rog'
  lat: 40.135079
  level: 3
  lon: -88.314559
  name:  'Sunset Ridge Decorative Gate'
- ap: 4598
  img:  'http://lh3.ggpht.com/b9HBD2zL4T02YqqDOnuBzYEU0UECTZDRgjLjZJV7cnX75wbmiWtc5yBUo_FZrZ8yBH69UsrbeJlq-VS-mPmi'
  lat: 40.109438
  level: 3
  lon: -88.226301
  name:  'Illite and Clay Mineralogy Plaque'
- ap: 4411
  img:  'http://lh6.ggpht.com/Jltxi7PZ9OVi8hBCUxdt9oxXQk9zmbrtHpM_jru2WhVYyY0UkNZ8h5SU3CdwMRNzZ1ZKabPR8hDCPz7p3Ms'
  lat: 40.114439
  level: 5
  lon: -88.245013
  name:  'New Covenant Fellowship'
- ap: 4411
  img:  'http://lh6.ggpht.com/ytlRYKlqnchcFvl3QEN1XknYcwYKIjohz4qzWW8SmhDi5mypBmgPbf9e4ghZWMZY5gpD9HIyalemSKsIzyA'
  lat: 40.11408
  level: 4
  lon: -88.245852
  name:  'Champaign Fire Department'
- ap: 4411
  img:  'http://lh4.ggpht.com/vKgqIecJshMQxrhO-ZhMjcIyARuJdyU63wKfzAG0wouZex6LVzO46Qi5zM1N3Jx8xyantDFk9sQGsSEBhb-y'
  lat: 40.101327
  level: 8
  lon: -88.251412
  name:  'Zeus Memorial'
- ap: 4411
  img:  'http://lh5.ggpht.com/ENeQgqydWbi9-Oyf7vizunoRqJdsZV4o0RA_956wjGI8hqpTCHBPyWMpbTrrkwYpj5tgzDRvevGmvH4eFRU'
  lat: 40.099593
  level: 8
  lon: -88.251724
  name:  'Blessings from Devon Elaine Cattell'
- ap: 4411
  img:  'http://lh5.ggpht.com/C6wRSaEWO1NYGY5luyYZKHG3Z3aib4aflaPdV7B9G6N6adE890g3QuPRSvCUhsdFHqjoVUjo27mfz9WsjXyuhQ'
  lat: 40.100521
  level: 8
  lon: -88.250864
  name:  'Gabriel Patrick Maxeiner Memorial'
- ap: 4411
  img:  'http://lh4.ggpht.com/mlUN5QXAR7rKFvUg7yhxcae3udkR7zCJVaWt5sq_YA47piV6tRi42RNN9fEtT_FafT7lhqg26WM1VETbz5E'
  lat: 40.098239
  level: 7
  lon: -88.25376
  name:  'Hessel Park Christian Reformed Church'
- ap: 4411
  img:  'http://lh3.ggpht.com/wOZOXhKOnhbKEPMQke-zGIG_vheDkHM8q19B1n_is5H7t1whBcQxBIGZI6VIPNw8mdCNXG6EUZeSjd1YLdngdg'
  lat: 40.108965
  level: 3
  lon: -88.227184
  name:  'U of I Mother''s Association Plaque'
- ap: 4411
  img:  'http://lh3.googleusercontent.com/OuV-xkKMYekdQdkQ7ADOaDN6edPO8xYZvaEbWyHP6JyqwkHzp9R8_ahyUbfwy94AY0LtAPJet4eGG9iAsKY4'
  lat: 40.108965
  level: 3
  lon: -88.226465
  name:  'Harker Hall Fountain'
- ap: 4411
  img:  'http://lh3.googleusercontent.com/NRpdP-ebGuykq3sH1NZBQVjhmSdVJW3F4MTCRdXrWKQf3Z5dBgo0Phhyqnel5IrJmriQRmJNFR12lRDrjxJ9'
  lat: 40.114911
  level: 6
  lon: -88.227781
  name:  'Electrical & Computer Engineering Building'
- ap: 4411
  img:  'http://lh5.ggpht.com/ZDv0mHiZcEfLxGVibvfnMCu7reJceCVnxa4GeBjK2DO4Y4a0x-M7C2M0rEam-_bPlr2e2476RXe15pRY48s'
  lat: 40.114351
  level: 5
  lon: -88.227096
  name:  'Chi Epsilon Civil Engineering'
- ap: 4411
  img:  'http://lh5.ggpht.com/4eagHlnlpVbtFi_knZN73PIs2A--Ipj6SOlkQADePlfnzfOnJn-cAv0IoNNv4qR8WrbUFImUKHBknyaoAewO'
  lat: 40.111383
  level: 5
  lon: -88.225675
  name:  'Only Rain Down The Drain'
- ap: 4411
  img:  'http://lh3.ggpht.com/x5fBw8MRogV8dm3kPO5zKNkUrQxn0dM7d1PIoASdX1_Rc8H5Duex4iZdOoIlqazCGll25TmptsWIRq1JFmj6'
  lat: 40.112135
  level: 6
  lon: -88.225762
  name:  'Computer Based Education Plaque'
- ap: 3848
  img:  'http://lh6.ggpht.com/fBCIw-ohQqPYmU_DWfwbcZnXqbmVh6zOWlUta8mx1F53zxG1Wxr08J9-fOCaz1B9i_8Nb3Il_kqdxzdyRyc'
  lat: 40.109043
  level: 5
  lon: -88.224397
  name:  'Archaea Plaque'
- ap: 3661
  img: http://i.imgur.com/5j1qaiT.png
  lat: 40.360306
  level: '?'
  lon: -88.431268
  name:  '26ffbb1778974e99a93bb874fcb6c57c.12'
- ap: 3661
  img: http://i.imgur.com/5j1qaiT.png
  lat: 39.978211
  level: '?'
  lon: -89.840843
  name:  '418b50e45b224a30949aa62452baae55.16'
- ap: 3661
  img:  'http://lh3.googleusercontent.com/FMrsRGg4e1AuMu6m4uCIpM5nawtelx8reIfMtog4nuxXU9C7--UKQnUEAm9s4Vc7OfMjfIDX5loNOw4Agz2HAw'
  lat: 40.118715
  level: 6
  lon: -88.242373
  name:  'Richard D James Mural'
- ap: 3661
  img:  'http://lh4.ggpht.com/FAqopsayR2vfoblDs12USLGHxH0S1lfng6IlvgMPO2k4a1fKXYQnDWf0Lbf3zAqLfMU0aGaHpSZxycRqft9pmQ'
  lat: 40.119381
  level: 1
  lon: -88.24555
  name:  'The Lodge on Hill'
- ap: 3661
  img:  'http://lh5.ggpht.com/dEeT4acpLu-WQFlZWd3psap5qAqqPTSVzm8Qt1QtpqtwZ0j1V9eKFcmpgN9K_x1PL4XVchuevw25rxHekz3tvQ'
  lat: 40.111968
  level: 6
  lon: -88.226793
  name:  'Bardeen Quad Structure'
- ap: 3474
  img: http://i.imgur.com/5j1qaiT.png
  lat: 41.321413
  level: '?'
  lon: -89.904576
  name:  '4a7a30879ad44b17997c61ba74737608.16'
- ap: 3474
  img: http://i.imgur.com/5j1qaiT.png
  lat: 41.757888
  level: '?'
  lon: -88.87069
  name:  '99f320ce6a7340f7b3463ca4fbe4eb09.16'
- ap: 3474
  img: http://i.imgur.com/5j1qaiT.png
  lat: 41.768062
  level: '?'
  lon: -88.874169
  name:  'ef4974d2af254b5bb0276784066372e0.12'
- ap: 3474
  img: http://i.imgur.com/5j1qaiT.png
  lat: 40.273821
  level: '?'
  lon: -88.676394
  name:  'Blue Star Highway Memorial'
- ap: 3474
  img: http://i.imgur.com/5j1qaiT.png
  lat: 40.272743
  level: '?'
  lon: -88.675349
  name:  'Adams Leaning Wheel Grader'
- ap: 3474
  img: http://i.imgur.com/5j1qaiT.png
  lat: 40.144489
  level: '?'
  lon: -89.364275
  name:  '3dd0c6e2cd7e4f16a5c1224b83f4bc12.16'
- ap: 3474
  img: http://i.imgur.com/5j1qaiT.png
  lat: 40.550591
  level: '?'
  lon: -89.660478
  name:  'd44875158e794c8d94f21ccb0c252934.16'
- ap: 3474
  img:  'http://lh3.ggpht.com/9aQBG-poFARclK9XL7iFIvWePkawZwWhv4Sh0zQhQ0Sy9gdDD508d4gCtpcUP9UNoYM6uztea0aQ05RPd9rZLg'
  lat: 40.115412
  level: 5
  lon: -88.245046
  name:  'Eddie Thorpe''s Memorial Rock And Tree'
- ap: 3474
  img:  'http://lh3.ggpht.com/XUcV2LF_XKVfRYKLrnubIeaLniLx97X1-q_QbId6nLk55xKp9axvre_97coBT_kZQNIVfkeseaCxJHtHj6iA'
  lat: 40.113924
  level: 4
  lon: -88.245568
  name:  'September 11th Memorial Plaque'
- ap: 3474
  img:  'http://lh5.ggpht.com/kcTMx3CqTnXQqNvx00fF4K5HQ34eOunlWHiU7JEB4nKyl3U14EbEpsqxVT2opoz78bQFDtIZR0IKDuewhKCG'
  lat: 40.119409
  level: 3
  lon: -88.242244
  name:  'Vintage Orpheum Artwork'
- ap: 3474
  img:  'http://lh3.ggpht.com/oAhplQsltGmJyd6-FfScd0PFPwkg1lJn96dHQNw4VxgOy__gt2IaqcXddSDJHyFfu2JMrCFWTHHXbHhHnTU'
  lat: 40.119636
  level: 5
  lon: -88.243213
  name:  'Sunder Planet'
- ap: 3474
  img:  'http://lh4.ggpht.com/qj7RZgjywjmhALnf1YyB5hWBrpO3hxjXZJdOzfE7YYV0p_vq9KA8GrgL9SfBHf_Ry3MVzMy1iJ6pAOkYL_lT'
  lat: 40.119118
  level: 3
  lon: -88.24584
  name:  'Amvets Post 3'
- ap: 3474
  img:  'http://lh6.ggpht.com/5m_DdlbswQXPJueGjlDknXPY3RqwtwdrWAsNLBfbSNENcdAw3oafNYp_YTPk5KmZZpY5M4zwdxKoE9Tq5kDv'
  lat: 40.118985
  level: 4
  lon: -88.245285
  name:  'The Little Brick Memorial'
- ap: 3474
  img:  'http://lh5.ggpht.com/gkIcCbfmQWyJ7s9ryhzfOOn1K-oa8huqzZN80X2psVjx_6Iur5egjGncbUIAMLiAJAf9qG1Ac8lX2MomHYY'
  lat: 40.108185
  level: 4
  lon: -88.225203
  name:  'Statue at Medical Sciences'
- ap: 3474
  img:  'http://lh5.ggpht.com/LLVKvcsTaSPmGBzaGFrvYIV4RhGzb6LqC_npAarehd2aLZSaVhjGzQV6T63Ke07reCQzO-GoZXmEfwZMOcM'
  lat: 40.110569
  level: 5
  lon: -88.226784
  name:  'Cubist Art at MSEB'
- ap: 3474
  img:  'http://lh6.ggpht.com/j712bbvDknzGlAU87nZA1Bx45Ng-0MGA9Uvuv-3WzIKA3W51mXOZpJ-TzVSbuU3uE2AsJ5wcO7_B6WDpdRr0'
  lat: 40.110684
  level: 5
  lon: -88.226053
  name:  'BCS Superconductivity Theory Plaque'
- ap: 3474
  img:  'http://lh3.ggpht.com/3WnMbDq1Vm3HiqAM5qk1r9m3OqcO-YUN0nCOt2yRfUxVWLZ-8huxevlCI0JnIJgpSBZN4mtw0gxJnrGtuaS9iUf7k-JFfmRGRkBXQafWO9MIk_oJ'
  lat: 40.115491
  level: 5
  lon: -88.227358
  name:  'Arnold O. Beckman Statue'
- ap: 3474
  img:  'http://lh3.ggpht.com/2WMtYMnBjTlw-gPK9quwjMde6Heie7SQHCZT41kPiIpOwxXEIQWbB_euK-R5rZhqUcmGuZJ0tIBh_801KGyVsw'
  lat: 40.11453
  level: 5
  lon: -88.227324
  name:  'Beckman Institute - Upwells Fountain'
- ap: 3474
  img:  'http://lh3.ggpht.com/LR76HrJqriPFUoc2XSs7jb2SotnStZv20kI7rgUx8B5HqhmetnTW4MA1tCp1ws4g5gw0sf9g7M3Lwq4VwfpD'
  lat: 40.111687
  level: 5
  lon: -88.225353
  name:  'Transportation Building - University Of Illinois'
- ap: 2724
  img: http://i.imgur.com/5j1qaiT.png
  lat: 40.451766
  level: '?'
  lon: -88.117878
  name:  'd6cfe09ebcf44ee09b8cbc7b26c3a6c5.16'
- ap: 2724
  img: http://i.imgur.com/5j1qaiT.png
  lat: 40.33555
  level: '?'
  lon: -88.998923
  name:  '4c96398791b2462a8252b7bdba0ab9a2.16'
- ap: 2724
  img:  'http://lh3.ggpht.com/g1H1SJintXK5Zb7ng6DN7wix1q5otnzMK5JCJDnecwuIiohJmhXLJs1XzItxaTSYEuPPOqd4x-dGqd0WK5YU'
  lat: 40.13349
  level: 3
  lon: -88.313072
  name:  'Sunset Skate Park'
- ap: 2724
  img:  'http://lh6.ggpht.com/DkIzbz45_-iovgdhY20n6Mzhc_LaPfAOZkL9uA4Rf6oUgyiqjmrZi681sMMhea6poUz-PBn2eJCF0TEadWkp'
  lat: 40.107411
  level: 5
  lon: -88.28586
  name:  'Emmerson Dexter Field'
- ap: 2724
  img:  'http://lh5.ggpht.com/e0BZy-ClP4miKQ9vYfkRIgxEUrpGMn9VCB-nRa_Kj579pT19ZzPuvvL1MRfd1Xu_pzF1eA-hvVhF6zLxaUTCsA'
  lat: 40.104118
  level: 7
  lon: -88.285677
  name:  'Mike Phillips Memorial Plaque'
- ap: 2724
  img:  'http://lh4.ggpht.com/Oocso9yyW_QlJlddbFRk8zzguP4PfXU8kI9T5rJbiyNwSgNMG0BmSoK3TdG2cEgH-p2Xd_vpQMxA_RcxLUP3'
  lat: 40.109066
  level: 5
  lon: -88.247875
  name:  'The Church of Scientology'
- ap: 2724
  img:  'http://lh3.googleusercontent.com/0hydzoUNO41CcF2qZhlhMbaEgMVFjql3_RSDgrJLVIToqRsqh2aBcAoXsrxAlwXqgTcB1R71HZiHrjq1KdnXgA'
  lat: 40.11243
  level: 5
  lon: -88.235749
  name:  'Fountain at Scott Park'
- ap: 2724
  img:  'http://lh6.ggpht.com/0IsQORyEW-bPA7sEbGspygtoI7ixEshm_2fUw5oeh9AeXg6JN5w0ypYIshpuKm-C0nG4Vm2XmpLvtWTZzWzd'
  lat: 40.111607
  level: 6
  lon: -88.233753
  name:  'Chabad Menorah'
- ap: 2574
  img:  'http://lh6.ggpht.com/hf2-XzERtSQhHYqpfkmEoUelpEes9pxtJ5gINRWSZ6NTzyKQI3lTEEq-UDBSvbmADpUd1ScID47hMvXgmHo'
  lat: 40.111432
  level: 4
  lon: -88.207259
  name:  'US Post Office'
- ap: 2537
  img: http://i.imgur.com/5j1qaiT.png
  lat: 42.482133
  level: '?'
  lon: -87.80197
  name:  '79b9ada5198248c1aa34ae25454ca493.16'
- ap: 2537
  img: http://i.imgur.com/5j1qaiT.png
  lat: 41.892207
  level: '?'
  lon: -87.598934
  name:  '4ac3747275ed43bb955047bfbe78559b.16'
- ap: 2537
  img:  'http://lh5.ggpht.com/BoAN9OSCH5u7G1sestzZaXjjik82i-SteF6-r5KTTyl530q9H5G3ibjJdqpGGY-nL8MypRXn2twwvn_y5nMmug'
  lat: 40.133159
  level: 2
  lon: -88.28778
  name:  'Campus Solar System - Saturn'
- ap: 2537
  img: http://i.imgur.com/5j1qaiT.png
  lat: 40.361766
  level: '?'
  lon: -88.429109
  name:  'Foosland Village Park'
- ap: 2537
  img: http://i.imgur.com/5j1qaiT.png
  lat: 40.312242
  level: '?'
  lon: -88.201368
  name:  '2012 Employee Dedication Bench'
- ap: 2537
  img: http://i.imgur.com/5j1qaiT.png
  lat: 40.122056
  level: '?'
  lon: -88.645323
  name:  '9e3af3afef824ee6aee179175a7845c4.16'
- ap: 2537
  img: http://i.imgur.com/5j1qaiT.png
  lat: 40.548254
  level: '?'
  lon: -90.033759
  name:  'f9551dd1d09e423a8667fd2dfd144fa4.16'
- ap: 2537
  img: http://i.imgur.com/5j1qaiT.png
  lat: 42.781053
  level: '?'
  lon: -87.757742
  name:  '9a047756efef4b0b809bdb07c058c4b5.16'
- ap: 2537
  img: http://i.imgur.com/5j1qaiT.png
  lat: 41.634356
  level: '?'
  lon: -87.178294
  name:  'd45d47f7d3a34245812bec73013df8d1.16'
- ap: 2537
  img: http://i.imgur.com/5j1qaiT.png
  lat: 40.007202
  level: '?'
  lon: -88.159089
  name:  'Philo Post Office'
- ap: 2537
  img: http://i.imgur.com/5j1qaiT.png
  lat: 39.985169
  level: '?'
  lon: -88.259496
  name:  '41dd0bbf2c604d7a8eb6bf9863231d7b.16'
- ap: 2537
  img:  'http://lh3.ggpht.com/ehNwLdaa71H3Bylm063pawn4caIGz2rCdmmdBhAFWIuEt2kPjT8nWHDkSuoOidckWiM82FWpDSNGQqQMHiQ'
  lat: 40.098209
  level: 5
  lon: -88.28689
  name:  'First Church of the Nazarene'
- ap: 2537
  img:  'http://lh3.ggpht.com/7sJlWdBFFcLCXWnnfB6SVTzCCDM0Q7KyV5jALfrWG3ICtkw7HXrjzaRrnzSiv19wIswpZoTxKYudzYiZnT9Shg'
  lat: 40.112536
  level: 5
  lon: -88.256779
  name:  'Framer''s Market'
- ap: 2462
  img:  'http://lh3.googleusercontent.com/DJEd6b3-MwXXA5oX_rKCuAtk2dlQ1yS2p9nG8oDmc86DmbzFvhKsP-KR9nKAzn84UUf_K5LjjTMgrt7AjCoU'
  lat: 40.110853
  level: 4
  lon: -88.238339
  name:  'Boneyard Greenway'
- ap: 2537
  img:  'http://lh4.ggpht.com/WFdg25t10cXowG73MPo4WTi8YOc3wTSJiEWKTssgs9mb0Aii3d7iKSHqsebFkdjHfZ8Ej40yDSC7PVdVytHL'
  lat: 40.109177
  level: 5
  lon: -88.285144
  name:  'Champaign Fire Department'
- ap: 2537
  img:  'http://lh6.ggpht.com/duOeXcOSQLWosdD0JJXg3pWWQp4t5sL0x9qDHoTIBFNOzEW0t53Lt2cnwgV2E_Su0l1ajIQxPtVbbK_sDRaS'
  lat: 40.141775
  level: 5
  lon: -88.242671
  name:  'Marketplace Mall Fountain'
- ap: 2537
  img:  'http://lh3.ggpht.com/07XrBN-er6Ecleor0n9RJ4DfGO6B2yn-ZxjI-Uy8Ba46Jtb6cXNVmATPiPiGyk-1jZ4wxa7-EeIWbWUqArCG'
  lat: 40.142554
  level: 6
  lon: -88.243468
  name:  'Dog Heart'
- ap: 2537
  img:  'http://lh5.ggpht.com/_9uqsDQROIwqIhKx_URY4DdZAapoZBEWK6Eaclt5mM5vPsjwQAD-v8Bv-4b-Smq2F8X4zOgzLx2KwySkFWc'
  lat: 40.118448
  level: 4
  lon: -88.25211
  name:  'First Church of Christ, Scientist'
- ap: 2537
  img:  'http://lh4.ggpht.com/BEyFLhgqk0ySf2zElnARv5eyaQggj_zbHSagW3_DGt9BieScmU4jGPvJCjezTjbiCP-DOJPLPfJ3HhnYAiQLEQ'
  lat: 40.119288
  level: 5
  lon: -88.248086
  name:  'The Hartford'
- ap: 2537
  img:  'http://lh3.ggpht.com/ahylfFHnKd7tl8EDQopVPlqhdiJblx_p3TWsELUFACXM_9qS9N8agb-ypr7EOOemNFMUrRGaUQ23LY6F1ssb'
  lat: 40.095094
  level: 5
  lon: -88.257764
  name:  'Faith United Methodist Church'
- ap: 2537
  img:  'http://lh5.ggpht.com/BiCieN-kLaA8XtzYGa1FowWTlW2QzWtnxSCf1y1ChY9WXw1kN0r1Co49FI5D_xcWRrgO-_wOvqfduWQ2o337'
  lat: 40.092411
  level: 5
  lon: -88.257688
  name:  'Champaign Fire Department'
- ap: 2537
  img:  'http://lh5.ggpht.com/AmsS7GEfFX-_Icem2DP6mjQahV1jeut1CGdeqLqfpyzx0m5SqhVY4eoAohizF0xsevPQufmLRMoVj2rW7Fe8'
  lat: 40.111689
  level: 7
  lon: -88.231193
  name:  'Koi Building Art'
- ap: 2537
  img:  'http://lh3.ggpht.com/o6_RpCgHFDA4MceKnIqFkksRYWZkhEKsAZE3VNGl5iS5zkkQWJdBKOY-gNca5iB37jbgnoYsbc1ROtZ-bQhJIw'
  lat: 40.108833
  level: 4
  lon: -88.228125
  name:  'Class of 1902 Memorial'
- ap: 2537
  img:  'http://lh6.ggpht.com/WtqWBwqpYTSw3g9ru5NwcFn5iK5STxWgy2kv4OUTWqwtzx76-9Msz0eqoiw0qpEYE1U4zdt9rzzNZMDNagNg'
  lat: 40.107943
  level: 4
  lon: -88.226751
  name:  'Class Of 1917 Plaque'
- ap: 2537
  img:  'http://lh6.ggpht.com/RW34ntixvJkg7fD71TPYo_4KIsBzA0-a-6yXO0jKPbpGxX5gIGC7kBI-pXEF9OHhuolcAGW2fxyK3Pt42Iev'
  lat: 40.110489
  level: 5
  lon: -88.227412
  name:  'Bus Stop - Illini Union, Westbound'
- ap: 2387
  img:  'http://lh5.ggpht.com/VYMooLhz51W3fCgti3L9LEQNMJjmFeW30saxIYK34yGEReG1naEKEd3eW1uyFgSlzpu-P5KertNDe4Z6qu8'
  lat: 40.109913
  level: 3
  lon: -88.228393
  name:  'Alma Mater Statue'
- ap: 2237
  img:  'http://lh4.ggpht.com/CuRKYla63wCvLaTdKqGMMAd1Mr0_HK3v2iQjltrJwmsOownFtry6TsHMkAeHmOP6ULUYA53u4MUP61rgLzs6'
  lat: 40.1097
  level: 1
  lon: -88.228059
  name:  'Liza Kotz Memorial Plaque'
- ap: 2537
  img:  'http://lh5.ggpht.com/f1O8bFXHTg2PTOAUVLvrqk5xx5ps9SeqhpJ1RIPtSxm0I-e7J275e2ujJp3lFQGHUBW_vS90KOsrcdLDJ84l4g'
  lat: 40.110797
  level: 5
  lon: -88.225321
  name:  'Multiphase Fluid Dynamics Plaque'
- ap: 2537
  img:  'http://lh3.googleusercontent.com/vw4Js8jf11Ok889K1stO5ujNjIO9Ah9DEbsg1xBTrVbaeyBetcG75B8YS8CkQA0KVC8NA5Z02n220SI1UzdB'
  lat: 40.10985
  level: 4
  lon: -88.227236
  name:  'Illini Union'
- ap: 2537
  img:  'http://lh3.ggpht.com/aHqOXq4BX_XXhSNRFJn0768z_1bjWEniMumNJ4FMy9Nv5j3AefPsZDiAGCehCguZ1HFOBMBXxRI4mOXd077e'
  lat: 40.112957
  level: 5
  lon: -88.227127
  name:  'Early Computers Plaque'
- ap: 2312
  img:  'http://lh3.googleusercontent.com/7F3ArbPGhGx3ARCB26P8ldeKhXR15uyu4UN1LUyzoEGT06tuE6FPUKzyT1cdcLR7IVr6pBXdMLRdER5o4ZY'
  lat: 40.111715
  level: 2
  lon: -88.207738
  name:  'Urbana''s Bell'
- ap: 2537
  img:  'http://lh6.ggpht.com/do_DYaj2kuC0reA8E9rCQLDp9K62ZQd4qfV0SBSo8iPPupN2U8_deQ7GHA4zS42XaiZnPqoObG_y_dRCUwNa'
  lat: 40.11283
  level: 3
  lon: -88.209282
  name:  'Cycling Mural'
- ap: 2537
  img:  'http://lh4.ggpht.com/QGRtYb5gsWsiyn9EznIJ0ApB7yWv-SWBAH6CKgO9JRg3PCgn-s8yQMtXPkMDht8dNjPchkCRleUIBT-DnYXh'
  lat: 40.112928
  level: 1
  lon: -88.209039
  name:  'Courier Cafe'
- ap: 2537
  img:  'http://lh3.ggpht.com/Prv8wUbEpOsrluZ4pHXYwIQLreDfbvMRV7kMb39yXob8h_r5vXNRC-wSR6pi-2NeP0uIRJsaeWtsGe96cJ_U'
  lat: 40.112295
  level: 5
  lon: -88.207196
  name:  'War Memorial @ Downtown Urbana'
