- ap: 7035
  img:  'http://lh4.ggpht.com/MvwoDsxwfyNLHzfGkFJl-4VFeX7OvqB0hsMCrZ2D9Olh8GSghAJDfFfDh7a7cOtMIGwEDMyesZoKvKCXAGj4'
  lat: 40.116553
  level: 2
  lon: -88.242268
  name:  'Esquire Lounge'
- ap: 6659
  img:  'http://lh5.ggpht.com/bxjTJmHRd1_7x6zw7y1Eir0opWUqtbJOdAC4FxDOfOBVdUI1zEVV9wo5FiHzTxqR7hajj-4tQrnSyAe2b8Y'
  lat: 40.113974
  level: 5
  lon: -88.311234
  name:  'WBGL Radio Station Headquarters Plaque'
- ap: 6472
  img:  'http://lh5.ggpht.com/6W_b3aoHNnxViA4TkycmE5hhV5q_VHfypLNlgG4sAyw2eJ5Meyzi2-vwTA8miyKA5pZApxbfpAa7uc0zlCM'
  lat: 40.134758
  level: 4
  lon: -88.313172
  name:  'Sunset Ridge Prairie '
- ap: 6285
  img:  'http://lh6.ggpht.com/cZVUlNaHjfsB6Lu5hnj8JjUk4lvsgOV7DFz4Nl47-RaQObW1VPRpos6hTDD6WgYrNxCh9UKfn5DFU-K7lRe9pQ'
  lat: 40.1164
  level: 4
  lon: -88.242747
  name:  'Sidewalk Art'
- ap: 6285
  img:  'http://lh4.ggpht.com/1BgYrJYdcGdepVZ6ibhTjtjZ6MyzKnQzLL4wxEnn_CEPnrJmOKHzPXm1qinGRA78MqKq11gKRlprm3Z7mDr0'
  lat: 40.115645
  level: 5
  lon: -88.243036
  name:  'The Art Party Studio'
- ap: 5909
  img:  'http://lh5.ggpht.com/BK5TjuMzuJgDVPz4C8HRjfZKeaoISnPJ-H7VaYeMNUYmxvvUY7RzIIlR13FjW9HHF_i5-znqs3O6nMxKPfcj'
  lat: 40.102188
  level: 5
  lon: -88.251507
  name:  'Little Free Library Charter 5753'
- ap: 5722
  img:  'http://lh6.ggpht.com/-flzg4lDDrUKk9tz52QmAPy1_59-9KbIO96Br3rNDxK1nmopyzD21z31JQVdJNJHB-Cy6IsEX0VwBbVwvd5r'
  lat: 40.104256
  level: 7
  lon: -88.225268
  name:  'Institute of Genomic Biology Gateway'
- ap: 5535
  img:  'http://lh3.ggpht.com/eFFdc4ogWkS9n6Texp4aw9BhK-M6FRxwvMRH-YkXj7JP7qSRQdo7E0-0O4P7NawgvduxpxgjnbGHbN1BjW2_'
  lat: 40.114585
  level: 6
  lon: -88.311371
  name:  'Joe''s Park'
- ap: 5535
  img:  'http://lh6.ggpht.com/pRR6eCp2PyD3vDZlmHjKOeq8OKg0KhFPVnuWAP-pB7RR36eKA3TlQwYX5pwYfBjPyVyB4oPXXOomdbqpVcY'
  lat: 40.116065
  level: 5
  lon: -88.313206
  name:  'Alan Green Memorial'
- ap: 5348
  img:  'http://lh4.ggpht.com/H1kV6JSczzSbcCblAHg5ZOgITW1mBAz0_oLbqbzxBlijGTBn7TP6KwA6UI0AAGrCN4VF0DAF79Vcj6_2R4dsB8LRTq6tud6v'
  lat: 40.116164
  level: 4
  lon: -88.241661
  name:  'Zipcar-45 E. University Avenue'
- ap: 4785
  img:  'http://lh3.googleusercontent.com/hJZWoErzM-MuXulq4FlhlZwMbJX1Isd81GBUBVKayd57jVIVxUle3itd-1DRKo2VaNXznWr1X639fa44Etk'
  lat: 40.141919
  level: 7
  lon: -88.244611
  name:  'Marketplace Mall Carousel'
- ap: 4785
  img:  'http://lh3.ggpht.com/rUgM7jkTqL0VHxvsSW0yWuNJF5UrU62ITflghfn4PfKjn6L4WGz0ALkv98fc_q9dmK9SSpU1PXIawGvcRwE'
  lat: 40.098246
  level: 7
  lon: -88.251974
  name:  'Hessel Park'
- ap: 4785
  img:  'http://lh3.ggpht.com/lSr_gDGX9o1BHZX9FUPCKAO2VVQjZ_NwTBaSNhNgjVyJ2p6BnLDByC_vIkhu637-W5nKMW2SShi0gXOlXNqY7A'
  lat: 40.097979
  level: 7
  lon: -88.247785
  name:  'Jarling''s Custard Cup'
- ap: 4598
  img:  'http://lh4.ggpht.com/fYq8Qzd7VmDjN_GIWRjblwSGoKKIaUFJTgmMNsJrfWO6c5cZu8xnJc4kDm35ITLO2ePeYakXEDKubdwi0x1K'
  lat: 40.105179
  level: 6
  lon: -88.226931
  name:  'Astronomy Department Sundial'
- ap: 4411
  img:  'http://lh3.ggpht.com/07XrBN-er6Ecleor0n9RJ4DfGO6B2yn-ZxjI-Uy8Ba46Jtb6cXNVmATPiPiGyk-1jZ4wxa7-EeIWbWUqArCG'
  lat: 40.142554
  level: 6
  lon: -88.243468
  name:  'Dog Heart'
- ap: 4411
  img:  'http://lh6.ggpht.com/2lDM_Uj6QcUJmWkmPhNWg-vfkJbBQAo6zb7eXC5qDTaJ5xAsoU7jPPqYmLo7zztC2Za1oH3QVrHQ78-XabqR'
  lat: 40.116398
  level: 2
  lon: -88.242485
  name:  'Champaign Servicemen and Women Memorial'
- ap: 4411
  img:  'http://lh4.ggpht.com/W2chhQwPqSJEkl57NVoIL-OE4KFvJfp7Bsrrxza1apCYltcT3npz95LJxqHxvT9ZZu7wxF2gQy-5bpKal2p2'
  lat: 40.115838
  level: 5
  lon: -88.241338
  name:  'Illinois Terminal'
- ap: 4411
  img:  'http://lh5.ggpht.com/dRrlHXlT2nMNgZNHiYo52ha9L-Xay9DyOJR2Cpqs74hgAJ09abn9OTAtMzRVedt1_R9ObZllLO98vRhNMfgTgVsJCk1S-HJwX_XgiGpG4lz3a328'
  lat: 40.11671
  level: 4
  lon: -88.24263
  name:  'Cafe Kopi'
- ap: 4411
  img:  'http://lh6.ggpht.com/d3068_HH4kAsh9kxo297VuXrwXdEYfoWcAyI4E1L1NUJ_ejlCSm3X3-ofVYUFWr_F6qyLbalwQ6Fj_SqGEFM'
  lat: 40.104256
  level: 7
  lon: -88.226519
  name:  'The Morrow Plots'
- ap: 4411
  img:  'http://lh6.ggpht.com/SOEkawCv91wHrlqOJdkbN9KzhF3V8Uc1_VE_5V-PUNZhbJ9jXtSHQLjSEP4PGO091UFjUtYxX4Ikg7x6rE0LNawabllL4qbEUfQY-thKMrIXW2E'
  lat: 40.100186
  level: 5
  lon: -88.205286
  name:  'Blair Park Viewing Pavillion'
- ap: 4411
  img:  'http://lh5.ggpht.com/POqHe98NzuBf0a60NvZTCOYoC0L6aw_FSOZMaxr88kV1-papt0D2DM7cRXxDK-_qXTmzSJspa4Zzh9ao7rOaN0iWFYVm5G01GVzh-4gAlR8OFvTH'
  lat: 40.09976
  level: 5
  lon: -88.205422
  name:  'Ann and Ben Schrumpf Memorial'
- ap: 3848
  img: http://i.imgur.com/5j1qaiT.png
  lat: 40.312242
  level: '?'
  lon: -88.201368
  name:  '2012 Employee Dedication Bench'
- ap: 3848
  img:  'http://lh3.googleusercontent.com/Nj5Ai888qxXriCQAeWkG8SbHbFuOlsYYCL3FjX-pCkblSOg30VuNF9lK9SQj4UDlg9R8XMYXpAcWyE9xIcA'
  lat: 40.135716
  level: 6
  lon: -88.291946
  name:  'Campus Solar System - Jupiter'
- ap: 3848
  img:  'http://lh5.ggpht.com/Q32BPmFRIQYqXI5gLOV9ifHvFlGdyD_yws2172-sHnSZ-StunhCM0Abqd9rBWSaKBWN7RPpa1h-nok4Mc23i'
  lat: 40.101062
  level: 5
  lon: -88.249275
  name:  'Narayan & Shanti Achanta Memorial Plaque'
- ap: 3848
  img:  'http://lh3.googleusercontent.com/hvoLMUc9UoNVVPttxWTc8PzOWdu5MBmPETnBexH7Alyl20WGCrNa0G_j7DwvD3qbhqpTaeThFhGDV2rCtp8'
  lat: 40.107629
  level: 6
  lon: -88.224484
  name:  'Bucky Balls'
- ap: 3661
  img:  'http://lh6.ggpht.com/duOeXcOSQLWosdD0JJXg3pWWQp4t5sL0x9qDHoTIBFNOzEW0t53Lt2cnwgV2E_Su0l1ajIQxPtVbbK_sDRaS'
  lat: 40.141775
  level: 5
  lon: -88.242671
  name:  'Marketplace Mall Fountain'
- ap: 3661
  img:  'http://lh4.ggpht.com/B_I1b0Jy3vW41RX8jjCNPP68AULplU0Pf8ddolyKmpEWCfBVShQkmjF1HfTPzDjmBBQGgOs0jHW-rUR0mv8BkA'
  lat: 40.098789
  level: 7
  lon: -88.251685
  name:  'Curtis William McKinney Memorial'
- ap: 3474
  img: http://i.imgur.com/5j1qaiT.png
  lat: 40.045869
  level: '?'
  lon: -87.830862
  name:  '45b861ddcb584aa6a77a778bd3b8ee46.12'
- ap: 3474
  img: http://i.imgur.com/5j1qaiT.png
  lat: 40.285989
  level: '?'
  lon: -88.127072
  name:  'Paul Fraser Kent Memorial'
- ap: 3474
  img:  'http://lh5.ggpht.com/nWEtxuKQdy0teBBue1DYmG7P3SF5-3A6zlB7GwVHBWlolAZYGq6Br78lWcF9ltFy-KeSlozXie2RmU6JfCUX'
  lat: 40.142673
  level: 6
  lon: -88.244603
  name:  'Italian Statue'
- ap: 3474
  img:  'http://lh6.ggpht.com/ea6HxAw7m0OhhPqJJkZR9u60pR1sab_JdxaOyEltqmQd-63FFJzPY72jEnu08g9Gcjjj5cf3jyyS_M1E7OIbfg'
  lat: 40.11616
  level: 4
  lon: -88.241422
  name:  'It''s A Mistree'
- ap: 3474
  img:  'http://lh3.ggpht.com/oHMQr2Z5LayQFbZOwOZK4ZbYQ1OVxs85-qNTvSj8epsP72vQiOdrzVmkuMPFQtCSf9Rr0oqcnSLFjLn-sPw'
  lat: 40.116592
  level: 4
  lon: -88.243236
  name:  'Champaign City Bldg. Landmark Plaque'
- ap: 3474
  img:  'http://lh3.ggpht.com/eIZLSi2oHXQIznnki3LOUvKrTTcJ6a2d9xmuW9B9IjzRMAyaWG19Qw6gTUGWsC5V7R3LlRVD-ySQPp_6uK_aZw'
  lat: 40.117519
  level: 2
  lon: -88.240577
  name:  'Spiral Flight'
- ap: 3474
  img:  'http://lh4.ggpht.com/nWSZEVnpEj78GBs58tujBturUcAqKjsgYU_9v_qXRS_K_ROKLNgBwnqKopJse169VJqqWtn6oo3h_qABlaw'
  lat: 40.117571
  level: 2
  lon: -88.240851
  name:  'The Accord'
- ap: 3474
  img:  'http://lh3.googleusercontent.com/SjusdEZ1n6AkcvHdrM3TfGAqP_W5LJRmm4qEdm5xmdvHcBejD6Jg0kXCZaHyUk5WGeE8Zu0RrSSq_1VDXFU'
  lat: 40.117419
  level: 2
  lon: -88.240991
  name:  'Old News Gazette Offices'
- ap: 3399
  img:  'http://lh4.ggpht.com/YCJnxuMsSs6lLn7vcBFVH6H2GT4I6LBrYLND5MlgY0qXgcTqxN7kKceFSMO3J8URkRBQyXOMtgosb78QK3iA'
  lat: 40.104011
  level: 6
  lon: -88.223687
  name:  'ERML'
- ap: 3474
  img:  'http://lh5.ggpht.com/Ezq3ovJZ5M4i8wxOtoPoHEBF_o5ur2tH3Hdb0QU-JmlxR71RxAS_K5h14xYHSyI2WOF0RuBy_hZZeslYhNNe'
  lat: 40.102329
  level: 5
  lon: -88.221381
  name:  'McKinley Fountain'
- ap: 3474
  img:  'http://lh4.ggpht.com/qRXj_26gyasJAkfT6wSZkP0QYn8-yZkHAYRVxmC-hjk-7pn88goOR99xRnB4SfG-Gq8xh-qbVgQwYmJeT2PrTA'
  lat: 40.103186
  level: 5
  lon: -88.220991
  name:  '"Prairie Fire" Sculpture'
- ap: 3474
  img:  'http://lh4.ggpht.com/j8joGoDXiT8G5MyyFw23RcsYV5nW1rGWTXw-1LPdy1zgRVuKUlM2poC1GcTVA3NV1F_20cCRgX4G6jx_HYc'
  lat: 40.103488
  level: 5
  lon: -88.22119
  name:  'Red Oak Rain Garden'
- ap: 3474
  img:  'http://lh5.ggpht.com/_7T_9npLcYDGVQxXhXrsFORj35gQQEYqiUxwW949h0mVOq-jNHvpY7g9JscyWOIX-Km5HQ4RLRKtUI2nR7Nw'
  lat: 40.099589
  level: 5
  lon: -88.205137
  name:  'Blair Park'
- ap: 3474
  img:  'http://lh4.ggpht.com/m41WytddHvUQZQvwN8vv-Mf6LHne1_3LkN4y39ZCxrwY2v0-Q7lDbE63wlDSkhpMjG7OxDM0LO5Sh9DNyjo4lbZBu-mAykPo3qPOd6orSfwlfucL'
  lat: 40.099946
  level: 5
  lon: -88.205936
  name:  'Blair Park Center Stone'
- ap: 2911
  img:  'http://lh3.ggpht.com/2bCNiD7SWsS3uzFLMO2cZh-LpHUEMQGnfTmcNx5vJapXho2TuXke630-7zop2Sq4fuY8nWVqy4VCG23mvnIJ'
  lat: 40.104168
  level: 7
  lon: -88.238808
  name:  'Alpha Gamma Rho'
- ap: 2724
  img:  'http://lh5.ggpht.com/BoAN9OSCH5u7G1sestzZaXjjik82i-SteF6-r5KTTyl530q9H5G3ibjJdqpGGY-nL8MypRXn2twwvn_y5nMmug'
  lat: 40.133159
  level: 7
  lon: -88.28778
  name:  'Campus Solar System - Saturn'
- ap: 2499
  img:  'http://lh4.ggpht.com/eFO1Un8Ok94pb7zpQzu1gaszKnoOPV7PujLsj3Nvvw9YX3VRly6XdazsGI8YuEDSZLGkX8PJn6lam3m0GTQ'
  lat: 40.099979
  level: 3
  lon: -88.220461
  name:  'Barbecue Mural'
- ap: 2724
  img:  'http://lh3.ggpht.com/gS3gT_deXzbDvejCL-5ygs31dw9bLQqYr2nDcLPZiv6nQzahJl12awG1a2pwKbFuoTlsHQYxQ2O7HDXL4-8'
  lat: 40.110358
  level: 2
  lon: -88.230181
  name:  'Murphy''s Pub '
- ap: 2724
  img:  'http://lh6.ggpht.com/yYW6Egg1lWn6UqqLzlgqwCQhtbuxiZSW4TmvI1XBPs33OTTJ0oh51XZXOIILxGI2juoO-E_YfG5UHmeb34rSOw'
  lat: 40.109165
  level: 1
  lon: -88.230269
  name:  'John Street Plaque'
- ap: 2537
  img: http://i.imgur.com/5j1qaiT.png
  lat: 40.040518
  level: '?'
  lon: -88.384748
  name:  'St Boniface Catholic Church'
- ap: 2537
  img: http://i.imgur.com/5j1qaiT.png
  lat: 41.302131
  level: '?'
  lon: -88.159032
  name:  '31c62e30ca694e1ea8c745fb3d5887e2.16'
- ap: 2537
  img: http://i.imgur.com/5j1qaiT.png
  lat: 41.315857
  level: '?'
  lon: -89.011326
  name:  '6949e0fbd5ef491194b8b2f03e3a73d4.16'
- ap: 2537
  img: http://i.imgur.com/5j1qaiT.png
  lat: 40.084513
  level: '?'
  lon: -88.534663
  name:  'Ross And Hughes Cemetary'
- ap: 2537
  img:  'http://lh6.ggpht.com/v2m1E6vVK4ZRaRPhGli7jCsG7xZQZ7I3vV_5AogdEpPU_A1vz9WEkH0vZ-vau2IAdmydYJcXrOA6SMr7vUfT'
  lat: 40.128726
  level: 2
  lon: -88.290287
  name:  'McMillen Ehler Homestead'
- ap: 2537
  img:  'http://lh4.ggpht.com/gDYX09ZFI6Jya_d8cBX7Kg8OgMkVexBWJLWt1ceC8s0aizrm_ehDYtMwFiwAqpetr9_VsiAJZLFkAYWm_oMt4Q'
  lat: 40.128229
  level: 3
  lon: -88.290607
  name:  'In Memory of Lou Henson Jr.'
- ap: 2537
  img:  'http://lh6.ggpht.com/f3cOUn1gqLkJZQzs4-Y9j6j2ZXbb1Kmzf3klCFzF8zmFSlZZ-B6O4-5t1KIX95jbYUjeqMgOohEf1ilF75Uqyw'
  lat: 40.132777
  level: 7
  lon: -88.287351
  name:  'Parkland College Prairie Restoration Reserve'
- ap: 2537
  img:  'http://lh5.ggpht.com/tuo_ByFTbwLitFP5cBseOibqRxENxbCwOJ30dCnja5ijBI_qBv5vqNP7ZuZXnxhYM6ms_GbExZEwwKVUtwV2'
  lat: 40.093712
  level: 5
  lon: -88.281583
  name:  'Brownfield Dedication'
- ap: 2537
  img:  'http://lh6.ggpht.com/p2F3xw4xL4UdiMM9aSy628ISSglrvjPexpF3j340tMAP9MX07yh_sJv7kHVkeud8lyFf2ZwDohw3zsRS2PSd'
  lat: 40.093914
  level: 5
  lon: -88.281531
  name:  'Terry M. Warmbier Memorial'
- ap: 2462
  img:  'http://lh3.ggpht.com/B-DCwAuVrQ-sgdwJ4ijxC3x7udgmvCTNKoySnJfvuGCuS_k159pz1MpgSSPYltw-WgQXdvchHlAYX6rU8lY'
  lat: 40.12867
  level: 4
  lon: -88.242208
  name:  'Power House Church'
- ap: 2537
  img:  'http://lh3.ggpht.com/nEmxwddo6XwjpSBtzzXHCx_v9wYD5ITuVRx4VF0emrxiLFZGpsBb4HkcXFS4BAR3ZhrmD8t2YDKEWF7NGxV7'
  lat: 40.099595
  level: 5
  lon: -88.206642
  name:  'Blair Park Shuffle Board Courts'
- ap: 2537
  img:  'http://lh6.ggpht.com/YVbqGVTjJuDMDdj71CP2mWvnUIdgO25PgoDdJwEGnEE_M9I1aDgKyjSr9JOZVU6UQTZQtfUo9RAWyz92n3jtCQ'
  lat: 40.098475
  level: 1
  lon: -88.249208
  name:  'In Fond Memory of William Moore Jr'
- ap: 2537
  img:  'http://lh6.ggpht.com/y10QgRCNt0Bsefqp3olKgJp98whQkS0-vWqPskj3421hcSq96BG-b_KROqsO1mBEcNiYtAKhXuXG0EV0eaUW'
  lat: 40.107152
  level: 6
  lon: -88.235244
  name:  'Bromley Hall'
- ap: 2537
  img:  'http://lh3.googleusercontent.com/enpZZ8JRREFPTvYd3jbeUlpS-mmcwKe5fsvoWRPkfMUj6PijyI-5tbR55UItBoNJAFSl9fAAOvXb6BpWCJT4'
  lat: 40.102495
  level: 6
  lon: -88.242132
  name:  'Nuclear Physics Lab'
- ap: 2537
  img:  'http://lh5.ggpht.com/aeGh3iXJqJ7skg-2JHEpngMSfcp1qDIEPoLMxzQNqbS5Y7HcxN7oE789bXiVFoFIcdCn7-3AhLPtxT_WE2E'
  lat: 40.0985
  level: 1
  lon: -88.248681
  name:  'Siti Sculpture'
- ap: 2537
  img:  'http://lh6.ggpht.com/yUOWOqDbf6AO83PFdgc9HePIDDDb-Ti1NAzLec_4AwYrO5NsnWsGH7K7MDb5q22wdtUh6uqekxpMHYjlnfRLEQ'
  lat: 40.104673
  level: 5
  lon: -88.233278
  name:  'University of Illinois Armory'
- ap: 2537
  img:  'http://lh5.ggpht.com/fGRHfMAqdWrUnPE8GStKSdMkgQmu9qvuxAC4VzcU1v2KyxQu2BeuJKhvhefSeFNTkgFh6YdR-F4P6plMbh0'
  lat: 40.110194
  level: 4
  lon: -88.231488
  name:  'Fighting Illini Memorial'
- ap: 2537
  img:  'http://lh5.ggpht.com/ucFkWovrZBr6wFMicSGD78p44tqzcyfJCvQuAocYo0do3ODoHsOeAMphZZferoOLkGfuJPQVlILRzKG1vAPg'
  lat: 40.109172
  level: 5
  lon: -88.231151
  name:  'Illini Life Christian Fellowship'
- ap: 2537
  img:  'http://lh5.ggpht.com/2PB1u3cNuASfw9D_MIUzI1JvNofebK7zsuGqKoUApr-nUWYZ8y5CzxH6g7CdcY7ShBaVGrBrurkbwrdUPD7JBk55TH0Ouao5b_g2jUI1saBNUE8'
  lat: 40.106744
  level: 5
  lon: -88.225347
  name:  'The Red Herring Vegetarian'
- ap: 2162
  img:  'http://lh6.ggpht.com/uuDZEurp-UqLKU1BShf2vQxSG1vwpk-MDBizyO6dIijDD3nTavBfEGfQ4lPiXtDc-2867s28mDJ0ko7kvC3sxQ'
  lat: 40.100485
  level: 2
  lon: -88.219408
  name:  'Pennsylvania Avenue Residence Halls'
