- ap: 9096
  img: http://i.imgur.com/5j1qaiT.png
  lat: 40.026078
  level: '?'
  lon: -88.783718
  name:  'edce8f4594c948e790402f25987eea45.16'
- ap: 7785
  img: http://i.imgur.com/5j1qaiT.png
  lat: 39.709846
  level: '?'
  lon: -88.998032
  name:  'b1857d10a5d34822b0bde9cd2de6a008.16'
- ap: 7409
  img:  'http://lh6.ggpht.com/MsCeiBKy8tV3-ziINPCBPzkisfwOnBClSPr68FUxT1uMHlVmqtyTYYxNAZapU8bvWdcmm0lsmIzjMyv0CTJ2tQ'
  lat: 40.095364
  level: 5
  lon: -88.217386
  name:  'Miles C Hartley Selection Garden'
- ap: 6472
  img:  'http://lh3.ggpht.com/gJYGj7_wDDnnkZAlCFgChMLxPptIEvTDKzPJQqVLWhygPTnHHPEe9YrX22kkUU6oScgCqoGv_Sb_cKdY6V32'
  lat: 40.10395
  level: 5
  lon: -88.211413
  name:  'Carle Park Fountain'
- ap: 5722
  img:  'http://lh6.ggpht.com/PJNZOMCQPAWy2UMMUz7FvQhEb9zSo2mg1ImzZDYViGOn1FI2EqJX2AwZe_uOwiAKSL2QYkbPfTaRsdL2VvmG'
  lat: 40.103204
  level: 6
  lon: -88.212443
  name:  'Serviceberry'
- ap: 5348
  img: http://i.imgur.com/5j1qaiT.png
  lat: 39.988879
  level: '?'
  lon: -88.787592
  name:  '1dd816db5e0148258468312abdd24674.16'
- ap: 5348
  img:  'http://lh5.ggpht.com/H6c2QR_sGnIrBNnlkreE_k9AGNNj03EgBFOn2L-D_occ8syrKvx4f0LJ3s-YNtw6SyGGI9htmM5uD6aWWbRQ'
  lat: 40.103403
  level: 5
  lon: -88.211706
  name:  'Brian L. Larson Memorial'
- ap: 4785
  img:  'http://lh5.ggpht.com/W2upB0MQ9l_1Z1JYjKFslTSSU-oi3b_kOidwTlG4pOCZRHWiD52CzcX2WMquuVEnMpxhtSRQOuAdLgDn8rs'
  lat: 40.096671
  level: 5
  lon: -88.217873
  name:  'Skull And Wagon Wheel'
- ap: 4598
  img:  'http://lh3.ggpht.com/O6KWMS3yeRHd2EWk2OjTB00RVhM_Qhb2N2cDdMTObRRym9RV_RKbca6MkCx6JKPdqJgFoetXy0BR1jWxjvZ15g'
  lat: 40.096357
  level: 3
  lon: -88.218009
  name:  'Idea Garden Prairie House '
- ap: 4598
  img:  'http://lh3.ggpht.com/bVNaflT1bCgFsUDizKeHZFExlTyUFdVVpjEqrpacNh843YeRnU98IEQb8a02eE36XmEJXAkBC-FG1_3ezYP7'
  lat: 40.095365
  level: 5
  lon: -88.216784
  name:  '1867 Garden'
- ap: 4598
  img:  'http://lh4.ggpht.com/jEbgkWj4jIpuTGF0BsLL3Qhx62u2Xh7IFfVmCspv6e6FjmSfbeTYkwQgAZ75wN8NpO2Lus14Khr5O4f9jvup'
  lat: 40.094517
  level: 5
  lon: -88.217269
  name:  'White Oak'
- ap: 4411
  img: http://i.imgur.com/5j1qaiT.png
  lat: 39.988848
  level: '?'
  lon: -88.787889
  name:  'a63f531863624f8992ada9b6c1c5e2a3.16'
- ap: 4411
  img: http://i.imgur.com/5j1qaiT.png
  lat: 39.989173
  level: '?'
  lon: -88.78725
  name:  '718d1cfa934b4359976097532171135a.16'
- ap: 4411
  img: http://i.imgur.com/5j1qaiT.png
  lat: 39.90996
  level: '?'
  lon: -89.086993
  name:  '13fff143a2d24a0494e7d000e656df91.16'
- ap: 4411
  img: http://i.imgur.com/5j1qaiT.png
  lat: 39.930908
  level: '?'
  lon: -88.967659
  name:  '9016a2542c9a46d3909e9fea324d105b.16'
- ap: 4411
  img: http://i.imgur.com/5j1qaiT.png
  lat: 39.933133
  level: '?'
  lon: -88.950681
  name:  '2f7a1b883ab24a7db140d42c464054ca.12'
- ap: 4411
  img:  'http://lh6.ggpht.com/BtOK_UA_7UyJErE7xLTTwmLcG19nlTBIVAdTbfQVzDhL8s25D3rQ9JZNHM5m0liZck_hsO0vA_4ZVd5jeGI8cg'
  lat: 40.103643
  level: 5
  lon: -88.211298
  name:  'Quercus Robur'
- ap: 4411
  img:  'http://lh4.ggpht.com/ZIOjKYlH2wMvdRD5A5HKGJPgBUYAaA7xHjGYnoXNzhzPIE6KR05FBciTJcN-AojoLyuwRlp3SF3TR1PXBrUPjw'
  lat: 40.094935
  level: 5
  lon: -88.216986
  name:  'Leroy Hubble Honorary Bench'
- ap: 3474
  img: http://i.imgur.com/5j1qaiT.png
  lat: 41.549333
  level: '?'
  lon: -89.12357
  name:  '141d9ff1006547f38f015e2e1482ab0d.16'
- ap: 3474
  img: http://i.imgur.com/5j1qaiT.png
  lat: 42.094904
  level: '?'
  lon: -88.843717
  name:  '34b091f34c754c1a84833fcd38a5eb25.16'
- ap: 3474
  img: http://i.imgur.com/5j1qaiT.png
  lat: 41.843658
  level: '?'
  lon: -89.305066
  name:  'c7a180afbdce496ba6b599e95a69c256.16'
- ap: 3474
  img: http://i.imgur.com/5j1qaiT.png
  lat: 39.892506
  level: '?'
  lon: -88.914409
  name:  '6e7564504dcb452c807f2e412f69cd51.16'
- ap: 3474
  img:  'http://lh3.ggpht.com/gSjoDo9KYu-lgQFkD5uUnj4HXGc1BOihKfh-rNeZu_Q3hHyEkaBoalqYiV46QcvH9y4o8cPkHP_cmo_LxCyo4Q'
  lat: 40.10214
  level: 7
  lon: -88.218932
  name:  'Twin City Bible Church'
- ap: 3474
  img:  'http://lh4.ggpht.com/J4angdYTKCPYybB0GhGqQPugzEy-7X48yLh6UFakxJsUTJY156aWvDAIxyqAbX9wGOUddPZcWQMvmhS10vVL'
  lat: 40.10391
  level: 5
  lon: -88.21116
  name:  'Carle Park Pavilion'
- ap: 3474
  img:  'http://lh3.ggpht.com/nHykU-r6nAcUQliLD4vcs6UTayaoX6Aay87D-bgyrRjGaqMQQYuxIbHuVKSTH0vbqNO9g2sBdp_ZBWLM3LDYeQ'
  lat: 40.103044
  level: 5
  lon: -88.211741
  name:  'Great Neighborhoods Dedication'
- ap: 2911
  img:  'http://lh6.ggpht.com/s0NjKuARUySFKyN76g9Vr1UymiO5a-Ev822C0UEiLqAFzFggW39lRKoYierDtj89xVWRDioyodaQ1Ve0SGBBXA'
  lat: 40.121861
  level: 4
  lon: -88.198042
  name:  'Chief Shemauger Park'
- ap: 2724
  img:  'http://lh5.ggpht.com/fGRHfMAqdWrUnPE8GStKSdMkgQmu9qvuxAC4VzcU1v2KyxQu2BeuJKhvhefSeFNTkgFh6YdR-F4P6plMbh0'
  lat: 40.110194
  level: 4
  lon: -88.231488
  name:  'Fighting Illini Memorial'
- ap: 2724
  img:  'http://lh4.ggpht.com/vKiU-Z9PbuWMTBST_ry96h11Nf1d5ooex1Fl5imVUtCPpaeGwy3JDVmhziEnAAySe8NXWHfT5stQGA2BQg9J1g'
  lat: 40.122111
  level: 4
  lon: -88.200203
  name:  'Dane Michael Sherr Memorial '
- ap: 2537
  img:  'http://lh3.googleusercontent.com/ryRMzj5c3ls-s5Gocd2-IM_oonInNzjPIbCGJVps6JmZxYcG165NabHKNZW7wAepNc8rtLf3A3E0U1mbq-I'
  lat: 40.130352
  level: 5
  lon: -88.198604
  name:  'Circle K 1809 North Cunningham Ave'
- ap: 2537
  img: http://i.imgur.com/5j1qaiT.png
  lat: 40.146287
  level: '?'
  lon: -87.740375
  name:  '2b0a105b2f1b4aa5a85913097ba66e0d.16'
- ap: 2162
  img:  'http://lh4.ggpht.com/1BgYrJYdcGdepVZ6ibhTjtjZ6MyzKnQzLL4wxEnn_CEPnrJmOKHzPXm1qinGRA78MqKq11gKRlprm3Z7mDr0'
  lat: 40.115645
  level: 2
  lon: -88.243036
  name:  'The Art Party Studio'
- ap: 2312
  img:  'http://lh6.ggpht.com/4K7T7_gGrfag_-Hep7ygH_rklKsjale4oo2CqJAFTpPB5EM4Dv8ZGyz7i_qUOuLnt16GWxDSJWCS8TZYyGY'
  lat: 40.115421
  level: 3
  lon: -88.243168
  name:  'Walnut Street Tea Co.'
- ap: 2537
  img:  'http://lh4.ggpht.com/PmGpygZ2fBs43twk2Y44XZbgGcHWv0YimAq7Fp3vlIRRqUyLpSmDmFwcn1ucfmJarcQrAAXJjYAXAhNyxSrz'
  lat: 40.110049
  level: 5
  lon: -88.231968
  name:  'Potbelly Mural'
- ap: 2537
  img:  'http://lh5.ggpht.com/1yq3oFq9p_Yl5cUf5h7IEfZPAbae2MT7lA0DFo1DHwPWPZJJ-Ez-2AE2oTzHEHWsEJQVUcUwh3j_d3kOYgDS'
  lat: 40.110095
  level: 3
  lon: -88.22862
  name:  'Alma Mater Plaza'
- ap: 2537
  img:  'http://lh5.ggpht.com/3RfiPeOzF67ubNX-vkwUJ6-EYld6BKuoBernq0_9kOjlIsSPr3saR9FIQzN7uiw7ouF0CpNflOnL0mUj9zbqdQ'
  lat: 40.109452
  level: 5
  lon: -88.229031
  name:  'Illini Hall'
- ap: 2537
  img:  'http://lh5.ggpht.com/BKHQBYKq1WHplCUxjyl6ZyElMZVN9SFIPmdKwffI6avqoyvbXRxFSFwn-RrmpqLRdSu6LntKwTDnQvCc1n0x'
  lat: 40.110358
  level: 5
  lon: -88.230181
  name:  'Murphy''s Pub '
- ap: 2537
  img:  'http://lh4.ggpht.com/hJDi8J7CZU-933hT0Culp2nhslv6p8rDRPdTFz6FwNaAjB5CmfkaQzj9sM--E-QBvI8yvIJn1F2jxy7ZKWlh'
  lat: 40.10816
  level: 5
  lon: -88.234245
  name:  'Stratford House'
- ap: 2537
  img:  'http://lh4.ggpht.com/OFVPvdgB3GVpaQknHdnt2okgP3xcQksAH3wvOGYVuP85MMlxo3bQ2SRpBb0hzNfjQoC_5LlRqaE6jLB-h9Gr'
  lat: 40.108092
  level: 5
  lon: -88.234589
  name:  'Koinonia Plaque'
- ap: 2537
  img:  'http://lh6.ggpht.com/TALpZtbbV03GxohN-2-Cazq4J_-gGRySLT5x6qaUfd-iDuON_0Vc8YB8fsIr9HIFZ2NipUXtr0a_yvCyI24'
  lat: 40.121991
  level: 5
  lon: -88.19335
  name:  'New Life Fellowship'
- ap: 2537
  img:  'http://lh4.ggpht.com/VZT9NM5dfGAaJAZj9cFhDmCgknQCF0UI4Hv3AwcaZedRlXhGb2wfVLTFOWjtoSJRG7MEsjv784wAB1XZgQqpBA'
  lat: 40.126642
  level: 5
  lon: -88.198163
  name:  'Armored Gopher Games'
- ap: 2537
  img:  'http://lh4.ggpht.com/lmmAipLLlemZCx_GvFWKPFhu7DSZrKSc3OxReeZJ15aabG51w3_L9IdcpKrku-QUoKanND7aZEBZIToeu8ha'
  lat: 40.120805
  level: 4
  lon: -88.201892
  name:  'American Veterans Memorial'
