- ap: 9846
  img:  'http://lh3.ggpht.com/PijfKs7HCJf1vVcIxcTF1HPOYaa5iS4ZECXZUQ2dDDSn9ZCXSd8FGHThRUiEIC-oMNmClt0seIzn8FsaGPER'
  lat: 40.112752
  level: 5
  lon: -88.289696
  name:  'El Toro Fountain'
- ap: 9659
  img:  'http://lh6.ggpht.com/yjfa0jJLjsfLRf9Zn9iafMp3MuIhgCi0WiOCF8GqTGiGvzEnsPGrFa0H1n-uzWhVehLbt44ShthsA32VzHd5iQ'
  lat: 40.099737
  level: 6
  lon: -88.251157
  name:  'Tyler Van Atkins Memorial'
- ap: 9472
  img:  'http://lh6.ggpht.com/5R8z1wwducaGMkvLFryu9HzC91eX02E3KDY04s9Il7Qrdw8efQiRGZ_vbgqW0Fuvp4-I_d9ugFC6lPc7lxia'
  lat: 40.113465
  level: 5
  lon: -88.291684
  name:  'Anna Jean Russell Memorial Tree'
- ap: 8909
  img:  'http://lh3.ggpht.com/lzCSS0_tjwUV7JQ2fgLI0e05IrzPxlVUs-6aEPOwUv67IanQJSTi71gkw0SGm8asmoE_r3Xoh048Fd9xRpE'
  lat: 40.099169
  level: 6
  lon: -88.251419
  name:  'Lyman Larson Memorial'
- ap: 8907
  img:  'http://lh5.ggpht.com/KuDVZqnpBQnne0a_UqpN4wpsQFlw3nVXAWtRKP_AdZ3CjQ0MHUBgU_2hE8hb71h31FTQbduYmB6DNuVKA0s'
  lat: 40.116822
  level: 7
  lon: -88.243445
  name:  'Remembering Horeb'
- ap: 8722
  img:  'http://lh3.ggpht.com/CwgYIhVaivHHg_U6yqu5KSGhSh9ipRBDu7G192KiQfrnXc7C8uh7UOh6MP91vhZJ3LZdiTaFwpvFukvIaj6J'
  lat: 40.117445
  level: 5
  lon: -88.243409
  name:  'From Swords to Plowshares'
- ap: 8533
  img:  'http://lh4.ggpht.com/PfcTU4XsA06ThtmCWydIWhTsN3gR4jrqnrKxu0O5lhyibhRdKMEaf3jM8VNhViF8qLf13b01E71wr_ajxn0'
  lat: 40.118465
  level: 6
  lon: -88.245077
  name:  'Mural at Nitaya'
- ap: 8159
  img:  'http://lh4.ggpht.com/PHV-1ZpFzCAl_ViCKwBY_x2pIDbVyaT7wJH1sTvFJCxrSdRrO1x7NaXq9OdRGwz_Mls4iwk6wuGHMBArfV54'
  lat: 40.098688
  level: 6
  lon: -88.25063
  name:  '"New Holland Yellow Dinosaurs" at Hessel Park'
- ap: 8157
  img:  'http://lh4.ggpht.com/ryDcZUJK2aQ_fI0-hY850_t4ZmG2hNmtCx7cxbX83w3cnUWdI-ywpTuQrUVQNxGl3_DcxxNr6bupfDTsagRa'
  lat: 40.117107
  level: 6
  lon: -88.242467
  name:  'Radio Maria'
- ap: 7972
  img:  'http://lh4.ggpht.com/MvwoDsxwfyNLHzfGkFJl-4VFeX7OvqB0hsMCrZ2D9Olh8GSghAJDfFfDh7a7cOtMIGwEDMyesZoKvKCXAGj4'
  lat: 40.116553
  level: 5
  lon: -88.242268
  name:  'Esquire Lounge'
- ap: 7972
  img:  'http://lh3.ggpht.com/8FqlniFErK7cq59awiT84u8KyV4FIRd5krZzfYa58zJToFps7whdBnriPqvO_kFKeLUE3SWbJhCOPuvUQzaGFA'
  lat: 40.100691
  level: 7
  lon: -88.251337
  name:  'In Loving Memory of Zeus'
- ap: 7785
  img:  'http://lh5.ggpht.com/WgDPQ47lNn2nlvNDPgwM_c-1MpVvxdVZtjZmFtixtr3rIi91xqYhgtSbyJGqRFnSXCUHy_RjABgEj2LSzOs'
  lat: 40.113343
  level: 5
  lon: -88.290525
  name:  'Fish Chimes at Kaufman Lake'
- ap: 7409
  img:  'http://lh5.ggpht.com/7MD3uqic9NvHKG2s5NBkAL6kdsBT10BzFJ6jTSaOfZS8mbyTlRDRYtizrxfH8ZvyqpRWXJHgmC5bk9imHqQf'
  lat: 40.114042
  level: 5
  lon: -88.289889
  name:  'Optimist Club Dedication 1991'
- ap: 7222
  img:  'http://lh3.ggpht.com/gJYGj7_wDDnnkZAlCFgChMLxPptIEvTDKzPJQqVLWhygPTnHHPEe9YrX22kkUU6oScgCqoGv_Sb_cKdY6V32'
  lat: 40.10395
  level: 4
  lon: -88.211413
  name:  'Carle Park Fountain'
- ap: 7035
  img:  'http://lh6.ggpht.com/S7Utf4_59vQkAP5JhC3mdbzVLKBTt-0zoJ2UjfxUnN10VBbixO-_VwvssWd1LbFSx_yafaijd_U0wTGo870'
  lat: 40.100941
  level: 7
  lon: -88.251314
  name:  'Gabriel Patrick Maxeiner Memorial Plaque'
- ap: 7035
  img:  'http://lh6.ggpht.com/qSCp5fQMlyCQ-GOAgiSFy5gaHJei705Pa3eOlJiYO5wGjZTYtjA8q7QWWfAWcLKjxZSaFiMfXOPR8SO7rWU'
  lat: 40.099353
  level: 7
  lon: -88.251876
  name:  'Raymond B. Cattell Memorial'
- ap: 7035
  img:  'http://lh6.ggpht.com/5CDidk0pqfUtSW_Yqouuf3diX8drdMu9DoT728QpSz8q6A-WxNhT0yLcgM_7gGpyIAeXrHiTkIzzaVJFgnN9WA'
  lat: 40.099852
  level: 7
  lon: -88.251947
  name:  'Our Friend Tim Palmer'
- ap: 7035
  img:  'http://lh3.googleusercontent.com/0hydzoUNO41CcF2qZhlhMbaEgMVFjql3_RSDgrJLVIToqRsqh2aBcAoXsrxAlwXqgTcB1R71HZiHrjq1KdnXgA'
  lat: 40.11243
  level: 6
  lon: -88.235749
  name:  'Fountain at Scott Park'
- ap: 7035
  img:  'http://lh5.ggpht.com/ZBaYXHOKUz2Vxe_dieY9xFrO4KgTUtaLB91ggoRg5ypkxwdZOdAbLLO0ZJl8gH1FuR5TuvtWg0i5GJI4_TmiCw'
  lat: 40.11676
  level: 4
  lon: -88.194563
  name:  'Pavilion in the Woodland'
- ap: 6172
  img:  'http://lh6.ggpht.com/D-AymiJdf5gt94o_wgUJbOD9Fpl4V7PijJOjkztpP0_J2k82i1TBLDAaqcH_SUTUFe9VlllfQCsXFg_J0uAPeA'
  lat: 40.11569
  level: 3
  lon: -88.243433
  name:  'Christ Community Church'
- ap: 6472
  img:  'http://lh4.ggpht.com/W2chhQwPqSJEkl57NVoIL-OE4KFvJfp7Bsrrxza1apCYltcT3npz95LJxqHxvT9ZZu7wxF2gQy-5bpKal2p2'
  lat: 40.115838
  level: 5
  lon: -88.241338
  name:  'Illinois Terminal'
- ap: 6472
  img:  'http://lh6.ggpht.com/I-l0KMezFAwrNcsN5-RPQCQbH4VnCa-C2GtwAQwrtAOcyFmOp_PxGmTwtTHCrR-O1hokLKIrtjyzuTsdP1E'
  lat: 40.112048
  level: 6
  lon: -88.236887
  name:  'Scott Park Rain Garden'
- ap: 6472
  img:  'http://lh5.ggpht.com/HecdcuIKHPW3-6JCUlxHgv4kdBv7MXPpXBiWEczpoqzICIiFGkoPXGYJlGZLUCRJGjph6toVnnVWKVoXijhZIA'
  lat: 40.115947
  level: 4
  lon: -88.192222
  name:  'Ambucs Park'
- ap: 6285
  img:  'http://lh3.ggpht.com/rUgM7jkTqL0VHxvsSW0yWuNJF5UrU62ITflghfn4PfKjn6L4WGz0ALkv98fc_q9dmK9SSpU1PXIawGvcRwE'
  lat: 40.098246
  level: 7
  lon: -88.251974
  name:  'Hessel Park'
- ap: 6285
  img:  'http://lh5.ggpht.com/tfAfnmo6mSMc6U0P533NMFJRGwn6lasmx-MLR2JJg1QOizMKkghFU8E7hb2zgYgdQEbgnCJUlvZIMdrrJe4'
  lat: 40.100822
  level: 8
  lon: -88.25193
  name:  'Seeds of Kindness Bench'
- ap: 6098
  img:  'http://lh5.ggpht.com/6qIQAtIoPbAVQ1O3BoOnGg6gtTa9fd0JIkxt6P1kmSimVswLaPpCRaLEudsNcMfP_kKb4SCE1By1o3lhYevmIA'
  lat: 40.1172
  level: 5
  lon: -88.243745
  name:  'Circle of Friends'
- ap: 6098
  img:  'http://lh3.ggpht.com/G1CvGhpethi5UmprDWxZN9rTblHa3anSsQz1UPgJtkREkfN7lDFoxFObst0609Cg5mofuZxJKr0ddNKhY4VL'
  lat: 40.098464
  level: 7
  lon: -88.251426
  name:  'Ruth Haasis Memorial'
- ap: 6098
  img:  'http://lh5.ggpht.com/C6wRSaEWO1NYGY5luyYZKHG3Z3aib4aflaPdV7B9G6N6adE890g3QuPRSvCUhsdFHqjoVUjo27mfz9WsjXyuhQ'
  lat: 40.100521
  level: 6
  lon: -88.250864
  name:  'Gabriel Patrick Maxeiner Memorial'
- ap: 6098
  img:  'http://lh4.ggpht.com/B_I1b0Jy3vW41RX8jjCNPP68AULplU0Pf8ddolyKmpEWCfBVShQkmjF1HfTPzDjmBBQGgOs0jHW-rUR0mv8BkA'
  lat: 40.098789
  level: 7
  lon: -88.251685
  name:  'Curtis William McKinney Memorial'
- ap: 6098
  img:  'http://lh3.ggpht.com/VrbXGwlUosNLEkVdshWUFoVa3KtlJQoEU4yLYygvftYbPCmxo644Uvar_v8Kb9RS53hB0tXgvV44GotrxZyu'
  lat: 40.098592
  level: 7
  lon: -88.251676
  name:  'Ruth and Fred Steigmann Plaque'
- ap: 6098
  img:  'http://lh5.ggpht.com/-UWK84I78Sftf7yg-E2pg6xEAWTvyiThgJBJlxbqOZPYKNmzQ8uGgEEMetzplrG1HpXG5kQqNItUeXKxOHDsGA'
  lat: 40.100286
  level: 7
  lon: -88.251747
  name:  'Tennis Anyone'
- ap: 6098
  img:  'http://lh3.googleusercontent.com/erdNDM4HaNMn_EeFz0IoM_0LQWykLGJ1Y7-URXSvEithPHs8Rnwf7oWZyxVKu7qOpPdKjeeCy3dkywZ7n6KrsA'
  lat: 40.111615
  level: 6
  lon: -88.235593
  name:  'Fred B Lamb Trail'
- ap: 6098
  img:  'http://lh5.ggpht.com/H6c2QR_sGnIrBNnlkreE_k9AGNNj03EgBFOn2L-D_occ8syrKvx4f0LJ3s-YNtw6SyGGI9htmM5uD6aWWbRQ'
  lat: 40.103403
  level: 3
  lon: -88.211706
  name:  'Brian L. Larson Memorial'
- ap: 5722
  img:  'http://lh3.ggpht.com/rgh_2qJQUPC1OrARUkiQqPKoNReiqZYOimm5Nszb77pDh72OszuyiJBKn-vDxHUuyjO2XTeKU9GBHc3oHIYr'
  lat: 40.115283
  level: 4
  lon: -88.287899
  name:  'Greenbelt Bikeway'
- ap: 5722
  img:  'http://lh5.ggpht.com/DDClbLn6LNW1_Kr2O24_eIFuz6BfPSolc8s9i2SV9KvgoE8D_n6SY1mOzPFAUoLMe9HHKhD-azeRgoyYPNcaPw'
  lat: 40.115917
  level: 7
  lon: -88.243438
  name:  'Shay Memorial Plaque'
- ap: 5535
  img:  'http://lh5.ggpht.com/0Ll2ab4pgOcvmpTrWmn4pfXaPEf2myKfU4AJY7_vKquWsFLrHBYTczg-A6Z96aQQu83na1h1jmcUN88wcd6H'
  lat: 40.117139
  level: 4
  lon: -88.191974
  name:  'Ambucs Express'
- ap: 5535
  img:  'http://lh6.ggpht.com/PJNZOMCQPAWy2UMMUz7FvQhEb9zSo2mg1ImzZDYViGOn1FI2EqJX2AwZe_uOwiAKSL2QYkbPfTaRsdL2VvmG'
  lat: 40.103204
  level: 5
  lon: -88.212443
  name:  'Serviceberry'
- ap: 5348
  img:  'http://lh6.ggpht.com/oTEawnC2cPnZ7T10vs9tiueaLsN0ILM7tgPLWVfa0njwvTDrUvS-w8x5SK4iMDd0tuHYP2w5a-H0AQ4NaAyU'
  lat: 40.116388
  level: 7
  lon: -88.243702
  name:  'Cycles of Love'
- ap: 5348
  img:  'http://lh3.googleusercontent.com/5FkLhIMVmAJJSslAXVxY1RNxi-4q5mNAVPK2XgU5LwRM8qcB8BGXOK0GmF6Y_xfgPOhwF_CrbcgVZlJx-Pza'
  lat: 40.11652
  level: 6
  lon: -88.241845
  name:  'Mike ''N Molly''s'
- ap: 5348
  img:  'http://lh5.ggpht.com/HhVreJipNvxPRVFpmsh2BPo9PcpPO2Q2l3jCpDjIKgfKGycoTNPXR4DKiYccBXW4X-4dJf_vV0ESsWAWHcChsg'
  lat: 40.100936
  level: 6
  lon: -88.250855
  name:  'Donald F. Bresnan Memorial'
- ap: 5348
  img:  'http://lh4.ggpht.com/4LxsGZZMk3DnpJXUvqzrL54CHSP5TDXjUnDJyHmCCTtCJIjGEI7kxT9g4uxfSPh0X6yGLgQo1jfqbu7B8VEr'
  lat: 40.099084
  level: 7
  lon: -88.251826
  name:  'Irina P. Stewart Memorial Plaque'
- ap: 5348
  img:  'http://lh4.ggpht.com/eoFw5gx9tcBj51FvuWLBsaFZ7TdxW0i1ez8HiVWtHsPE262Fcf5-fE7MAIzvgDr2tLCZzG79np6cdQDZzWou'
  lat: 40.112029
  level: 6
  lon: -88.23655
  name:  'Scott Park Bridge'
- ap: 5348
  img:  'http://lh6.ggpht.com/BtOK_UA_7UyJErE7xLTTwmLcG19nlTBIVAdTbfQVzDhL8s25D3rQ9JZNHM5m0liZck_hsO0vA_4ZVd5jeGI8cg'
  lat: 40.103643
  level: 4
  lon: -88.211298
  name:  'Quercus Robur'
- ap: 5348
  img:  'http://lh6.ggpht.com/xxeIna-Mp_s6sWP2q0pQb8ArgRjTHMAPs_70QPHu6125M3ToW1y8q40xpyyMdqzNrz8XipF7ZIQUKsy1fBtX'
  lat: 40.116846
  level: 4
  lon: -88.19223
  name:  'The Ambucs Park Woodland'
- ap: 5161
  img:  'http://lh6.ggpht.com/TtWbekdbsTWA9hOrt2dc1ID1DnRuGoRbAle9mL9aZvc_aJygqJ9jAMjqrWtVr87WnELkFrSVIpO_4VVZQ67P'
  lat: 40.113103
  level: 5
  lon: -88.290672
  name:  'Kaufman Lake'
- ap: 5161
  img:  'http://lh5.ggpht.com/ENeQgqydWbi9-Oyf7vizunoRqJdsZV4o0RA_956wjGI8hqpTCHBPyWMpbTrrkwYpj5tgzDRvevGmvH4eFRU'
  lat: 40.099593
  level: 7
  lon: -88.251724
  name:  'Blessings from Devon Elaine Cattell'
- ap: 4785
  img:  'http://lh3.ggpht.com/UCJEg0nnZFNSfAC4NfT2gp9OudEjLUlBiuDJTG4gHlqqHWj8gXAlFIR92jIPXQa3I6VnEMYSwenr5PMJylrt'
  lat: 40.104077
  level: 4
  lon: -88.212367
  name:  'Stalking Panther'
- ap: 4598
  img:  'http://lh5.ggpht.com/IgNzl1mq8OGLo32nCph_TZvtqlPh79vEYYvHZb2F6YXW1jx9_ESV5dv13U9k7CRftyKHGoW2RtSSUFzPKbU'
  lat: 40.113072
  level: 5
  lon: -88.289765
  name:  'Kaufman Park'
- ap: 4598
  img:  'http://lh3.googleusercontent.com/hJZWoErzM-MuXulq4FlhlZwMbJX1Isd81GBUBVKayd57jVIVxUle3itd-1DRKo2VaNXznWr1X639fa44Etk'
  lat: 40.141919
  level: 5
  lon: -88.244611
  name:  'Marketplace Mall Carousel'
- ap: 4598
  img:  'http://lh5.ggpht.com/BUGNnLReyCBJJj9_zpqgwv5_CAyiW8fWBpyVs0ip1hT5NEE6YKCYzlc8ahldKzk_xv-4uckNJNb6NrJd6r33qg'
  lat: 40.116989
  level: 6
  lon: -88.242255
  name:  'Blind Pig'
- ap: 4598
  img:  'http://lh6.ggpht.com/Jltxi7PZ9OVi8hBCUxdt9oxXQk9zmbrtHpM_jru2WhVYyY0UkNZ8h5SU3CdwMRNzZ1ZKabPR8hDCPz7p3Ms'
  lat: 40.114439
  level: 6
  lon: -88.245013
  name:  'New Covenant Fellowship'
- ap: 4598
  img:  'http://lh6.ggpht.com/yD7CHjpaf-cL3AcbXXrUaGWgMnfw38K3EZbqWYVBmyEzzCK6wRavKxcIWhEcpyTBDiX61ttCH_wg2oJbEwQt'
  lat: 40.11671
  level: 4
  lon: -88.192622
  name:  'The Ron Meyer Express'
- ap: 4411
  img:  'http://lh3.googleusercontent.com/mRLfm7nmeWoRTWuL9j9CIdpj5Wi6Lj_ghejJOVgI2tREVdkZjp_vLtvGFd53n6ey4lYuJCvRblhcq2QJAzHc'
  lat: 40.132819
  level: 5
  lon: -88.286151
  name:  'Dodds Park'
- ap: 4411
  img:  'http://lh5.ggpht.com/BoAN9OSCH5u7G1sestzZaXjjik82i-SteF6-r5KTTyl530q9H5G3ibjJdqpGGY-nL8MypRXn2twwvn_y5nMmug'
  lat: 40.133159
  level: 4
  lon: -88.28778
  name:  'Campus Solar System - Saturn'
- ap: 4411
  img:  'http://lh3.ggpht.com/07XrBN-er6Ecleor0n9RJ4DfGO6B2yn-ZxjI-Uy8Ba46Jtb6cXNVmATPiPiGyk-1jZ4wxa7-EeIWbWUqArCG'
  lat: 40.142554
  level: 5
  lon: -88.243468
  name:  'Dog Heart'
- ap: 4411
  img:  'http://lh3.ggpht.com/9aQBG-poFARclK9XL7iFIvWePkawZwWhv4Sh0zQhQ0Sy9gdDD508d4gCtpcUP9UNoYM6uztea0aQ05RPd9rZLg'
  lat: 40.115412
  level: 5
  lon: -88.245046
  name:  'Eddie Thorpe''s Memorial Rock And Tree'
- ap: 4336
  img:  'http://lh4.ggpht.com/xS51--rXA9M_IHpXWgFQxKZU-YbD-1zk-nug6k7RyKl8rYeam_YFwMmLNWRRHHzI-rOTGyhTJQQ314WudSQJ'
  lat: 40.117132
  level: 4
  lon: -88.243009
  name:  'Fountain in the Alley'
- ap: 4411
  img:  'http://lh3.ggpht.com/-MRGQEVV5mNMzB4sb8JAsgVC56kTzYaFEf3mpRsfXAiO4KIrLw3LGFkt7Au97yDwY-AUSfghHcri53Zpmn-Z4Q'
  lat: 40.11621
  level: 5
  lon: -88.242535
  name:  'Inman Building Historic Plaque'
- ap: 4261
  img:  'http://lh6.ggpht.com/btym2_WGYuFNu2SNiR8qif7GXLMOPT7XpuHE7RPOipPC9Q5lEPfImKAzf2vm9RUe2rN0u3TePq4pM0IuZiLS'
  lat: 40.116436
  level: 4
  lon: -88.243459
  name:  'Champaign City Building'
- ap: 4411
  img:  'http://lh4.ggpht.com/wbrbzDCo3C4qFJyHTWOST5o8B7kwZSWePUWOboIlYrdvxjrhWLqVQ1MqUF5-Hy4nt26x_oHQq9f8EbfdEjVK'
  lat: 40.117382
  level: 6
  lon: -88.243748
  name:  'Days of Venus'
- ap: 4411
  img:  'http://lh4.ggpht.com/vKgqIecJshMQxrhO-ZhMjcIyARuJdyU63wKfzAG0wouZex6LVzO46Qi5zM1N3Jx8xyantDFk9sQGsSEBhb-y'
  lat: 40.101327
  level: 6
  lon: -88.251412
  name:  'Zeus Memorial'
- ap: 4411
  img:  'http://lh3.ggpht.com/nHykU-r6nAcUQliLD4vcs6UTayaoX6Aay87D-bgyrRjGaqMQQYuxIbHuVKSTH0vbqNO9g2sBdp_ZBWLM3LDYeQ'
  lat: 40.103044
  level: 4
  lon: -88.211741
  name:  'Great Neighborhoods Dedication'
- ap: 4035
  img:  'http://lh5.ggpht.com/OF0rdXnVnZe6syFsa4G9CE6iyvhfoYQN3QH9RESyB78MTKDC2NXYJuVd0TAnACMccmsKXhNcBH6qzWy9DPQ'
  lat: 40.105073
  level: 2
  lon: -88.231952
  name:  'University of Illinois Armory'
- ap: 3848
  img:  'http://lh3.ggpht.com/NfRR7PyM2-UNoQGKgRsf6sUZdUTMp0sWqha9caVs49hYb0AnT9OznQX0dQGxKJNP6KiHWJ0WRUMSQh1m4-rwvg'
  lat: 40.117976
  level: 6
  lon: -88.245082
  name:  'Robeson Building '
- ap: 3661
  img:  'http://lh3.googleusercontent.com/E_ZPlSyleqUMg0OilyQYOVjaoZT-y4SbH4plEyw9dIUNETTaaR5s71RJOIy8h5u1Ae97gUfiLGrIdMPXjNQ'
  lat: 40.11727
  level: 5
  lon: -88.286997
  name:  'Kaufman Lake'
- ap: 3661
  img:  'http://lh6.ggpht.com/duOeXcOSQLWosdD0JJXg3pWWQp4t5sL0x9qDHoTIBFNOzEW0t53Lt2cnwgV2E_Su0l1ajIQxPtVbbK_sDRaS'
  lat: 40.141775
  level: 5
  lon: -88.242671
  name:  'Marketplace Mall Fountain'
- ap: 3661
  img:  'http://lh6.ggpht.com/SCYK-XeMmOyfRrTt1-aQNoDA-2Sib4m5Ch26mTwo6XNdVeVnfi7W74Ik6IRLAPSoKzSS97pgwt50Jl9oSgGfP029USxZzQWKNJo3rbs-6YHBPBif'
  lat: 40.116792
  level: 5
  lon: -88.241752
  name:  'WEFT 90.1 FM Community Radio'
- ap: 3436
  img:  'http://lh4.ggpht.com/oknWvsn3j_8LLqgIevkEiU6a-r9RO-ylFPYVgOPQ6wBXGmnyvWFCGC4eG8qo7Z28JPMEoBE4DUFq2FPfFdXR9Q'
  lat: 40.112908
  level: 4
  lon: -88.237287
  name:  'Stone Arch Bridge'
- ap: 3661
  img:  'http://lh5.ggpht.com/d55SFGnpg6Ia5aPchxqYJDOsY_nJCJIdAOO9qxXzD_vObYZGhCLcunBb0a6G5qAhu9RPf5WSQIkysqGMrb7T'
  lat: 40.104743
  level: 2
  lon: -88.232979
  name:  'Vietnam War Memorial and Flagpole'
- ap: 3661
  img:  'http://lh4.ggpht.com/sz_e7469a1MnmlNIKBE9ABOh9Z5c-TMUKTj_dlubknMbwU0IKI_4hZ8QQtHWwjgbnkA_Plk1yb2bT4XQ3UjA'
  lat: 40.104561
  level: 4
  lon: -88.21207
  name:  'Carle Park'
- ap: 3474
  img: http://i.imgur.com/5j1qaiT.png
  lat: 42.091266
  level: '?'
  lon: -89.9771
  name:  '1833caabd8a1464088d9232544b3d5a4.12'
- ap: 3474
  img: http://i.imgur.com/5j1qaiT.png
  lat: 41.833383
  level: '?'
  lon: -90.170324
  name:  'c200006a95b348b7a1e4e8e492c05b7a.16'
- ap: 3474
  img: http://i.imgur.com/5j1qaiT.png
  lat: 41.614252
  level: '?'
  lon: -90.331927
  name:  'c6c6706df1df437ab1b437e97a83fed6.16'
- ap: 3474
  img:  'http://lh5.ggpht.com/-aOZyLFNK96FhUdQBYhmRPZrs_PB1oiLRcrPjKwFBANQ42LxLbbHfTZVw_F01meecQXfNQwJYy7qqVh8Q0gR9g'
  lat: 40.133768
  level: 4
  lon: -88.281275
  name:  'Butterfly'
- ap: 3474
  img:  'http://lh4.ggpht.com/h3t9nwbrudSHJ4Ll-zBceLi_U0iwpgbsVd8Wjzy_JgqMiXIqIu4CILUiFnKdayIi0htMXQ5CNowcXO7XUqI'
  lat: 40.13401
  level: 5
  lon: -88.28239
  name:  'Eddie Albert Gardens'
- ap: 3474
  img:  'http://lh5.ggpht.com/Ubq0MuIsu5MU-I8JiOC7oX_aheDNBNsG-UlSMPqA5BRkHJX9BDDUPWGQxXllzVgaxFeo23u3zu_hlJesprpNJg'
  lat: 40.133421
  level: 5
  lon: -88.280893
  name:  'Greenbelt Bikeway'
- ap: 3474
  img:  'http://lh3.googleusercontent.com/M_qK64GKnnRqEI0mDBCxmdDqvQtr6sboADts_687xYboCfdeE-9gJwAPNC_Gt99-mA2X_3p-8RfH8-x7LMW5'
  lat: 40.132777
  level: 4
  lon: -88.287351
  name:  'Parkland College Prairie Restoration Reserve'
- ap: 3474
  img:  'http://lh5.ggpht.com/M86zCVcXjmwIC0SQgJ3q_heSiWsj4BJoAcO4SpBWLGzt7XQ3kJMk_1GdLAM_SOt_OkZnGrAEV9_g2KSQCguZ'
  lat: 40.133808
  level: 5
  lon: -88.284367
  name:  'Dodds Park Softball Complex'
- ap: 3474
  img:  'http://lh5.ggpht.com/nWEtxuKQdy0teBBue1DYmG7P3SF5-3A6zlB7GwVHBWlolAZYGq6Br78lWcF9ltFy-KeSlozXie2RmU6JfCUX'
  lat: 40.142673
  level: 5
  lon: -88.244603
  name:  'Italian Statue'
- ap: 3399
  img:  'http://lh6.ggpht.com/2lDM_Uj6QcUJmWkmPhNWg-vfkJbBQAo6zb7eXC5qDTaJ5xAsoU7jPPqYmLo7zztC2Za1oH3QVrHQ78-XabqR'
  lat: 40.116398
  level: 5
  lon: -88.242485
  name:  'Champaign Servicemen and Women Memorial'
- ap: 3474
  img:  'http://lh3.ggpht.com/tXDyz6XRrR2AKSg9Rrj1z6jBG4dz7uR9qFmSUO1bWljMEw67ncNiq-2Hx3O9Fs029iRtvCV1gdlGN7pG69L0'
  lat: 40.114104
  level: 4
  lon: -88.237694
  name:  'Lo Park Fountain'
- ap: 3474
  img:  'http://lh6.ggpht.com/mKnh6CvhOm_8Kn26lJTmk71nbwSMS-i9VJ45CR83Z8wB6Qn-9JAiyt1GEfrWKkv51a_y-lbN8pO6R1L5EZWfzw'
  lat: 40.117349
  level: 5
  lon: -88.244537
  name:  'Flower Island'
- ap: 3474
  img:  'http://lh4.ggpht.com/1viU2QjcAXgQcuyp6MBKY1751-1JGn5AfSHPcgvBGNOyXrKvvAXsCUrrW9_0w9LjaeyscKqh8v2rrMp3Gxoaeg'
  lat: 40.117134
  level: 5
  lon: -88.244337
  name:  'Downtown Flower Island'
- ap: 3474
  img:  'http://lh4.ggpht.com/9jXAzAxn0JZrLkU9VK9p-mNzjw3x_6QqwMAn4CAEBAHp_lo2iDZeV_y-hoUzP5CYwm8kOMyrTToZQOWJBRnw'
  lat: 40.115095
  level: 4
  lon: -88.249052
  name:  'Bayne & Schumacher Fountain'
- ap: 3474
  img:  'http://lh6.ggpht.com/ZQaguxPyiC-6DeFDFa2niVKJz3ySxwxYaFCv8PRdNuoMYUfP-Xtirg-8pXCTdBCyH1BruprOVmqf3D1kdp7o'
  lat: 40.115225
  level: 4
  lon: -88.248866
  name:  'Holy Cross Catholic Church'
- ap: 3474
  img:  'http://lh4.ggpht.com/IAi2A1ukQunZaoCY1OUJnvZC_MAEjnYzlg7vcsIuPQyLIB710_5ueVQ3El8Pok0aNvlB18-Tdo1euhYbaf0'
  lat: 40.115224
  level: 4
  lon: -88.24957
  name:  'Linda M. Wesolowski Memorial Sign'
- ap: 3474
  img:  'http://lh5.ggpht.com/FeG7Xn052FyJtG43yF0j2iYs3BdENjAx_oZUTzI70y4H0qeexU7B8NrXaT20cmXSKwnWV8xFSc3OlG_KQU09pE8fyCAYXWWPbTzC0_GZ1aynCFni'
  lat: 40.116185
  level: 7
  lon: -88.243429
  name:  'C.V. Lloyde'
- ap: 3474
  img:  'http://lh4.ggpht.com/HMXgPSuj_Qc06z-u_ElF6pgeWVoxqEAZoT0woVULj2jB8M-G8a4In71YBTnsPrCaJTLx0DFoqB8lQ2847L9M'
  lat: 40.112187
  level: 6
  lon: -88.235913
  name:  'Scott Park Pavilion'
- ap: 3474
  img:  'http://lh5.ggpht.com/k_9eqZVvGcr3ZNyeeSNDM1-Y7od35KmnQQptB9usrdpTdpGW2c_5-12rYy9hGazdx7qhlYrEXxaJ_ZIVFywlcA'
  lat: 40.106706
  level: 5
  lon: -88.232116
  name:  'Illini Tower'
- ap: 3474
  img:  'http://lh5.ggpht.com/LLVKvcsTaSPmGBzaGFrvYIV4RhGzb6LqC_npAarehd2aLZSaVhjGzQV6T63Ke07reCQzO-GoZXmEfwZMOcM'
  lat: 40.110569
  level: 2
  lon: -88.226784
  name:  'Cubist Art at MSEB'
- ap: 3474
  img:  'http://lh3.ggpht.com/mtgiI5TKcuExETpmdSqIFabkYgVZTaXXLJnaIyzxeHPIunWoj_Fj8BqqwZG4nVQwSnngv15YxD-c_m9CHkr3'
  lat: 40.111202
  level: 2
  lon: -88.226447
  name:  'Boneyard Creek Memorial Streamflow Gaging Station'
- ap: 3474
  img:  'http://lh6.ggpht.com/vlKOFCgVZb_8XoZHDdzD2X9Xsejb8QVVqEM5U4YfgnKJbQIIHHSK2hSpgycF7vqRkGKRYYnbjVTyKS8dsHF3ChRyF01faLh907jhNd__xiEkGTWx'
  lat: 40.111225
  level: 2
  lon: -88.226537
  name:  'Fire College Plaque'
- ap: 3474
  img: http://i.imgur.com/5j1qaiT.png
  lat: 40.110982
  level: '?'
  lon: -88.163907
  name:  'Urbana Post Office'
- ap: 3474
  img:  'http://lh4.ggpht.com/J4angdYTKCPYybB0GhGqQPugzEy-7X48yLh6UFakxJsUTJY156aWvDAIxyqAbX9wGOUddPZcWQMvmhS10vVL'
  lat: 40.10391
  level: 3
  lon: -88.21116
  name:  'Carle Park Pavilion'
- ap: 2911
  img: http://i.imgur.com/5j1qaiT.png
  lat: 40.275273
  level: '?'
  lon: -88.353476
  name:  '28272aaee3234a039246a4282f96c916.16'
- ap: 2724
  img:  'http://lh3.googleusercontent.com/4ZghmANMiPJhVcpWuH3M3D6jgFGSDn0QH-VAP5olDzQjucfxwHFo8-1DsCSQhVV-YaTWMvC1pVwqWdnjVs8'
  lat: 40.117215
  level: 6
  lon: -88.245551
  name:  'The Virginia Theater'
- ap: 2649
  img:  'http://lh4.ggpht.com/lQtf71rwzXt5zHafbKPm8Czz3n2KwBWlEaNUh3-2JKrXTDueZ_JerHOPeSecqLaxLBWC09dTlPizrDMTafpT'
  lat: 40.105618
  level: 2
  lon: -88.230986
  name:  'Alpha Phi Sorority'
- ap: 2537
  img: http://i.imgur.com/5j1qaiT.png
  lat: 40.124533
  level: '?'
  lon: -88.463433
  name:  'b6871a5ae2124c8dae8299a360f6b824.12'
- ap: 2537
  img: http://i.imgur.com/5j1qaiT.png
  lat: 40.341303
  level: '?'
  lon: -88.525734
  name:  'baa4782d579a4b15b184b207abe0257e.16'
- ap: 2537
  img: http://i.imgur.com/5j1qaiT.png
  lat: 40.247118
  level: '?'
  lon: -88.631854
  name:  'Woodlawn Country Club'
- ap: 2537
  img: http://i.imgur.com/5j1qaiT.png
  lat: 42.540238
  level: '?'
  lon: -89.013208
  name:  'fc8a22ba29c34a51b07c1e2f09368414.16'
- ap: 2537
  img: http://i.imgur.com/5j1qaiT.png
  lat: 42.85348
  level: '?'
  lon: -88.311693
  name:  '75a7944b39be40c28beede801a9d720d.16'
- ap: 2537
  img: http://i.imgur.com/5j1qaiT.png
  lat: 42.383693
  level: '?'
  lon: -89.828746
  name:  'd803698981124e78944054ee621f9d88.16'
- ap: 2537
  img: http://i.imgur.com/5j1qaiT.png
  lat: 41.909696
  level: '?'
  lon: -90.59622
  name:  '5c3497dac814470085ee8aefb31f953d.12'
- ap: 2537
  img:  'http://lh6.ggpht.com/hDt2TaWr_3Rxg4Ot6z4G0vCecWeK9M0gY7k4xNvazhxurVNbzjJQyYJcGFV025KR_YQ7X9F_9jS0q1-I_dtH'
  lat: 40.091552
  level: 4
  lon: -88.2924
  name:  'Samuel and Edith Alper Memorial'
- ap: 2537
  img:  'http://lh3.ggpht.com/ROImDYnOqzAZ2JsC6d1BbHEDHBXtQwcT1EblsUkMVTN5M_E6B0WeKd76CdFWHsT-I6vOqYd46_0mo3qWslBI'
  lat: 40.09118
  level: 3
  lon: -88.29329
  name:  'Prayer for Peace'
- ap: 2537
  img:  'http://lh5.ggpht.com/dRrlHXlT2nMNgZNHiYo52ha9L-Xay9DyOJR2Cpqs74hgAJ09abn9OTAtMzRVedt1_R9ObZllLO98vRhNMfgTgVsJCk1S-HJwX_XgiGpG4lz3a328'
  lat: 40.11671
  level: 6
  lon: -88.24263
  name:  'Cafe Kopi'
- ap: 2537
  img:  'http://lh6.ggpht.com/RR0i4QdfoY8NkTQtssdOtDLhAEaCR7e-R4ipk5NzdKe9lTGDq2nyKI_7sF2BCXrgCZAZ2zEEtIzS7vg6Pu0hzA'
  lat: 40.126458
  level: 5
  lon: -88.218544
  name:  'The Vineyard Church'
- ap: 2537
  img:  'http://lh6.ggpht.com/D4r1KWBUGF8ZJDUXBHVcNVeP66FVliNQrEX0n-jZkYyFnWUfZ_vfBIAt4padKNgvgmextrkL2-kxkv6JbS3u'
  lat: 40.110394
  level: 5
  lon: -88.219509
  name:  'University Of Illinois'
- ap: 2312
  img:  'http://lh6.ggpht.com/4K7T7_gGrfag_-Hep7ygH_rklKsjale4oo2CqJAFTpPB5EM4Dv8ZGyz7i_qUOuLnt16GWxDSJWCS8TZYyGY'
  lat: 40.115421
  level: 3
  lon: -88.243168
  name:  'Walnut Street Tea Co.'
- ap: 2537
  img:  'http://lh6.ggpht.com/cZVUlNaHjfsB6Lu5hnj8JjUk4lvsgOV7DFz4Nl47-RaQObW1VPRpos6hTDD6WgYrNxCh9UKfn5DFU-K7lRe9pQ'
  lat: 40.1164
  level: 6
  lon: -88.242747
  name:  'Sidewalk Art'
- ap: 2537
  img:  'http://lh3.googleusercontent.com/gn3UDZYljuI4sEU3AjfmzR8UnzCK9QnafV3gRsuYNKuHsr4raKtT5fm962Via8OBBKQnMDs5CCA7qJQpfIYfRQ'
  lat: 40.087166
  level: 5
  lon: -88.214409
  name:  'Iron Bee @ Pollenatarium'
- ap: 2537
  img:  'http://lh5.ggpht.com/5n6ialkb-Y9eoGArdLzCAPCffrXVqL23DwAgk5_9lpKiUhDCIPnFMEDPXDx_cgawzU3afGhZK8hNkijTeoOiAw'
  lat: 40.054801
  level: 2
  lon: -88.239184
  name:  'Cornerstone Baptist Church'
- ap: 2537
  img:  'http://lh4.ggpht.com/Oocso9yyW_QlJlddbFRk8zzguP4PfXU8kI9T5rJbiyNwSgNMG0BmSoK3TdG2cEgH-p2Xd_vpQMxA_RcxLUP3'
  lat: 40.109066
  level: 6
  lon: -88.247875
  name:  'The Church of Scientology'
- ap: 2537
  img:  'http://lh6.ggpht.com/nRwew4OU3JNWRI1-xCyuN1xwDabajLFDuSlOZ-_M8BwJELli4V8o30JI0UyF6Kpc4gfDGdh10kJ6mD6ggMo'
  lat: 40.108561
  level: 6
  lon: -88.250039
  name:  'Harris Park'
- ap: 2537
  img:  'http://lh5.ggpht.com/3RfiPeOzF67ubNX-vkwUJ6-EYld6BKuoBernq0_9kOjlIsSPr3saR9FIQzN7uiw7ouF0CpNflOnL0mUj9zbqdQ'
  lat: 40.109452
  level: 4
  lon: -88.229031
  name:  'Illini Hall'
- ap: 2537
  img:  'http://lh4.ggpht.com/hJDi8J7CZU-933hT0Culp2nhslv6p8rDRPdTFz6FwNaAjB5CmfkaQzj9sM--E-QBvI8yvIJn1F2jxy7ZKWlh'
  lat: 40.10816
  level: 2
  lon: -88.234245
  name:  'Stratford House'
- ap: 2537
  img:  'http://lh4.ggpht.com/OFVPvdgB3GVpaQknHdnt2okgP3xcQksAH3wvOGYVuP85MMlxo3bQ2SRpBb0hzNfjQoC_5LlRqaE6jLB-h9Gr'
  lat: 40.108092
  level: 2
  lon: -88.234589
  name:  'Koinonia Plaque'
- ap: 2537
  img:  'http://lh6.ggpht.com/WtqWBwqpYTSw3g9ru5NwcFn5iK5STxWgy2kv4OUTWqwtzx76-9Msz0eqoiw0qpEYE1U4zdt9rzzNZMDNagNg'
  lat: 40.107943
  level: 4
  lon: -88.226751
  name:  'Class Of 1917 Plaque'
- ap: 2312
  img:  'http://lh4.ggpht.com/7U0YXCB_DIhnqPJyjyLpNn6kg4lU8HvKL87ddBKWq1sptvVLvCEiCuNEnghQtqDGSN2OBNcOUK9nZcYjY4Vr'
  lat: 40.107887
  level: 1
  lon: -88.225998
  name:  'Lifesaving Antibiotic Plaque'
- ap: 2537
  img:  'http://lh3.googleusercontent.com/OJqY1AUoZ28MDbchhtJ4BXjAeEUJsIUW9en5XctYJukeTYOV_zmwBnngt6wmdVqSjj0G4qwF-Mr7Hsqx8LKl'
  lat: 40.109736
  level: 4
  lon: -88.224983
  name:  'Methodist Symbolism'
- ap: 2537
  img:  'http://lh4.ggpht.com/9hzMj8KV-HraIucojjHAEgyMZsJAR9TWvNS-QSBB5LTYBOTwwqfTQySJ_Sz88eP3eyFWFYhx5qDVY93t8fk'
  lat: 40.108032
  level: 6
  lon: -88.225702
  name:  'Centennial Court'
- ap: 2537
  img:  'http://lh4.ggpht.com/bYrhTw8QophdiqDG-upqJ6JX2g2tZYX4N1jC4d_cciIj4ep8oQvIgjJlfge2VCmzSZe9irj-BTpbj9Jcv7U'
  lat: 40.103009
  level: 2
  lon: -88.233215
  name:  'Mac and Diana Garret Memorial Tree'
- ap: 2462
  img:  'http://lh3.ggpht.com/R0zPYMelKt6ABg3zkWyG1YtEMZm-4wbpveEmzXpn4vtolg3zStvSDscmdgZ4t1YW7vbSTYCBMS74-Tmq-XPU'
  lat: 40.112166
  level: 4
  lon: -88.20625
  name:  'Abraham Lincoln - Eighth Judic'
- ap: 2312
  img:  'http://lh5.ggpht.com/d1PrlCV_34E6p3knWKIG9iinFOOtMcApC_VC0BAtd_9RxZUgAzjzEmpDg3EQUC-i4MxVNvfPQIoZqYdwC48_'
  lat: 40.112278
  level: 4
  lon: -88.206724
  name:  'Urbana''s Lincoln'
