- ap: 14157
  img:  'http://lh3.ggpht.com/rUgM7jkTqL0VHxvsSW0yWuNJF5UrU62ITflghfn4PfKjn6L4WGz0ALkv98fc_q9dmK9SSpU1PXIawGvcRwE'
  lat: 40.098246
  level: 8
  lon: -88.251974
  name:  'Hessel Park'
- ap: 12470
  img:  'http://lh6.ggpht.com/BKeORacgeVrG8XzxTuXmpq5UxomWpK-I2n7Xy0PVbdSciNx9MJl869TcibnFIiV5PJHGv5R3QOpX6ZgLUwU'
  lat: 40.099706
  level: 8
  lon: -88.250065
  name:  'Lois Barham Memorial Tree'
- ap: 12283
  img:  'http://lh6.ggpht.com/yjfa0jJLjsfLRf9Zn9iafMp3MuIhgCi0WiOCF8GqTGiGvzEnsPGrFa0H1n-uzWhVehLbt44ShthsA32VzHd5iQ'
  lat: 40.099737
  level: 8
  lon: -88.251157
  name:  'Tyler Van Atkins Memorial'
- ap: 11720
  img:  'http://lh5.ggpht.com/tfAfnmo6mSMc6U0P533NMFJRGwn6lasmx-MLR2JJg1QOizMKkghFU8E7hb2zgYgdQEbgnCJUlvZIMdrrJe4'
  lat: 40.100822
  level: 8
  lon: -88.25193
  name:  'Seeds of Kindness Bench'
- ap: 11346
  img:  'http://lh6.ggpht.com/5CDidk0pqfUtSW_Yqouuf3diX8drdMu9DoT728QpSz8q6A-WxNhT0yLcgM_7gGpyIAeXrHiTkIzzaVJFgnN9WA'
  lat: 40.099852
  level: 8
  lon: -88.251947
  name:  'Our Friend Tim Palmer'
- ap: 10596
  img:  'http://lh5.ggpht.com/fDRifvVcFT_dKhPuNBN4rR9lNHL0Q6NvbMnGr2-ZdiirR2rJrBcWRi4vyM3-DYNHymUs7bWchaWRaUtBpg'
  lat: 40.098541
  level: 8
  lon: -88.250389
  name:  'Dennis Robert Costello Memorial'
- ap: 10409
  img:  'http://lh4.ggpht.com/4LxsGZZMk3DnpJXUvqzrL54CHSP5TDXjUnDJyHmCCTtCJIjGEI7kxT9g4uxfSPh0X6yGLgQo1jfqbu7B8VEr'
  lat: 40.099084
  level: 8
  lon: -88.251826
  name:  'Irina P. Stewart Memorial Plaque'
- ap: 10220
  img:  'http://lh5.ggpht.com/Q32BPmFRIQYqXI5gLOV9ifHvFlGdyD_yws2172-sHnSZ-StunhCM0Abqd9rBWSaKBWN7RPpa1h-nok4Mc23i'
  lat: 40.101062
  level: 8
  lon: -88.249275
  name:  'Narayan & Shanti Achanta Memorial Plaque'
- ap: 9846
  img:  'http://lh3.googleusercontent.com/Tixp17uCaP682s77UzvCwWCOE6vg7iB2qEFLjACq7xtVJdHE0K3yKYsl3_SwKbiUfQWwgTQRbvfka3U0NvNc'
  lat: 40.098819
  level: 8
  lon: -88.249214
  name:  'Bette McKown Honorary'
- ap: 9846
  img:  'http://lh5.ggpht.com/N1cFx79JwZqPlYPDW3HkNwRX8N4Auriii45qzYkAx9l-cKeK81qgZ6nuBpTBEIOyLzy4aIIhQKt2E7ZiysSjkg'
  lat: 40.10036
  level: 8
  lon: -88.250515
  name:  'Mark Foutch Pavilion'
- ap: 9659
  img:  'http://lh5.ggpht.com/aeGh3iXJqJ7skg-2JHEpngMSfcp1qDIEPoLMxzQNqbS5Y7HcxN7oE789bXiVFoFIcdCn7-3AhLPtxT_WE2E'
  lat: 40.0985
  level: 8
  lon: -88.248681
  name:  'Siti Sculpture'
- ap: 9659
  img:  'http://lh4.ggpht.com/PHV-1ZpFzCAl_ViCKwBY_x2pIDbVyaT7wJH1sTvFJCxrSdRrO1x7NaXq9OdRGwz_Mls4iwk6wuGHMBArfV54'
  lat: 40.098688
  level: 8
  lon: -88.25063
  name:  '"New Holland Yellow Dinosaurs" at Hessel Park'
- ap: 8909
  img:  'http://lh4.ggpht.com/vKgqIecJshMQxrhO-ZhMjcIyARuJdyU63wKfzAG0wouZex6LVzO46Qi5zM1N3Jx8xyantDFk9sQGsSEBhb-y'
  lat: 40.101327
  level: 8
  lon: -88.251412
  name:  'Zeus Memorial'
- ap: 8722
  img:  'http://lh4.ggpht.com/Iz-O9-kJLlEdRO9osaqkCvLRsSNF24c95jHG0lhtE95b99-cC2bKuCEiznIs1-ytpoCITEwQ7s5VuyURgrpM'
  lat: 40.117288
  level: 5
  lon: -88.248506
  name:  'Prayer for Rain  Fountain'
- ap: 8722
  img:  'http://lh5.ggpht.com/3t7XZHqwxLZ8Lc9YomR8FInm74U2PAA-DBk8kmdxXIrcXbKa1CoBDTlgdDJeO-_yVT3qNKRnNLzbdil1eH41iA'
  lat: 40.09935
  level: 8
  lon: -88.249766
  name:  'Jim Bickel Honorary Plaque'
- ap: 8722
  img:  'http://lh5.ggpht.com/ENeQgqydWbi9-Oyf7vizunoRqJdsZV4o0RA_956wjGI8hqpTCHBPyWMpbTrrkwYpj5tgzDRvevGmvH4eFRU'
  lat: 40.099593
  level: 8
  lon: -88.251724
  name:  'Blessings from Devon Elaine Cattell'
- ap: 8533
  img:  'http://lh3.ggpht.com/lSr_gDGX9o1BHZX9FUPCKAO2VVQjZ_NwTBaSNhNgjVyJ2p6BnLDByC_vIkhu637-W5nKMW2SShi0gXOlXNqY7A'
  lat: 40.097979
  level: 7
  lon: -88.247785
  name:  'Jarling''s Custard Cup'
- ap: 8159
  img:  'http://lh6.ggpht.com/3o0ObAARFV_8mBVCC_QD0iLOPVzNkakXybhLnSVEuXIJfDLKMxeYj-EkWIw9NPoZIVRf5Dkrid2yf_NEQ-iE'
  lat: 40.100347
  level: 8
  lon: -88.249385
  name:  'Travis Marmion Memorial'
- ap: 7972
  img:  'http://lh5.ggpht.com/C6wRSaEWO1NYGY5luyYZKHG3Z3aib4aflaPdV7B9G6N6adE890g3QuPRSvCUhsdFHqjoVUjo27mfz9WsjXyuhQ'
  lat: 40.100521
  level: 8
  lon: -88.250864
  name:  'Gabriel Patrick Maxeiner Memorial'
- ap: 7972
  img:  'http://lh6.ggpht.com/YVbqGVTjJuDMDdj71CP2mWvnUIdgO25PgoDdJwEGnEE_M9I1aDgKyjSr9JOZVU6UQTZQtfUo9RAWyz92n3jtCQ'
  lat: 40.098475
  level: 8
  lon: -88.249208
  name:  'In Fond Memory of William Moore Jr'
- ap: 7785
  img:  'http://lh6.ggpht.com/S7Utf4_59vQkAP5JhC3mdbzVLKBTt-0zoJ2UjfxUnN10VBbixO-_VwvssWd1LbFSx_yafaijd_U0wTGo870'
  lat: 40.100941
  level: 8
  lon: -88.251314
  name:  'Gabriel Patrick Maxeiner Memorial Plaque'
- ap: 7785
  img:  'http://lh4.ggpht.com/B_I1b0Jy3vW41RX8jjCNPP68AULplU0Pf8ddolyKmpEWCfBVShQkmjF1HfTPzDjmBBQGgOs0jHW-rUR0mv8BkA'
  lat: 40.098789
  level: 8
  lon: -88.251685
  name:  'Curtis William McKinney Memorial'
- ap: 7785
  img:  'http://lh3.ggpht.com/G1CvGhpethi5UmprDWxZN9rTblHa3anSsQz1UPgJtkREkfN7lDFoxFObst0609Cg5mofuZxJKr0ddNKhY4VL'
  lat: 40.098464
  level: 8
  lon: -88.251426
  name:  'Ruth Haasis Memorial'
- ap: 7035
  img:  'http://lh5.ggpht.com/T0WLAJf0s4nu2Phxax31eu6pO6zNoA4JpvHMLyfMKttzJALEWB8EAWOziQwgjdWE3YjBbG1XjGYsgihqCSX9'
  lat: 40.100414
  level: 8
  lon: -88.249061
  name:  'Randy William Auteberry Memorial'
- ap: 7035
  img:  'http://lh5.ggpht.com/4DJAFPeZ_w65Km7VDnsbOqouQaeBuPuxA0KHPQToT_B6o1hBxzdu3kn89UhHgv22Ygj52Fx9QqcbzOytuw'
  lat: 40.100078
  level: 8
  lon: -88.250683
  name:  'Brian Clark Memorial Plaque'
- ap: 7035
  img:  'http://lh5.ggpht.com/CRkkFx_9jq2hCt1HtflqZDqCdmSG5MN88FV0rLXk1PZm7maZWzLTKZhjqlSKUx1Tg0tSB62l75w2VFsyUZI'
  lat: 40.09991
  level: 8
  lon: -88.249899
  name:  'Benjamin Biddle Memorial Plaque'
- ap: 6472
  img:  'http://lh4.ggpht.com/H1kV6JSczzSbcCblAHg5ZOgITW1mBAz0_oLbqbzxBlijGTBn7TP6KwA6UI0AAGrCN4VF0DAF79Vcj6_2R4dsB8LRTq6tud6v'
  lat: 40.116164
  level: 6
  lon: -88.241661
  name:  'Zipcar-45 E. University Avenue'
- ap: 6472
  img:  'http://lh4.ggpht.com/mlUN5QXAR7rKFvUg7yhxcae3udkR7zCJVaWt5sq_YA47piV6tRi42RNN9fEtT_FafT7lhqg26WM1VETbz5E'
  lat: 40.098239
  level: 7
  lon: -88.25376
  name:  'Hessel Park Christian Reformed Church'
- ap: 6283
  img:  'http://lh5.ggpht.com/BK5TjuMzuJgDVPz4C8HRjfZKeaoISnPJ-H7VaYeMNUYmxvvUY7RzIIlR13FjW9HHF_i5-znqs3O6nMxKPfcj'
  lat: 40.102188
  level: 6
  lon: -88.251507
  name:  'Little Free Library Charter 5753'
- ap: 6023
  img:  'http://lh3.ggpht.com/8Nxm7sw1mIfTkxKb-GsE_e5DuPgup8SmX1SJRLGZmvopdsQsPx8E9eDzuISKXBjwveamwn6H26EmIJZzVwkr'
  lat: 40.117449
  level: 4
  lon: -88.246902
  name:  'Champaign Park District Flower Island'
- ap: 6098
  img:  'http://lh6.ggpht.com/rGhR45ZFbHtxmrZSSy9V19eFoyHIDB42c6MK188isPJFWpUsW9ywNHayKt3acNvKNC8DAV6mDkUloj3aiS4'
  lat: 40.118422
  level: 6
  lon: -88.24346
  name:  'Entrance'
- ap: 6098
  img:  'http://lh5.ggpht.com/8zq5tMevCiipZK8N9-8SZw3vdsA2HwH0E02ormQshGxHVZrB2WPK7OPC8zt6pjLlgpXVuEYHVA_08_Q8fPw-'
  lat: 40.099647
  level: 8
  lon: -88.249648
  name:  'Max Overmyer Memorial Playground'
- ap: 6098
  img:  'http://lh3.ggpht.com/VLipBehsKPCp8ewQnBV1ZCz7uE75zcY46iGDyFfFHgX1o55t3DONb3wcBcL5RMYSqABRK0TgIW3DluNy8y6WaA'
  lat: 40.101131
  level: 7
  lon: -88.250539
  name:  'Hessel Park'
- ap: 6098
  img:  'http://lh6.ggpht.com/YdeB0EKlsopL39a9YXWj4JBZgXNNLWHgfe4PQzdpWCNWc0fR1YTj8WjARDHnmrusvKWTqKLcGg8U9frhtsw'
  lat: 40.09821
  level: 8
  lon: -88.249879
  name:  'Hessel Park'
- ap: 6098
  img:  'http://lh5.ggpht.com/DFa-Mh8ldMlU5wGTYmJIGYKPoSYUfYebRpnom9j15NFNRkwMdU5kDME0GYQUyA_LXnsNi9Jka-xidd302s93'
  lat: 40.099056
  level: 8
  lon: -88.249136
  name:  '"Cricket" and Bob Barger Memorial'
- ap: 6098
  img:  'http://lh3.ggpht.com/GXyi2ghi2DR3h7uIHNYiEZPYixRhDo7LO0WHQ0PyEzb-150r7ar7JGeVjUoPuObC-GFWf22UWqnYCMtED0M-'
  lat: 40.100341
  level: 8
  lon: -88.249937
  name:  'Alice Marie Weber Plaque'
- ap: 6098
  img:  'http://lh5.ggpht.com/HhVreJipNvxPRVFpmsh2BPo9PcpPO2Q2l3jCpDjIKgfKGycoTNPXR4DKiYccBXW4X-4dJf_vV0ESsWAWHcChsg'
  lat: 40.100936
  level: 8
  lon: -88.250855
  name:  'Donald F. Bresnan Memorial'
- ap: 6098
  img:  'http://lh3.ggpht.com/sisvfsphxy7AK_2qrrqb7lNJk3_7ciHSVJyodINYITBc-UqugyNOooCxKupgJKEg5m_x95eZwouSO2WCmN60ew'
  lat: 40.098579
  level: 8
  lon: -88.249603
  name:  'Chef Ra Memorial Plaque'
- ap: 5722
  img:  'http://lh5.ggpht.com/KuDVZqnpBQnne0a_UqpN4wpsQFlw3nVXAWtRKP_AdZ3CjQ0MHUBgU_2hE8hb71h31FTQbduYmB6DNuVKA0s'
  lat: 40.116822
  level: 7
  lon: -88.243445
  name:  'Remembering Horeb'
- ap: 5535
  img:  'http://lh6.ggpht.com/btym2_WGYuFNu2SNiR8qif7GXLMOPT7XpuHE7RPOipPC9Q5lEPfImKAzf2vm9RUe2rN0u3TePq4pM0IuZiLS'
  lat: 40.116436
  level: 6
  lon: -88.243459
  name:  'Champaign City Building'
- ap: 5348
  img:  'http://lh3.googleusercontent.com/L3lfMswaooWEA3nJNFGES354rtENCzxYkoWuVLXEXaTiXbqTNnsl34TRd8tbMwnGQHkAnr37-HLMutIe3_Uz'
  lat: 40.117254
  level: 5
  lon: -88.247074
  name:  'Westside Park Double Dutch-A Jump For Joy'
- ap: 5348
  img:  'http://lh3.ggpht.com/J_h4tdb4wqy8bmmQfDuy5yqTR2IlkzKojfvsMOvlD-3tf1pKxbDlhA6W9Q8RX-JaSxhItMr4bmCxiUQXTLbz'
  lat: 40.10064
  level: 8
  lon: -88.24958
  name:  'Edward A. Cousins Plaque'
- ap: 4861
  img:  'http://lh6.ggpht.com/HvC073U-qgv-Zdd0zHS5_UQsybUORqZiuhnRY5V1bWxlRPwBG9564LEVab8tUebtP8OzNkBVp3K39WZkahjw'
  lat: 40.118119
  level: 3
  lon: -88.24714
  name:  'Police and Firefighters Memorial'
- ap: 4786
  img:  'http://lh4.ggpht.com/kikXgFanbehTzblqLlN2WzEcVgfnP2HD4JE7GI1GOKTu44g13lknkSsdu9prj71y0zKIBFJv_0RIkFW3vXY'
  lat: 40.117574
  level: 2
  lon: -88.247603
  name:  'Travis Marmion Memorial Tree'
- ap: 5161
  img:  'http://lh6.ggpht.com/qSCp5fQMlyCQ-GOAgiSFy5gaHJei705Pa3eOlJiYO5wGjZTYtjA8q7QWWfAWcLKjxZSaFiMfXOPR8SO7rWU'
  lat: 40.099353
  level: 7
  lon: -88.251876
  name:  'Raymond B. Cattell Memorial'
- ap: 5161
  img:  'http://lh5.ggpht.com/q-mJ2EvrjGn2PfbBh3Pl3XIGUyzTqxGjZmTMhn3k9_2Qi0S2hs3k2ZvpKb4kvt60AXHiyQdxqft5ZecPcg7x'
  lat: 40.098959
  level: 8
  lon: -88.250141
  name:  'Bob and Wilma Tinkham'
- ap: 5161
  img:  'http://lh5.ggpht.com/-UWK84I78Sftf7yg-E2pg6xEAWTvyiThgJBJlxbqOZPYKNmzQ8uGgEEMetzplrG1HpXG5kQqNItUeXKxOHDsGA'
  lat: 40.100286
  level: 8
  lon: -88.251747
  name:  'Tennis Anyone'
- ap: 5161
  img:  'http://lh3.ggpht.com/VrbXGwlUosNLEkVdshWUFoVa3KtlJQoEU4yLYygvftYbPCmxo644Uvar_v8Kb9RS53hB0tXgvV44GotrxZyu'
  lat: 40.098592
  level: 8
  lon: -88.251676
  name:  'Ruth and Fred Steigmann Plaque'
- ap: 5161
  img:  'http://lh3.ggpht.com/8FqlniFErK7cq59awiT84u8KyV4FIRd5krZzfYa58zJToFps7whdBnriPqvO_kFKeLUE3SWbJhCOPuvUQzaGFA'
  lat: 40.100691
  level: 8
  lon: -88.251337
  name:  'In Loving Memory of Zeus'
- ap: 5161
  img:  'http://lh3.ggpht.com/lzCSS0_tjwUV7JQ2fgLI0e05IrzPxlVUs-6aEPOwUv67IanQJSTi71gkw0SGm8asmoE_r3Xoh048Fd9xRpE'
  lat: 40.099169
  level: 7
  lon: -88.251419
  name:  'Lyman Larson Memorial'
- ap: 5159
  img:  'http://lh3.ggpht.com/wOZOXhKOnhbKEPMQke-zGIG_vheDkHM8q19B1n_is5H7t1whBcQxBIGZI6VIPNw8mdCNXG6EUZeSjd1YLdngdg'
  lat: 40.108965
  level: 5
  lon: -88.227184
  name:  'U of I Mother''s Association Plaque'
- ap: 4785
  img:  'http://lh4.ggpht.com/xS51--rXA9M_IHpXWgFQxKZU-YbD-1zk-nug6k7RyKl8rYeam_YFwMmLNWRRHHzI-rOTGyhTJQQ314WudSQJ'
  lat: 40.117132
  level: 6
  lon: -88.243009
  name:  'Fountain in the Alley'
- ap: 4785
  img:  'http://lh3.ggpht.com/fxsMa6MK6sWcY8fyTRPmRixomHagKag2YrMZjovxjujmavVawLdmU0Mi0HpNq5kH7UUoXfELEoBOFTkzeRwV2hp9PknjajWlvhX6jYIyUSrrH76k'
  lat: 40.10952
  level: 4
  lon: -88.228288
  name:  'Altgeld Hall'
- ap: 4560
  img:  'http://lh6.ggpht.com/rDThTbD9GU2Wvv8ZnUbLlUM5N0lb2OAYi3qDkxwfYALO2O0t_O9u19aQ4EQbxGlRScGdQ94AjAeqlc2WpNGZ'
  lat: 40.107379
  level: 4
  lon: -88.228355
  name:  'Carolyn Smith Ainsworth Memorial'
- ap: 4785
  img:  'http://lh6.ggpht.com/rnWumKyBYpVW5hCfQDlvRaT_666UPI5lo3k6HGdxWuLVsDbD8c7l-BU1HwhBqiGeCW28iEghSQtvZFzqK4w'
  lat: 40.109013
  level: 6
  lon: -88.22587
  name:  'Understanding Photosynthesis Plaque'
- ap: 4598
  img: http://i.imgur.com/5j1qaiT.png
  lat: 40.311696
  level: '?'
  lon: -89.169242
  name:  '74a2abe956ec428e8662daadb4b010f1.16'
- ap: 4411
  img: http://i.imgur.com/5j1qaiT.png
  lat: 40.001306
  level: '?'
  lon: -90.399731
  name:  '1b77e603687649b3b97168b59c6938e6.16'
- ap: 4411
  img: http://i.imgur.com/5j1qaiT.png
  lat: 40.160008
  level: '?'
  lon: -89.387825
  name:  '7bb0a855a0ad476da15c867fae0f4350.16'
- ap: 4411
  img: http://i.imgur.com/5j1qaiT.png
  lat: 40.347254
  level: '?'
  lon: -88.762091
  name:  'ef6a27b9721a476a9006c096765f1fad.16'
- ap: 4411
  img:  'http://lh5.ggpht.com/nirQKdy3s9r8TSV7cB7_B0l-0EsFXBkg1aitH05R0ttPhOEewGxlq1GRnlDvYFT2V8Z91hWnB9YD3WjxBvyZ'
  lat: 40.11868
  level: 5
  lon: -88.243426
  name:  '"Pointless"'
- ap: 4411
  img:  'http://lh3.ggpht.com/bltQwmnzp2vSKYhLpzNLqB4iddy6ie0kWk9G7Wce4U9qmW3CABxbXAhF7v0oG9QLFD2q57UZuVqZCMgN3MHZfA'
  lat: 40.118335
  level: 6
  lon: -88.243408
  name:  'Downtown Fountain'
- ap: 4261
  img:  'http://lh6.ggpht.com/ea6HxAw7m0OhhPqJJkZR9u60pR1sab_JdxaOyEltqmQd-63FFJzPY72jEnu08g9Gcjjj5cf3jyyS_M1E7OIbfg'
  lat: 40.11616
  level: 4
  lon: -88.241422
  name:  'It''s A Mistree'
- ap: 4111
  img:  'http://lh4.ggpht.com/ULEhKlvERD4aidwSKPhLFujl0N0mZWcHPxtcJ7hNJkyDjYek9yrB4UD_G8bU-O9-12L1LYpDkM068BiYmpm9weZeGJsz-K5whCvUYTfmDqaIp1Fp'
  lat: 40.117
  level: 2
  lon: -88.247111
  name:  'Wesley Robert Weedman Memorial'
- ap: 4111
  img:  'http://lh4.ggpht.com/7jfpHo9VtrONulGtzUfsP3lI3AsKBnUxCQaLU9xAMpVCQbWD24db4z9Otn0Sfz_OnEXSbdwKUGm3MZBV6QZrhQ'
  lat: 40.117194
  level: 3
  lon: -88.247472
  name:  'Rebecca Mabry Memorial Tree'
- ap: 4411
  img:  'http://lh6.ggpht.com/nbUJivBo0zF8f8aBbk1GwakUpPbLUVOoEovTTETYwJvfNIHXwG9XUbwoV0x-ly4ZO5Hsyv5KPo3c9cE6Nh8'
  lat: 40.118832
  level: 5
  lon: -88.243643
  name:  'Tesla Ball'
- ap: 4411
  img:  'http://lh3.ggpht.com/1G0o5RjtXyfAjbI-E2honhhelnuiq4lIkpHmB44e-AwSBuIxVOdLPVYjImbTMS8kyBdZuKuiMQHciUIdAWg'
  lat: 40.118368
  level: 6
  lon: -88.243737
  name:  'Frank Robeson Memorial'
- ap: 4411
  img:  'http://lh3.ggpht.com/oHMQr2Z5LayQFbZOwOZK4ZbYQ1OVxs85-qNTvSj8epsP72vQiOdrzVmkuMPFQtCSf9Rr0oqcnSLFjLn-sPw'
  lat: 40.116592
  level: 7
  lon: -88.243236
  name:  'Champaign City Bldg. Landmark Plaque'
- ap: 4411
  img:  'http://lh6.ggpht.com/n0f7lyo15OzZn5IJHsohIGAA58iioentPZGEY4zeMZCCoX4GjEEkqfaTCIbrx9OnezriThnbFV14kYcwKTgL1g'
  lat: 40.098444
  level: 7
  lon: -88.248167
  name:  'Healthcare Not War Mural'
- ap: 4411
  img:  'http://lh5.ggpht.com/-OqC4qsxJReOCIM0nMbVjvfydYq6x9bfLc7fmyI-u3x_ygkr5RCE-Ct-uYn-wvhkpdLRjIXEkiODbTkV1iufX14GyE_Qzy1Vkz2mpimaCx26Bo8'
  lat: 40.109364
  level: 3
  lon: -88.227697
  name:  'The Diana Fountain'
- ap: 4222
  img:  'http://lh6.ggpht.com/BzDhCANV_iNTHhKFBGLuaUqOvChRZtPWnJ2Xk4h7NsKJHmTGgCWtFHWv2PpDA2fCsHHKSCRTrUNK8AKrLRnS'
  lat: 40.108066
  level: 4
  lon: -88.230687
  name:  'Community United Church of Christ'
- ap: 3848
  img:  'http://lh4.ggpht.com/vKkSwERLa3zQO2UUIiYl1AEruAx1QTPcP4jSmPt89PG4AviJ1WhlVVH8qmqJ0aY2gqJmHcqdZFcM2pQconc'
  lat: 40.139375
  level: 5
  lon: -88.272793
  name:  'Salt And Light Ministries'
- ap: 3848
  img:  'http://lh6.ggpht.com/71G0y8a-Y6DpLW3DWoGynP_3lfH8iG-Kjdw01gq-YTrrmx0T3udFLdjNDk9k0yQHDgdvvkWUHdZ6xo0EKLarCg'
  lat: 40.118593
  level: 5
  lon: -88.240416
  name:  'Champaign Rail Water Tower'
- ap: 3848
  img:  'http://lh6.ggpht.com/pYay9oPZwUNKfLdWJ1JMI5tA9-Gd0vsBddLTz7fXN6wUW7F23hLMWRwFZNnXyomRkc2f9sqCGMxNWuYHPFZx'
  lat: 40.109142
  level: 2
  lon: -88.228748
  name:  'Kappa Alpha Psi Plaque'
- ap: 3848
  img:  'http://lh4.ggpht.com/GCS0-CwKl9SLe2zfeL7FPDuKv5ZFDhlnX3hMXZSJLvK-u73RlgWbn_FgnOHZi-0wqMk52z_YLSAMReYTSaoP'
  lat: 40.10659
  level: 5
  lon: -88.227679
  name:  'Lincoln Hall'
- ap: 3661
  img: http://i.imgur.com/5j1qaiT.png
  lat: 41.558503
  level: '?'
  lon: -89.461684
  name:  '6d7f9ef28bae4aae9de87a3db6aa266d.12'
- ap: 3661
  img:  'http://lh5.ggpht.com/QruW49d2dc1uhQlK1BaZIeo6ruDNkqQfmvZz83eQ-1aC9ytGUcpFaHnKRTnXRc70F2EZ0-pVKGr9Slo0_9RfxA'
  lat: 40.139749
  level: 5
  lon: -88.273955
  name:  'Northside Church of Christ'
- ap: 3661
  img:  'http://lh5.ggpht.com/pSVHjk6puyYdv3ztHlpJGnbkZyGsGsirMnxkDhlt8UMko4AhtTQbrzwInBCu5lK4Ttf7furE5pNW2AZh8HuSZQ'
  lat: 40.138109
  level: 5
  lon: -88.270158
  name:  'Glory Center International Church'
- ap: 3661
  img:  'http://lh3.googleusercontent.com/5FkLhIMVmAJJSslAXVxY1RNxi-4q5mNAVPK2XgU5LwRM8qcB8BGXOK0GmF6Y_xfgPOhwF_CrbcgVZlJx-Pza'
  lat: 40.11652
  level: 4
  lon: -88.241845
  name:  'Mike ''N Molly''s'
- ap: 3661
  img:  'http://lh3.googleusercontent.com/NRpdP-ebGuykq3sH1NZBQVjhmSdVJW3F4MTCRdXrWKQf3Z5dBgo0Phhyqnel5IrJmriQRmJNFR12lRDrjxJ9'
  lat: 40.114911
  level: 5
  lon: -88.227781
  name:  'Electrical & Computer Engineering Building'
- ap: 3661
  img:  'http://lh5.ggpht.com/BRRDKCyBRSA90katSWGccxinlIeZVFPrMr-6O3bI9db463bYKB6Pb_Iw3vWmyCktM38SU4rZCqUAask_yJJ5'
  lat: 40.115438
  level: 5
  lon: -88.22582
  name:  'Learning And Labor Plaque'
- ap: 3661
  img:  'http://lh3.ggpht.com/3WnMbDq1Vm3HiqAM5qk1r9m3OqcO-YUN0nCOt2yRfUxVWLZ-8huxevlCI0JnIJgpSBZN4mtw0gxJnrGtuaS9iUf7k-JFfmRGRkBXQafWO9MIk_oJ'
  lat: 40.115491
  level: 5
  lon: -88.227358
  name:  'Arnold O. Beckman Statue'
- ap: 3474
  img: http://i.imgur.com/5j1qaiT.png
  lat: 40.001661
  level: '?'
  lon: -90.40039
  name:  '43aa97ab5a1741a4a8c49bd489dcd993.16'
- ap: 3474
  img: http://i.imgur.com/5j1qaiT.png
  lat: 40.346898
  level: '?'
  lon: -88.761737
  name:  '7146a4c659e449f08cdcfb28a7a9f30e.16'
- ap: 3474
  img: http://i.imgur.com/5j1qaiT.png
  lat: 41.958614
  level: '?'
  lon: -90.102479
  name:  '146bf9ec43834fe09a0c188e725d2a0c.12'
- ap: 3474
  img: http://i.imgur.com/5j1qaiT.png
  lat: 41.120515
  level: '?'
  lon: -88.931182
  name:  '4e7cdbad02ba44c08e6795010958dd2b.16'
- ap: 3474
  img: http://i.imgur.com/5j1qaiT.png
  lat: 40.14851
  level: '?'
  lon: -89.387187
  name:  'a0f8dd4972b0415491199e1c28cae401.16'
- ap: 3474
  img: http://i.imgur.com/5j1qaiT.png
  lat: 40.313997
  level: '?'
  lon: -89.169257
  name:  '1fcd04e8e948466296ef82caa44c4d27.16'
- ap: 3474
  img:  'http://lh5.ggpht.com/tuo_ByFTbwLitFP5cBseOibqRxENxbCwOJ30dCnja5ijBI_qBv5vqNP7ZuZXnxhYM6ms_GbExZEwwKVUtwV2'
  lat: 40.093712
  level: 5
  lon: -88.281583
  name:  'Brownfield Dedication'
- ap: 3474
  img:  'http://lh6.ggpht.com/p2F3xw4xL4UdiMM9aSy628ISSglrvjPexpF3j340tMAP9MX07yh_sJv7kHVkeud8lyFf2ZwDohw3zsRS2PSd'
  lat: 40.093914
  level: 5
  lon: -88.281531
  name:  'Terry M. Warmbier Memorial'
- ap: 3474
  img:  'http://lh6.ggpht.com/Jz3ahY5LQ13wKWLY9SEvexiinJa3GeO1eB_FynplikRpa77swLST6cUAJjPpqKDSq2KU4Dcyui-QBstz_Z3k'
  lat: 40.094624
  level: 5
  lon: -88.282953
  name:  'Greenbelt 2'
- ap: 3474
  img:  'http://lh4.ggpht.com/W2chhQwPqSJEkl57NVoIL-OE4KFvJfp7Bsrrxza1apCYltcT3npz95LJxqHxvT9ZZu7wxF2gQy-5bpKal2p2'
  lat: 40.115838
  level: 5
  lon: -88.241338
  name:  'Illinois Terminal'
- ap: 3249
  img:  'http://lh4.ggpht.com/wbrbzDCo3C4qFJyHTWOST5o8B7kwZSWePUWOboIlYrdvxjrhWLqVQ1MqUF5-Hy4nt26x_oHQq9f8EbfdEjVK'
  lat: 40.117382
  level: 3
  lon: -88.243748
  name:  'Days of Venus'
- ap: 3249
  img:  'http://lh6.ggpht.com/4K7T7_gGrfag_-Hep7ygH_rklKsjale4oo2CqJAFTpPB5EM4Dv8ZGyz7i_qUOuLnt16GWxDSJWCS8TZYyGY'
  lat: 40.115421
  level: 3
  lon: -88.243168
  name:  'Walnut Street Tea Co.'
- ap: 3474
  img:  'http://lh4.ggpht.com/XlTZ26_29c4-74t23p1lgghqNfLI7aS3_kradmcl7vVQzV9jJRu78D1HdzJf-sWibnak644kxCBJDnA594PVaw'
  lat: 40.092849
  level: 5
  lon: -88.251586
  name:  'Boulware Trail'
- ap: 3474
  img:  'http://lh3.ggpht.com/ugJXpaIWZ-wI1vpderJmQjM8r0T5_Li2j4hvvsu4fRM9k3MeBpETqj2LFNd1pEkcfH0I9bgZh--5g1AEJKkq'
  lat: 40.092745
  level: 5
  lon: -88.251235
  name:  'William C Fox Honorary Plaque'
- ap: 3474
  img:  'http://lh4.ggpht.com/Gyz7BDhWdUinBQfD8duByX5-aBgPmB9oSesH20dH8uGJnTiaIHkeRJARtH6YQUUD5A5X2IjPTlT989AfutNc'
  lat: 40.092773
  level: 5
  lon: -88.250951
  name:  'William C. Fox Waterway'
- ap: 3474
  img:  'http://lh4.ggpht.com/CuRKYla63wCvLaTdKqGMMAd1Mr0_HK3v2iQjltrJwmsOownFtry6TsHMkAeHmOP6ULUYA53u4MUP61rgLzs6'
  lat: 40.1097
  level: 3
  lon: -88.228059
  name:  'Liza Kotz Memorial Plaque'
- ap: 3249
  img:  'http://lh3.ggpht.com/1JgqaWx4DIU04ms-XmufSumQ5BDP07SB97-kBjzxDePlLQR9HagCTfqdviW9ErxCqpvXgynqeosQhERhCat6'
  lat: 40.108781
  level: 3
  lon: -88.226388
  name:  'Illinois State Water Survey Plaque'
- ap: 2911
  img:  'http://lh5.ggpht.com/1eDayuS4d2wNAfoiDstKMYbI0A-jF-si0NR2wlIA4cGm_nJhPwg0qgwC4fHnpfADWMcQd31BdogexUe3d1W2'
  lat: 40.124396
  level: 5
  lon: -88.305917
  name:  'Sawgrass Playground'
- ap: 2911
  img:  'http://lh5.ggpht.com/NUOCD82iNRGW1NGqEC4FKet1u5_cm4WRNc2c9_YABAjGf6-OSCLz7HgYkP1ZuVAbpMl6Qi10HRW16Oc9jNM2'
  lat: 40.106401
  level: 5
  lon: -88.236182
  name:  'Washington Park'
- ap: 2911
  img:  'http://lh5.ggpht.com/VYMooLhz51W3fCgti3L9LEQNMJjmFeW30saxIYK34yGEReG1naEKEd3eW1uyFgSlzpu-P5KertNDe4Z6qu8'
  lat: 40.109913
  level: 3
  lon: -88.228393
  name:  'Alma Mater Statue'
- ap: 2911
  img:  'http://lh4.ggpht.com/S734i_6SihPtJW8WdegLb3gEuKeNx8e1qDm6CXjREzYHohw7XqL82m4EF2K5nS2TixHweLn3EuJ4YoQnrsw'
  lat: 40.107751
  level: 4
  lon: -88.231532
  name:  'Graduate School of Library and Information Science'
- ap: 2724
  img: http://i.imgur.com/5j1qaiT.png
  lat: 39.887671
  level: '?'
  lon: -89.597079
  name:  'ed6b0355a27040d380c4ae4a8dfef563.16'
- ap: 2724
  img:  'http://lh3.ggpht.com/eFFdc4ogWkS9n6Texp4aw9BhK-M6FRxwvMRH-YkXj7JP7qSRQdo7E0-0O4P7NawgvduxpxgjnbGHbN1BjW2_'
  lat: 40.114585
  level: 6
  lon: -88.311371
  name:  'Joe''s Park'
- ap: 2724
  img:  'http://lh3.ggpht.com/AD9d7JPmLdYRdpxESO9iORy1GRXAcN1jzn8dDNvm6FO7cIHVsjwAKI8LmbW4dico1Xe9jzJfsZZriP0CxXA46w'
  lat: 40.104084
  level: 5
  lon: -88.241616
  name:  'Honorary Memorial Steam Ventilation Pipe'
- ap: 2724
  img:  'http://lh3.ggpht.com/2bCNiD7SWsS3uzFLMO2cZh-LpHUEMQGnfTmcNx5vJapXho2TuXke630-7zop2Sq4fuY8nWVqy4VCG23mvnIJ'
  lat: 40.104168
  level: 6
  lon: -88.238808
  name:  'Alpha Gamma Rho'
- ap: 2724
  img:  'http://lh5.ggpht.com/nWEtxuKQdy0teBBue1DYmG7P3SF5-3A6zlB7GwVHBWlolAZYGq6Br78lWcF9ltFy-KeSlozXie2RmU6JfCUX'
  lat: 40.142673
  level: 6
  lon: -88.244603
  name:  'Italian Statue'
- ap: 2724
  img:  'http://lh3.ggpht.com/07XrBN-er6Ecleor0n9RJ4DfGO6B2yn-ZxjI-Uy8Ba46Jtb6cXNVmATPiPiGyk-1jZ4wxa7-EeIWbWUqArCG'
  lat: 40.142554
  level: 4
  lon: -88.243468
  name:  'Dog Heart'
- ap: 2724
  img:  'http://lh5.ggpht.com/FEi_8ic1_FXYTyUlXgNz6IOiBsLCPTURCMQCXc2T-lpcQV-d_wdBC3YEDYltNn09_oi76voYbhGSi8P6r6QZ'
  lat: 40.141914
  level: 5
  lon: -88.235279
  name:  'Judson Chapel Baptist Church'
- ap: 2724
  img:  'http://lh6.ggpht.com/y10QgRCNt0Bsefqp3olKgJp98whQkS0-vWqPskj3421hcSq96BG-b_KROqsO1mBEcNiYtAKhXuXG0EV0eaUW'
  lat: 40.107152
  level: 5
  lon: -88.235244
  name:  'Bromley Hall'
- ap: 2724
  img:  'http://lh4.ggpht.com/x_fyYrN-YfUnpF38UMPMPIyK1ThV0rTPAz-5LMZToKmKVkfKUeOv6ZWafmef3MKmOBO59QDQUmr_CoCWsa4'
  lat: 40.121714
  level: 6
  lon: -88.222011
  name:  'Jettie Rhodes Pavilion'
- ap: 2724
  img:  'http://lh5.ggpht.com/8OgQHnRehZt9nl_igzh_0k19Qp5vRgGVHo2IukHGLeEp0iNTb_YUZRDseHY39JvlTc0ROrDtbmt8SBAEFPOwpA'
  lat: 40.108965
  level: 5
  lon: -88.226465
  name:  'Harker Hall Fountain'
- ap: 2724
  img:  'http://lh5.ggpht.com/sIbYMQQ_Zap8IM-0OSNfDcmhqlGrLw12pnC_OdD-CIksN6uBVuBi0m-ZNPiXF3Eijc8dtCbZLYdv_yX_qGKR'
  lat: 40.114982
  level: 5
  lon: -88.223894
  name:  'Campbell Hall'
- ap: 2724
  img:  'http://lh5.ggpht.com/cHXnlWuRvdsWlYl544dN4Z4dFmU3Wzw1BEovUj84953CC59BdwR-5pDK8MUkpnAECo3RjUVQMAS0elR08dvD'
  lat: 40.115302
  level: 5
  lon: -88.224932
  name:  'National Center for Supercomputing Applications'
- ap: 2537
  img: http://i.imgur.com/5j1qaiT.png
  lat: 42.141917
  level: '?'
  lon: -88.855534
  name:  'c55615b8b14f463d9ce99dbb7ac25ea6.16'
- ap: 2537
  img: http://i.imgur.com/5j1qaiT.png
  lat: 42.275407
  level: '?'
  lon: -89.630643
  name:  '150d9b07a6604421805b00992f23a045.16'
- ap: 2537
  img: http://i.imgur.com/5j1qaiT.png
  lat: 40.334333
  level: '?'
  lon: -88.766527
  name:  'e080a514718246ae91d93e990746b2a9.16'
- ap: 2537
  img: http://i.imgur.com/5j1qaiT.png
  lat: 41.958856
  level: '?'
  lon: -90.102003
  name:  'ef6cd4b6ad3749dfb912498670f43c4b.16'
- ap: 2537
  img: http://i.imgur.com/5j1qaiT.png
  lat: 40.322816
  level: '?'
  lon: -88.970541
  name:  'c1716d63e9704886b213fd796937adcf.16'
- ap: 2537
  img: http://i.imgur.com/5j1qaiT.png
  lat: 40.00745
  level: '?'
  lon: -88.574966
  name:  'ac80b809cf9349bc8c760ce00d822a12.12'
- ap: 2537
  img: http://i.imgur.com/5j1qaiT.png
  lat: 39.966666
  level: '?'
  lon: -88.349433
  name:  '4bc4e30883db4e5c872b2f20957f71d4.12'
- ap: 2537
  img: http://i.imgur.com/5j1qaiT.png
  lat: 40.345507
  level: '?'
  lon: -88.759419
  name:  'ccbbb1df77494bec8c7d9a042dfb2f8f.16'
- ap: 2537
  img:  'http://lh6.ggpht.com/L2LdCXwXyxkV_ENkb567X8EtQ8713-lEbbpVfOAg4_yiMbHvUnq9u0Ks4DCgqlvRAUMgsoMJJR3RPsup2oU'
  lat: 40.122772
  level: 5
  lon: -88.30035
  name:  'Barb Babb Memorial Plaque'
- ap: 2537
  img:  'http://lh3.googleusercontent.com/eGP4sxnePximEFk88kdcqNxeClf1LjUbwiPTwKmCfStyP9CAq9qGtzAsbEcVWEaS0KyG8LQn7SgS3X07OU4f'
  lat: 40.122643
  level: 5
  lon: -88.300552
  name:  'Powell Park'
- ap: 2537
  img:  'http://lh5.ggpht.com/bxjTJmHRd1_7x6zw7y1Eir0opWUqtbJOdAC4FxDOfOBVdUI1zEVV9wo5FiHzTxqR7hajj-4tQrnSyAe2b8Y'
  lat: 40.113974
  level: 6
  lon: -88.311234
  name:  'WBGL Radio Station Headquarters Plaque'
- ap: 2537
  img:  'http://lh3.googleusercontent.com/hJZWoErzM-MuXulq4FlhlZwMbJX1Isd81GBUBVKayd57jVIVxUle3itd-1DRKo2VaNXznWr1X639fa44Etk'
  lat: 40.141919
  level: 6
  lon: -88.244611
  name:  'Marketplace Mall Carousel'
- ap: 2537
  img:  'http://lh3.googleusercontent.com/3nkY0B9PDqzlWJ_EKh5GnTZ8z0U6X9-2dI5dapKA5Q3F4iKrE99AJZoy6NSvh2nU1WTG2hL70276yJjJ0G8'
  lat: 40.141598
  level: 5
  lon: -88.238817
  name:  'Red Shield Center'
- ap: 2462
  img:  'http://lh6.ggpht.com/Nv0tMktEkkuoGtg1QEPS1N2nTcBPg8ipu31i72XPDTGQ4HQI5oL58Ig8kofXUH_aCC2aaJ-NylWKPkC3hIBS'
  lat: 40.116218
  level: 6
  lon: -88.228757
  name:  'The Presidents'' Walk'
- ap: 2537
  img:  'http://lh5.ggpht.com/0m1i3CJSj3bKhLj5BgXi8SFpgoihNsBoN6fpccgDU2tjtPcA5BqB1IxvR0yAX9FWkgt3_Q8gbAyGfdJDliGP'
  lat: 40.115142
  level: 5
  lon: -88.238658
  name:  'First Street Antiques'
- ap: 2537
  img:  'http://lh5.ggpht.com/9XV46K2cUd84oc6HPyqlj53LKJS8lVs0f0gPHSCBkkTwiHaxivu36dlAj5M38EzK-2U4xhvZJ7AiVvGM5yk'
  lat: 40.118175
  level: 3
  lon: -88.244562
  name:  'The Russell Building'
- ap: 2537
  img:  'http://lh3.ggpht.com/NfRR7PyM2-UNoQGKgRsf6sUZdUTMp0sWqha9caVs49hYb0AnT9OznQX0dQGxKJNP6KiHWJ0WRUMSQh1m4-rwvg'
  lat: 40.117976
  level: 4
  lon: -88.245082
  name:  'Robeson Building '
- ap: 2537
  img:  'http://lh5.ggpht.com/_9uqsDQROIwqIhKx_URY4DdZAapoZBEWK6Eaclt5mM5vPsjwQAD-v8Bv-4b-Smq2F8X4zOgzLx2KwySkFWc'
  lat: 40.118448
  level: 5
  lon: -88.25211
  name:  'First Church of Christ, Scientist'
- ap: 2537
  img:  'http://lh5.ggpht.com/vYay8RKsCV_BP_MkeFm7se0VZoYthm-1pThiATAADleBlTsPowobgZyUoU7DUto6p5cpg9adpCcTgNR6iop0Jw'
  lat: 40.120121
  level: 5
  lon: -88.251967
  name:  'Sesquicentennial Neighborhood Sign'
- ap: 2537
  img:  'http://lh5.ggpht.com/XQVr2AUWddJQMpYbapEIpcTLBeBvcpgmW016VjkAOXrp8_P2VsMxQY8FVhtDhA73iTCXCPiydjFIJcbcSa8_'
  lat: 40.116206
  level: 6
  lon: -88.24306
  name:  'Indigo Art Gallery'
- ap: 2537
  img:  'http://lh6.ggpht.com/NMgUdPOdhvhvKZh7ugwXgybshZBZ2mkaEWMNKYdFPX6cfIYENSCqE9YpAXSNVuq_9VVWXJB-ShCBAPfF2Yvs'
  lat: 40.102513
  level: 6
  lon: -88.243679
  name:  'Robert Hosier Memorial Garden'
- ap: 2537
  img:  'http://lh5.ggpht.com/oCw3ZC6UKF3aiK6dkbz72dhzUsJNhOmfVjVsXJET_YP5e1p53pLTa8Dep24gLqeY9FghWE0kaAB64vvn7nq0'
  lat: 40.105008
  level: 7
  lon: -88.243265
  name:  'McCollum Park Peacock'
- ap: 2537
  img:  'http://lh4.ggpht.com/HEEvU2OlgWiV5huAu3cvNKaI-C8YKYTO3qB8WMTO7EbsjTO84KS6jLjbGCq7THZq6l63UiUKCSEqY2IADYns'
  lat: 40.091766
  level: 5
  lon: -88.250003
  name:  '"The Cranes" at Fox Corporate Center'
- ap: 2537
  img:  'http://lh5.ggpht.com/jz0XvZSSYKqKSa4lJDK-rludOns_o36jZ8ZTzfEr42piZamiTjSASTLdII6pkxgjZgnCwKirjhEouS77BPB8Dg'
  lat: 40.094288
  level: 5
  lon: -88.248914
  name:  'Boulware Trail'
- ap: 2537
  img:  'http://lh6.ggpht.com/tenpgw5pr4OCsrdIgmmHP_sx4RHH2ywHdbNxw556d5JpHC4u64HFYqCdRSeAJgfTN_7BcUv11v8NtBdlaUV8'
  lat: 40.100717
  level: 6
  lon: -88.243989
  name:  'Rainbow Garden'
- ap: 2537
  img:  'http://lh4.ggpht.com/SVmjitsTrPq194xydzMJYXMXGiUEcfEFfYF4e9GpsuZCQpCruqc3PtiXry3n1f4zH3XD-D7MsK5hMZuPUtpJ'
  lat: 40.121701
  level: 6
  lon: -88.221449
  name:  'King Park Pavilion'
- ap: 2537
  img:  'http://lh5.ggpht.com/EoSf8hHJu8u_sZNBmm3S1GHAWAxUzBsmXEWMMBkHb0fpzxtjz5RHwnclV42-DDwyDr2BION1zqJ4sLIkaiw'
  lat: 40.121818
  level: 6
  lon: -88.222608
  name:  'King Park Tennis Courts'
- ap: 2537
  img:  'http://lh3.ggpht.com/KxQsev6i7POmNh1IadCWwWQSMdCuLIYpPwIdenSlVtzum523D1R-1kfeTbuOGTkt_jDwn4jswCu1edkumm2-'
  lat: 40.110037
  level: 6
  lon: -88.23549
  name:  'Red Lion'
- ap: 2537
  img:  'http://lh5.ggpht.com/Tn5ARN-X6VTc2q6atZ2WYq3c2g3gbSGXu6_vXf1MDwHfLpdTtnQ-CilBAVGvL6R-SHhq3fJ4WZI-yiJKmIId'
  lat: 40.110398
  level: 6
  lon: -88.235143
  name:  'US Post Office, E Green St, Champaign'
- ap: 2537
  img:  'http://lh5.ggpht.com/k_9eqZVvGcr3ZNyeeSNDM1-Y7od35KmnQQptB9usrdpTdpGW2c_5-12rYy9hGazdx7qhlYrEXxaJ_ZIVFywlcA'
  lat: 40.106706
  level: 5
  lon: -88.232116
  name:  'Illini Tower'
- ap: 2537
  img:  'http://lh5.ggpht.com/1yq3oFq9p_Yl5cUf5h7IEfZPAbae2MT7lA0DFo1DHwPWPZJJ-Ez-2AE2oTzHEHWsEJQVUcUwh3j_d3kOYgDS'
  lat: 40.110095
  level: 3
  lon: -88.22862
  name:  'Alma Mater Plaza'
- ap: 2537
  img:  'http://lh4.ggpht.com/d3UqrcK5M1wuOe19dIaBUOkrXF4C9IxhOWfxqzM4zIHkGsUIRb1mckNapOMRkkCtVIe0rzJumb1OVDVc1_Y'
  lat: 40.108055
  level: 6
  lon: -88.233688
  name:  'University Baptist Church'
- ap: 2537
  img:  'http://lh3.ggpht.com/pVUYGCf7vsAndVd4vhK_pC9p6e9OvGa4ZiWuZg0ELOFDWptBba4H2N4PNZPjQdHXnV1GQyLTpCXQWDMKDUqn'
  lat: 40.108875
  level: 4
  lon: -88.227835
  name:  'Lion''s Head Planter'
- ap: 2537
  img:  'http://lh5.ggpht.com/3RfiPeOzF67ubNX-vkwUJ6-EYld6BKuoBernq0_9kOjlIsSPr3saR9FIQzN7uiw7ouF0CpNflOnL0mUj9zbqdQ'
  lat: 40.109452
  level: 5
  lon: -88.229031
  name:  'Illini Hall'
- ap: 2462
  img:  'http://lh5.ggpht.com/Lci4hchvPddvCn0adEUsjrUPGPoQlR5HVSfAA694lfczUe6nbgy8qQsLRgRnZJ4nHPN-ogww3D4BAXJpBawznA'
  lat: 40.114734
  level: 5
  lon: -88.22362
  name:  'Friends of WILL Plaza'
- ap: 2162
  img:  'http://lh3.ggpht.com/fvQtXA7uQ_ump_R8JixzV9ndFr5gVzIttL7RP9cD1MYPv5sui8NvcUwgkO7V83M9DpRjiqE505roZ62DjPgHCQ'
  lat: 40.122254
  level: 2
  lon: -88.219635
  name:  'King Park 1967'
- ap: 2237
  img:  'http://lh3.ggpht.com/OwtLBhgC6DoVKIQig8B4LZitIgWrx8rj8ejtnl3FyU2bAwcsRbcardVZSCLCP7U9es_sHo_Ee-iwR_mxOt_V'
  lat: 40.121852
  level: 3
  lon: -88.219695
  name:  'Preston Jackson Byways to Equality'
