- ap: 20153
  img:  'http://lh3.googleusercontent.com/9sOiIMyEVQdEfXtrwCIOD4-cswL1iHfufX9JfT5oju8rsmNrjQx1Wwcfz0gKEYJyzDY9Ucr7y4yNbBg3U5O_'
  lat: 40.113606
  level: 6
  lon: -88.243766
  name:  'Mural on South Neil St.'
- ap: 15470
  img:  'http://lh3.ggpht.com/G1CvGhpethi5UmprDWxZN9rTblHa3anSsQz1UPgJtkREkfN7lDFoxFObst0609Cg5mofuZxJKr0ddNKhY4VL'
  lat: 40.098464
  level: 8
  lon: -88.251426
  name:  'Ruth Haasis Memorial'
- ap: 14720
  img:  'http://lh3.ggpht.com/rUgM7jkTqL0VHxvsSW0yWuNJF5UrU62ITflghfn4PfKjn6L4WGz0ALkv98fc_q9dmK9SSpU1PXIawGvcRwE'
  lat: 40.098246
  level: 8
  lon: -88.251974
  name:  'Hessel Park'
- ap: 13966
  img:  'http://lh5.ggpht.com/THzk1iE4eBFdHkEgW_OGBWS54BbJw46faUZQS1Ad_IROHGgmVaXrphXJuL1O8N9k4G8_jaDT4P9tmLxMNi0W'
  lat: 40.131713
  level: 5
  lon: -88.29276
  name:  'Campus Solar System - Sun'
- ap: 13220
  img:  'http://lh6.ggpht.com/YdeB0EKlsopL39a9YXWj4JBZgXNNLWHgfe4PQzdpWCNWc0fR1YTj8WjARDHnmrusvKWTqKLcGg8U9frhtsw'
  lat: 40.09821
  level: 8
  lon: -88.249879
  name:  'Hessel Park'
- ap: 12657
  img:  'http://lh6.ggpht.com/6pMlM7pPsp-5PTNYZ8AJgo5ODURCPJO-_LigeHL2TMhjfK9MS17iEcpQqc89n5gyUdEO8seZrlThTGbKEqg'
  lat: 40.132999
  level: 5
  lon: -88.292808
  name:  'Campus Solar System - Mars'
- ap: 12657
  img:  'http://lh6.ggpht.com/yjfa0jJLjsfLRf9Zn9iafMp3MuIhgCi0WiOCF8GqTGiGvzEnsPGrFa0H1n-uzWhVehLbt44ShthsA32VzHd5iQ'
  lat: 40.099737
  level: 8
  lon: -88.251157
  name:  'Tyler Van Atkins Memorial'
- ap: 11346
  img:  'http://lh5.ggpht.com/q-mJ2EvrjGn2PfbBh3Pl3XIGUyzTqxGjZmTMhn3k9_2Qi0S2hs3k2ZvpKb4kvt60AXHiyQdxqft5ZecPcg7x'
  lat: 40.098959
  level: 8
  lon: -88.250141
  name:  'Bob and Wilma Tinkham'
- ap: 11346
  img:  'http://lh6.ggpht.com/5CDidk0pqfUtSW_Yqouuf3diX8drdMu9DoT728QpSz8q6A-WxNhT0yLcgM_7gGpyIAeXrHiTkIzzaVJFgnN9WA'
  lat: 40.099852
  level: 8
  lon: -88.251947
  name:  'Our Friend Tim Palmer'
- ap: 11157
  img:  'http://lh4.ggpht.com/IM3Yvrk727rz6f1euz6nTpei6llE4E4oqn_l-WbxZIN3K6dF8pEa7wGKzbjqfr0DBRubxiNFztHBePH9-Iw'
  lat: 40.132147
  level: 5
  lon: -88.291251
  name:  'Staerkel Planetarium '
- ap: 10968
  img:  'http://lh5.ggpht.com/XSTOU98iZoBFcDNR_YYJQfmQaiD_vXAP5Z7R79nVC7k06VMhH8tHSb9Yb9Pe8OnV1svwvlvy6iyz6vMjg3_EzA'
  lat: 40.132804
  level: 5
  lon: -88.285013
  name:  'W Glenn Karr Memorial Plaque'
- ap: 10783
  img:  'http://lh5.ggpht.com/4DJAFPeZ_w65Km7VDnsbOqouQaeBuPuxA0KHPQToT_B6o1hBxzdu3kn89UhHgv22Ygj52Fx9QqcbzOytuw'
  lat: 40.100078
  level: 8
  lon: -88.250683
  name:  'Brian Clark Memorial Plaque'
- ap: 10596
  img:  'http://lh4.ggpht.com/MvwoDsxwfyNLHzfGkFJl-4VFeX7OvqB0hsMCrZ2D9Olh8GSghAJDfFfDh7a7cOtMIGwEDMyesZoKvKCXAGj4'
  lat: 40.116553
  level: 5
  lon: -88.242268
  name:  'Esquire Lounge'
- ap: 10220
  img:  'http://lh5.ggpht.com/tfAfnmo6mSMc6U0P533NMFJRGwn6lasmx-MLR2JJg1QOizMKkghFU8E7hb2zgYgdQEbgnCJUlvZIMdrrJe4'
  lat: 40.100822
  level: 8
  lon: -88.25193
  name:  'Seeds of Kindness Bench'
- ap: 9846
  img:  'http://lh6.ggpht.com/3o0ObAARFV_8mBVCC_QD0iLOPVzNkakXybhLnSVEuXIJfDLKMxeYj-EkWIw9NPoZIVRf5Dkrid2yf_NEQ-iE'
  lat: 40.100347
  level: 8
  lon: -88.249385
  name:  'Travis Marmion Memorial'
- ap: 9472
  img:  'http://lh3.googleusercontent.com/hF5kZFrZGRZkYYPDY8q06SkEPkSLljkbEbCI4gcyZ1QU1-wpfBV_Cma3GT6YE6PTdRBZr-7NuaDvVEm7oQU'
  lat: 40.128105
  level: 6
  lon: -88.210924
  name:  'Busey Woods Trail - A Change of Scenery'
- ap: 8909
  img:  'http://lh5.ggpht.com/DFa-Mh8ldMlU5wGTYmJIGYKPoSYUfYebRpnom9j15NFNRkwMdU5kDME0GYQUyA_LXnsNi9Jka-xidd302s93'
  lat: 40.099056
  level: 8
  lon: -88.249136
  name:  '"Cricket" and Bob Barger Memorial'
- ap: 8909
  img:  'http://lh5.ggpht.com/T0WLAJf0s4nu2Phxax31eu6pO6zNoA4JpvHMLyfMKttzJALEWB8EAWOziQwgjdWE3YjBbG1XjGYsgihqCSX9'
  lat: 40.100414
  level: 8
  lon: -88.249061
  name:  'Randy William Auteberry Memorial'
- ap: 8907
  img:  'http://lh5.ggpht.com/dRrlHXlT2nMNgZNHiYo52ha9L-Xay9DyOJR2Cpqs74hgAJ09abn9OTAtMzRVedt1_R9ObZllLO98vRhNMfgTgVsJCk1S-HJwX_XgiGpG4lz3a328'
  lat: 40.11671
  level: 5
  lon: -88.24263
  name:  'Cafe Kopi'
- ap: 8722
  img:  'http://lh6.ggpht.com/S7Utf4_59vQkAP5JhC3mdbzVLKBTt-0zoJ2UjfxUnN10VBbixO-_VwvssWd1LbFSx_yafaijd_U0wTGo870'
  lat: 40.100941
  level: 8
  lon: -88.251314
  name:  'Gabriel Patrick Maxeiner Memorial Plaque'
- ap: 8722
  img:  'http://lh4.ggpht.com/PHV-1ZpFzCAl_ViCKwBY_x2pIDbVyaT7wJH1sTvFJCxrSdRrO1x7NaXq9OdRGwz_Mls4iwk6wuGHMBArfV54'
  lat: 40.098688
  level: 8
  lon: -88.25063
  name:  '"New Holland Yellow Dinosaurs" at Hessel Park'
- ap: 8531
  img:  'http://lh4.ggpht.com/0UzQDuaKLiiPhEgEmKghfkzvXj6lROhxPIDJuI4nWLJFvdxJwGNcJZ1va0K_9cy4L2u0Zyeqv_qlIAwch5o'
  lat: 40.133475
  level: 5
  lon: -88.293988
  name:  'Parkhill Applied Technology Center'
- ap: 8346
  img:  'http://lh3.ggpht.com/lSr_gDGX9o1BHZX9FUPCKAO2VVQjZ_NwTBaSNhNgjVyJ2p6BnLDByC_vIkhu637-W5nKMW2SShi0gXOlXNqY7A'
  lat: 40.097979
  level: 7
  lon: -88.247785
  name:  'Jarling''s Custard Cup'
- ap: 8159
  img:  'http://lh6.ggpht.com/cZVUlNaHjfsB6Lu5hnj8JjUk4lvsgOV7DFz4Nl47-RaQObW1VPRpos6hTDD6WgYrNxCh9UKfn5DFU-K7lRe9pQ'
  lat: 40.1164
  level: 4
  lon: -88.242747
  name:  'Sidewalk Art'
- ap: 8159
  img:  'http://lh5.ggpht.com/Q32BPmFRIQYqXI5gLOV9ifHvFlGdyD_yws2172-sHnSZ-StunhCM0Abqd9rBWSaKBWN7RPpa1h-nok4Mc23i'
  lat: 40.101062
  level: 8
  lon: -88.249275
  name:  'Narayan & Shanti Achanta Memorial Plaque'
- ap: 8157
  img:  'http://lh5.ggpht.com/5bCoRsqGBM0hx50ymfbZ8NhvyAyQDJWMnSg6qaDe-zxvwzVZW6O5IZWCDefH-pIsFZzvUaCcBBK9kqNDwXW3'
  lat: 40.128048
  level: 5
  lon: -88.290536
  name:  'In Memory of David Foster Wallace'
- ap: 7972
  img:  'http://lh6.ggpht.com/YEHyAsx3ysK3IxTTbSx5dLEcHRtRVKQ4XTvE0Kvkd3iIW3mA6lplwojkVOpWCemyQS6G3JESxZnMFQtVf7V3'
  lat: 40.11652
  level: 5
  lon: -88.241845
  name:  'Mike ''N Molly''s'
- ap: 7972
  img:  'http://lh3.ggpht.com/oHMQr2Z5LayQFbZOwOZK4ZbYQ1OVxs85-qNTvSj8epsP72vQiOdrzVmkuMPFQtCSf9Rr0oqcnSLFjLn-sPw'
  lat: 40.116592
  level: 6
  lon: -88.243236
  name:  'Champaign City Bldg. Landmark Plaque'
- ap: 7972
  img:  'http://lh5.ggpht.com/3t7XZHqwxLZ8Lc9YomR8FInm74U2PAA-DBk8kmdxXIrcXbKa1CoBDTlgdDJeO-_yVT3qNKRnNLzbdil1eH41iA'
  lat: 40.09935
  level: 8
  lon: -88.249766
  name:  'Jim Bickel Honorary Plaque'
- ap: 7972
  img:  'http://lh4.ggpht.com/vKgqIecJshMQxrhO-ZhMjcIyARuJdyU63wKfzAG0wouZex6LVzO46Qi5zM1N3Jx8xyantDFk9sQGsSEBhb-y'
  lat: 40.101327
  level: 8
  lon: -88.251412
  name:  'Zeus Memorial'
- ap: 7972
  img:  'http://lh5.ggpht.com/N1cFx79JwZqPlYPDW3HkNwRX8N4Auriii45qzYkAx9l-cKeK81qgZ6nuBpTBEIOyLzy4aIIhQKt2E7ZiysSjkg'
  lat: 40.10036
  level: 8
  lon: -88.250515
  name:  'Mark Foutch Pavilion'
- ap: 7785
  img:  'http://lh3.googleusercontent.com/Tixp17uCaP682s77UzvCwWCOE6vg7iB2qEFLjACq7xtVJdHE0K3yKYsl3_SwKbiUfQWwgTQRbvfka3U0NvNc'
  lat: 40.098819
  level: 8
  lon: -88.249214
  name:  'Bette McKown Honorary'
- ap: 7785
  img:  'http://lh4.ggpht.com/GsF83mQilY6LIEvSeaGzU2sGjQnFmNgTzi6gPFGKt1K-Yd40nunFYDQs97tOMf-RgMbeGBl2pwi33cd0L11U'
  lat: 40.126708
  level: 5
  lon: -88.208946
  name:  'Busey Friendship Grove'
- ap: 7783
  img:  'http://lh5.ggpht.com/V9AFUiWKES88x0FruZILBXEBv1d476XQMgH8JsCHDQgvjDvk95Mgjf5vcl-Nx7CkPvfhwVGIrvB1EA5Tlh2j'
  lat: 40.132437
  level: 5
  lon: -88.29022
  name:  'Dr. Ray Braun Memorial'
- ap: 7783
  img:  'http://lh6.ggpht.com/f3cOUn1gqLkJZQzs4-Y9j6j2ZXbb1Kmzf3klCFzF8zmFSlZZ-B6O4-5t1KIX95jbYUjeqMgOohEf1ilF75Uqyw'
  lat: 40.132777
  level: 7
  lon: -88.287351
  name:  'Parkland College Prairie Restoration Reserve'
- ap: 7596
  img:  'http://lh4.ggpht.com/h3t9nwbrudSHJ4Ll-zBceLi_U0iwpgbsVd8Wjzy_JgqMiXIqIu4CILUiFnKdayIi0htMXQ5CNowcXO7XUqI'
  lat: 40.13401
  level: 5
  lon: -88.28239
  name:  'Eddie Albert Gardens'
- ap: 7409
  img:  'http://lh5.ggpht.com/_Tp5JJFIIlt0iHHyC_A_gnEm1sxUEKDHmQr0oby74HL0rnFZ5JrnuvOTPk6_vulsU_GJue_7RAAX2Y7I2Wxw4A'
  lat: 40.132354
  level: 5
  lon: -88.292578
  name:  'Campus Solar System - Venus'
- ap: 7409
  img:  'http://lh4.ggpht.com/2JNDO54Hu2KzjIaEeCIFVgD7gEa5VXNBsIemFYp6cgiTUbsSpOwLTc-HqZb__uut24jHpVnQVokRVtL00ozu'
  lat: 40.132056
  level: 5
  lon: -88.292671
  name:  'Campus Solar System - Mercury'
- ap: 7035
  img:  'http://lh5.ggpht.com/XQVr2AUWddJQMpYbapEIpcTLBeBvcpgmW016VjkAOXrp8_P2VsMxQY8FVhtDhA73iTCXCPiydjFIJcbcSa8_'
  lat: 40.116206
  level: 4
  lon: -88.24306
  name:  'Indigo Art Gallery'
- ap: 7035
  img:  'http://lh5.ggpht.com/FeG7Xn052FyJtG43yF0j2iYs3BdENjAx_oZUTzI70y4H0qeexU7B8NrXaT20cmXSKwnWV8xFSc3OlG_KQU09pE8fyCAYXWWPbTzC0_GZ1aynCFni'
  lat: 40.116185
  level: 4
  lon: -88.243429
  name:  'C.V. Lloyde'
- ap: 7035
  img:  'http://lh5.ggpht.com/aeGh3iXJqJ7skg-2JHEpngMSfcp1qDIEPoLMxzQNqbS5Y7HcxN7oE789bXiVFoFIcdCn7-3AhLPtxT_WE2E'
  lat: 40.0985
  level: 8
  lon: -88.248681
  name:  'Siti Sculpture'
- ap: 7035
  img:  'http://lh5.ggpht.com/HhVreJipNvxPRVFpmsh2BPo9PcpPO2Q2l3jCpDjIKgfKGycoTNPXR4DKiYccBXW4X-4dJf_vV0ESsWAWHcChsg'
  lat: 40.100936
  level: 8
  lon: -88.250855
  name:  'Donald F. Bresnan Memorial'
- ap: 7035
  img:  'http://lh6.ggpht.com/BKeORacgeVrG8XzxTuXmpq5UxomWpK-I2n7Xy0PVbdSciNx9MJl869TcibnFIiV5PJHGv5R3QOpX6ZgLUwU'
  lat: 40.099706
  level: 8
  lon: -88.250065
  name:  'Lois Barham Memorial Tree'
- ap: 7035
  img:  'http://lh3.ggpht.com/VLipBehsKPCp8ewQnBV1ZCz7uE75zcY46iGDyFfFHgX1o55t3DONb3wcBcL5RMYSqABRK0TgIW3DluNy8y6WaA'
  lat: 40.101131
  level: 8
  lon: -88.250539
  name:  'Hessel Park'
- ap: 7035
  img:  'http://lh5.ggpht.com/CRkkFx_9jq2hCt1HtflqZDqCdmSG5MN88FV0rLXk1PZm7maZWzLTKZhjqlSKUx1Tg0tSB62l75w2VFsyUZI'
  lat: 40.09991
  level: 8
  lon: -88.249899
  name:  'Benjamin Biddle Memorial Plaque'
- ap: 7035
  img:  'http://lh3.ggpht.com/J_h4tdb4wqy8bmmQfDuy5yqTR2IlkzKojfvsMOvlD-3tf1pKxbDlhA6W9Q8RX-JaSxhItMr4bmCxiUQXTLbz'
  lat: 40.10064
  level: 7
  lon: -88.24958
  name:  'Edward A. Cousins Plaque'
- ap: 7035
  img:  'http://lh3.ggpht.com/GXyi2ghi2DR3h7uIHNYiEZPYixRhDo7LO0WHQ0PyEzb-150r7ar7JGeVjUoPuObC-GFWf22UWqnYCMtED0M-'
  lat: 40.100341
  level: 8
  lon: -88.249937
  name:  'Alice Marie Weber Plaque'
- ap: 7035
  img:  'http://lh3.ggpht.com/KzADjdPRAvwycpfTBdAeDwFJ0AxZJG2dPmbPWkXq55QLV9PfpJ_-DsXWIlVgsISUApRdJ5cAxRWx0k0W2hI'
  lat: 40.09979
  level: 8
  lon: -88.249107
  name:  'Jerome Cook Memorial'
- ap: 6848
  img:  'http://lh4.ggpht.com/4LxsGZZMk3DnpJXUvqzrL54CHSP5TDXjUnDJyHmCCTtCJIjGEI7kxT9g4uxfSPh0X6yGLgQo1jfqbu7B8VEr'
  lat: 40.099084
  level: 8
  lon: -88.251826
  name:  'Irina P. Stewart Memorial Plaque'
- ap: 6848
  img:  'http://lh6.ggpht.com/qSCp5fQMlyCQ-GOAgiSFy5gaHJei705Pa3eOlJiYO5wGjZTYtjA8q7QWWfAWcLKjxZSaFiMfXOPR8SO7rWU'
  lat: 40.099353
  level: 8
  lon: -88.251876
  name:  'Raymond B. Cattell Memorial'
- ap: 6848
  img:  'http://lh4.ggpht.com/B_I1b0Jy3vW41RX8jjCNPP68AULplU0Pf8ddolyKmpEWCfBVShQkmjF1HfTPzDjmBBQGgOs0jHW-rUR0mv8BkA'
  lat: 40.098789
  level: 8
  lon: -88.251685
  name:  'Curtis William McKinney Memorial'
- ap: 6848
  img:  'http://lh4.ggpht.com/n7S7CjMfxfFwYHpq5HrRc6lFaFZYFVb4vYJAcTAc8MZgOgDNYI7QBChMeKIY-OSJkDSdwCf5KsJYmDesbHhq'
  lat: 40.127017
  level: 6
  lon: -88.209948
  name:  'Busey Woods Gateway Trail'
- ap: 6846
  img:  'http://lh5.ggpht.com/KuDVZqnpBQnne0a_UqpN4wpsQFlw3nVXAWtRKP_AdZ3CjQ0MHUBgU_2hE8hb71h31FTQbduYmB6DNuVKA0s'
  lat: 40.116822
  level: 4
  lon: -88.243445
  name:  'Remembering Horeb'
- ap: 6659
  img:  'http://lh4.ggpht.com/wbrbzDCo3C4qFJyHTWOST5o8B7kwZSWePUWOboIlYrdvxjrhWLqVQ1MqUF5-Hy4nt26x_oHQq9f8EbfdEjVK'
  lat: 40.117382
  level: 4
  lon: -88.243748
  name:  'Days of Venus'
- ap: 6659
  img:  'http://lh5.ggpht.com/kElaGOaV9aI8SrnM1D65gx9J0Ky1AKrN9Yo-pXVmDhELt2pee4MwVRiCqCmlqWzUWj5pS33GnEzAiXmiWKsw'
  lat: 40.108111
  level: 7
  lon: -88.229625
  name:  'Illini Sports Mural'
- ap: 6172
  img:  'http://lh3.googleusercontent.com/tWUxy7KQ-q_qBBIgLzTjjezrBpWPSJ_z3FWnvbB8Y5wIiYZW1I5ioL0Tzq60VyalCaIwOk4UI3agM8tFaykY'
  lat: 40.117427
  level: 2
  lon: -88.243235
  name:  'Cowboy Monkey'
- ap: 6472
  img:  'http://lh4.ggpht.com/mlUN5QXAR7rKFvUg7yhxcae3udkR7zCJVaWt5sq_YA47piV6tRi42RNN9fEtT_FafT7lhqg26WM1VETbz5E'
  lat: 40.098239
  level: 7
  lon: -88.25376
  name:  'Hessel Park Christian Reformed Church'
- ap: 6285
  img:  'http://lh6.ggpht.com/ea6HxAw7m0OhhPqJJkZR9u60pR1sab_JdxaOyEltqmQd-63FFJzPY72jEnu08g9Gcjjj5cf3jyyS_M1E7OIbfg'
  lat: 40.11616
  level: 4
  lon: -88.241422
  name:  'It''s A Mistree'
- ap: 6098
  img:  'http://lh5.ggpht.com/wX6-mbTE7nT00T6ildapKbI5ZrnhPIt4l91DhMseyo3GYFrgQIuqbjh8ntZY6NxGZ-qa6fKWlyoBOPdIdNIt'
  lat: 40.114653
  level: 7
  lon: -88.243729
  name:  'The Phoenix'
- ap: 6098
  img:  'http://lh6.ggpht.com/n0f7lyo15OzZn5IJHsohIGAA58iioentPZGEY4zeMZCCoX4GjEEkqfaTCIbrx9OnezriThnbFV14kYcwKTgL1g'
  lat: 40.098444
  level: 6
  lon: -88.248167
  name:  'Healthcare Not War Mural'
- ap: 6098
  img:  'http://lh5.ggpht.com/8zq5tMevCiipZK8N9-8SZw3vdsA2HwH0E02ormQshGxHVZrB2WPK7OPC8zt6pjLlgpXVuEYHVA_08_Q8fPw-'
  lat: 40.099647
  level: 8
  lon: -88.249648
  name:  'Max Overmyer Memorial Playground'
- ap: 6098
  img:  'http://lh5.ggpht.com/C6wRSaEWO1NYGY5luyYZKHG3Z3aib4aflaPdV7B9G6N6adE890g3QuPRSvCUhsdFHqjoVUjo27mfz9WsjXyuhQ'
  lat: 40.100521
  level: 8
  lon: -88.250864
  name:  'Gabriel Patrick Maxeiner Memorial'
- ap: 6098
  img:  'http://lh5.ggpht.com/-UWK84I78Sftf7yg-E2pg6xEAWTvyiThgJBJlxbqOZPYKNmzQ8uGgEEMetzplrG1HpXG5kQqNItUeXKxOHDsGA'
  lat: 40.100286
  level: 8
  lon: -88.251747
  name:  'Tennis Anyone'
- ap: 6098
  img:  'http://lh5.ggpht.com/ENeQgqydWbi9-Oyf7vizunoRqJdsZV4o0RA_956wjGI8hqpTCHBPyWMpbTrrkwYpj5tgzDRvevGmvH4eFRU'
  lat: 40.099593
  level: 8
  lon: -88.251724
  name:  'Blessings from Devon Elaine Cattell'
- ap: 6098
  img:  'http://lh6.ggpht.com/YVbqGVTjJuDMDdj71CP2mWvnUIdgO25PgoDdJwEGnEE_M9I1aDgKyjSr9JOZVU6UQTZQtfUo9RAWyz92n3jtCQ'
  lat: 40.098475
  level: 8
  lon: -88.249208
  name:  'In Fond Memory of William Moore Jr'
- ap: 6098
  img:  'http://lh6.ggpht.com/y10QgRCNt0Bsefqp3olKgJp98whQkS0-vWqPskj3421hcSq96BG-b_KROqsO1mBEcNiYtAKhXuXG0EV0eaUW'
  lat: 40.107152
  level: 5
  lon: -88.235244
  name:  'Bromley Hall'
- ap: 6098
  img:  'http://lh5.ggpht.com/NUOCD82iNRGW1NGqEC4FKet1u5_cm4WRNc2c9_YABAjGf6-OSCLz7HgYkP1ZuVAbpMl6Qi10HRW16Oc9jNM2'
  lat: 40.106401
  level: 5
  lon: -88.236182
  name:  'Washington Park'
- ap: 6098
  img:  'http://lh5.ggpht.com/sF7lKjQa6S3nhaNE0eY9h2BozLXUrtnucsZvqAKKD_ZrLPFTVf8thR2l28H7-R4sxheNrwB3hEujhIk1_4E'
  lat: 40.126699
  level: 6
  lon: -88.209995
  name:  'Fly Fishing Sculpture'
- ap: 5722
  img:  'http://lh5.ggpht.com/BK5TjuMzuJgDVPz4C8HRjfZKeaoISnPJ-H7VaYeMNUYmxvvUY7RzIIlR13FjW9HHF_i5-znqs3O6nMxKPfcj'
  lat: 40.102188
  level: 6
  lon: -88.251507
  name:  'Little Free Library Charter 5753'
- ap: 5535
  img:  'http://lh4.ggpht.com/GcCZ7JTzkEHTZnUWfpUgibDh2Wa4nzGM9-k13AG4I2RwFiPa6exz1vCzj7Hwvf_oPwJvYJt0xoRE6GZXmCMX'
  lat: 40.132625
  level: 5
  lon: -88.292636
  name:  'Campus Solar System - Earth'
- ap: 5535
  img:  'http://lh3.ggpht.com/07XrBN-er6Ecleor0n9RJ4DfGO6B2yn-ZxjI-Uy8Ba46Jtb6cXNVmATPiPiGyk-1jZ4wxa7-EeIWbWUqArCG'
  lat: 40.142554
  level: 5
  lon: -88.243468
  name:  'Dog Heart'
- ap: 5535
  img:  'http://lh6.ggpht.com/SCYK-XeMmOyfRrTt1-aQNoDA-2Sib4m5Ch26mTwo6XNdVeVnfi7W74Ik6IRLAPSoKzSS97pgwt50Jl9oSgGfP029USxZzQWKNJo3rbs-6YHBPBif'
  lat: 40.116792
  level: 5
  lon: -88.241752
  name:  'WEFT 90.1 FM Community Radio'
- ap: 5535
  img:  'http://lh5.ggpht.com/6qIQAtIoPbAVQ1O3BoOnGg6gtTa9fd0JIkxt6P1kmSimVswLaPpCRaLEudsNcMfP_kKb4SCE1By1o3lhYevmIA'
  lat: 40.1172
  level: 4
  lon: -88.243745
  name:  'Circle of Friends'
- ap: 5535
  img:  'http://lh4.ggpht.com/1BgYrJYdcGdepVZ6ibhTjtjZ6MyzKnQzLL4wxEnn_CEPnrJmOKHzPXm1qinGRA78MqKq11gKRlprm3Z7mDr0'
  lat: 40.115645
  level: 4
  lon: -88.243036
  name:  'The Art Party Studio'
- ap: 5535
  img:  'http://lh6.ggpht.com/pxaCt7clhIXc1RVGMMJZsmnbEWNWjFYJiUrQMev_SeOmXBothvOzmfnirQ5_W8CMa7hpigqydQhKMa4XFCAi'
  lat: 40.108173
  level: 7
  lon: -88.230209
  name:  'Mural on South Sixth Street'
- ap: 5348
  img:  'http://lh6.ggpht.com/2lDM_Uj6QcUJmWkmPhNWg-vfkJbBQAo6zb7eXC5qDTaJ5xAsoU7jPPqYmLo7zztC2Za1oH3QVrHQ78-XabqR'
  lat: 40.116398
  level: 4
  lon: -88.242485
  name:  'Champaign Servicemen and Women Memorial'
- ap: 5348
  img:  'http://lh6.ggpht.com/oTEawnC2cPnZ7T10vs9tiueaLsN0ILM7tgPLWVfa0njwvTDrUvS-w8x5SK4iMDd0tuHYP2w5a-H0AQ4NaAyU'
  lat: 40.116388
  level: 4
  lon: -88.243702
  name:  'Cycles of Love'
- ap: 5348
  img:  'http://lh3.googleusercontent.com/EwXPPCiuVPRkECPKlJtyqReSySoJKEdwrx1MkNVUy6EM9xWU_fet1Z-sLfx_P2_c54DeJcApxdl-hKg9vGVEtw'
  lat: 40.108224
  level: 6
  lon: -88.223549
  name:  'Colwell Playhouse'
- ap: 5348
  img:  'http://lh6.ggpht.com/hPutcAvS7zQN-tagfEY-fvkvdlgj7j5sZwUSLY883Twc7tHyslIAp7lzWYciJmCytDfsbFQtavAlzqGwCgFZkw'
  lat: 40.105562
  level: 5
  lon: -88.234991
  name:  'Acacia House'
- ap: 5348
  img:  'http://lh3.ggpht.com/A87H2Ev-nSq_HCpnUCxDLdRG04MKhj9Uap_0Ii4kdUx_db5SwcKhAAOey5ls43XiDLYaw7uYymdNMcsAXfNo'
  lat: 40.106182
  level: 5
  lon: -88.235521
  name:  'Evans Scholars'
- ap: 5348
  img:  'http://lh4.ggpht.com/pWMrJGcrxdHbkyzK9GJLFBQdvgWtZzdJOIMHr66tCffHpsZd5e8NTrSPkYm0T9i4vtEVhARdLo6tZ7xLadU'
  lat: 40.108294
  level: 6
  lon: -88.224348
  name:  'Bird Of Prey Statue'
- ap: 5348
  img:  'http://lh3.googleusercontent.com/IL1IY2pEoa4vQNpzLwvTQY2XdPSKTnAOTyAaJle-S-3FAQF1BJqAxI5mRqem75ioMEmfTui9CLSzjwbI8P5C'
  lat: 40.128772
  level: 6
  lon: -88.211041
  name:  'Busey Woods Trail Shifting Views'
- ap: 5348
  img:  'http://lh3.googleusercontent.com/__dofGL-oELNLYymrJ5VDONThxrG0oMe5aQcopgTFJgu56wHeV1y-scJDNms_C4LRoqDe-qKwDBNRNkCiJnNUQ'
  lat: 40.127703
  level: 4
  lon: -88.211526
  name:  'Busey Woods Trail - Wet to Dry'
- ap: 5161
  img:  'http://lh3.ggpht.com/VrbXGwlUosNLEkVdshWUFoVa3KtlJQoEU4yLYygvftYbPCmxo644Uvar_v8Kb9RS53hB0tXgvV44GotrxZyu'
  lat: 40.098592
  level: 8
  lon: -88.251676
  name:  'Ruth and Fred Steigmann Plaque'
- ap: 5161
  img:  'http://lh5.ggpht.com/fDRifvVcFT_dKhPuNBN4rR9lNHL0Q6NvbMnGr2-ZdiirR2rJrBcWRi4vyM3-DYNHymUs7bWchaWRaUtBpg'
  lat: 40.098541
  level: 8
  lon: -88.250389
  name:  'Dennis Robert Costello Memorial'
- ap: 5161
  img:  'http://lh3.ggpht.com/sisvfsphxy7AK_2qrrqb7lNJk3_7ciHSVJyodINYITBc-UqugyNOooCxKupgJKEg5m_x95eZwouSO2WCmN60ew'
  lat: 40.098579
  level: 8
  lon: -88.249603
  name:  'Chef Ra Memorial Plaque'
- ap: 5161
  img:  'http://lh4.ggpht.com/twbc9Orzt8vZhGO-EB4zI9fLIkHjJyN7_sN6QnjsPUVf0W6hTbPtNhiDPejMdK6CalgOPTUXqK2iTtKIE2wK'
  lat: 40.127246
  level: 6
  lon: -88.210084
  name:  'Gateway Trail Information Kiosk'
- ap: 4972
  img:  'http://lh6.ggpht.com/duOeXcOSQLWosdD0JJXg3pWWQp4t5sL0x9qDHoTIBFNOzEW0t53Lt2cnwgV2E_Su0l1ajIQxPtVbbK_sDRaS'
  lat: 40.141775
  level: 4
  lon: -88.242671
  name:  'Marketplace Mall Fountain'
- ap: 4972
  img:  'http://lh4.ggpht.com/Gyz7BDhWdUinBQfD8duByX5-aBgPmB9oSesH20dH8uGJnTiaIHkeRJARtH6YQUUD5A5X2IjPTlT989AfutNc'
  lat: 40.092773
  level: 6
  lon: -88.250951
  name:  'William C. Fox Waterway'
- ap: 4785
  img:  'http://lh5.ggpht.com/zdaFJ-aI4Re55DtEiADt-qd1MMBuWZqEByU3BbT-0eYI80maTD-8JB5vJgtwKPFsFk-V75s-itU-cBisa-W9'
  lat: 40.132819
  level: 5
  lon: -88.286151
  name:  'Dodds Park'
- ap: 4785
  img:  'http://lh6.ggpht.com/mKnh6CvhOm_8Kn26lJTmk71nbwSMS-i9VJ45CR83Z8wB6Qn-9JAiyt1GEfrWKkv51a_y-lbN8pO6R1L5EZWfzw'
  lat: 40.117349
  level: 3
  lon: -88.244537
  name:  'Flower Island'
- ap: 4785
  img:  'http://lh6.ggpht.com/BzDhCANV_iNTHhKFBGLuaUqOvChRZtPWnJ2Xk4h7NsKJHmTGgCWtFHWv2PpDA2fCsHHKSCRTrUNK8AKrLRnS'
  lat: 40.108066
  level: 6
  lon: -88.230687
  name:  'Community United Church of Christ'
- ap: 4785
  img:  'http://lh4.ggpht.com/H1kV6JSczzSbcCblAHg5ZOgITW1mBAz0_oLbqbzxBlijGTBn7TP6KwA6UI0AAGrCN4VF0DAF79Vcj6_2R4dsB8LRTq6tud6v'
  lat: 40.107753
  level: 7
  lon: -88.228913
  name:  'Zipcar-Wright Street & Daniel Street'
- ap: 4598
  img:  'http://lh3.googleusercontent.com/hJZWoErzM-MuXulq4FlhlZwMbJX1Isd81GBUBVKayd57jVIVxUle3itd-1DRKo2VaNXznWr1X639fa44Etk'
  lat: 40.141919
  level: 6
  lon: -88.244611
  name:  'Marketplace Mall Carousel'
- ap: 4598
  img:  'http://lh6.ggpht.com/yYW6Egg1lWn6UqqLzlgqwCQhtbuxiZSW4TmvI1XBPs33OTTJ0oh51XZXOIILxGI2juoO-E_YfG5UHmeb34rSOw'
  lat: 40.109165
  level: 7
  lon: -88.230269
  name:  'John Street Plaque'
- ap: 4598
  img:  'http://lh3.googleusercontent.com/hvoLMUc9UoNVVPttxWTc8PzOWdu5MBmPETnBexH7Alyl20WGCrNa0G_j7DwvD3qbhqpTaeThFhGDV2rCtp8'
  lat: 40.107629
  level: 6
  lon: -88.224484
  name:  'Bucky Balls'
- ap: 4598
  img:  'http://lh5.ggpht.com/gkIcCbfmQWyJ7s9ryhzfOOn1K-oa8huqzZN80X2psVjx_6Iur5egjGncbUIAMLiAJAf9qG1Ac8lX2MomHYY'
  lat: 40.108185
  level: 6
  lon: -88.225203
  name:  'Statue at Medical Sciences'
- ap: 4598
  img:  'http://lh4.ggpht.com/S734i_6SihPtJW8WdegLb3gEuKeNx8e1qDm6CXjREzYHohw7XqL82m4EF2K5nS2TixHweLn3EuJ4YoQnrsw'
  lat: 40.107751
  level: 6
  lon: -88.231532
  name:  'Graduate School of Library and Information Science'
- ap: 4598
  img: http://i.imgur.com/5j1qaiT.png
  lat: 40.203721
  level: '?'
  lon: -88.39221
  name:  'dd9c9d84f4934d84a0769ff14c381db2.16'
- ap: 4411
  img:  'http://lh4.ggpht.com/3gTAX6rKgNjLmBOYvAVTgSPQej5yRF_38uRllp9H4n5N6pvwWo5kDMDwlIkFVPPl30BXPSGAlZ9pO9B4DMk'
  lat: 40.116218
  level: 4
  lon: -88.242141
  name:  'Live Action Games'
- ap: 4111
  img:  'http://lh4.ggpht.com/H1kV6JSczzSbcCblAHg5ZOgITW1mBAz0_oLbqbzxBlijGTBn7TP6KwA6UI0AAGrCN4VF0DAF79Vcj6_2R4dsB8LRTq6tud6v'
  lat: 40.116164
  level: 2
  lon: -88.241661
  name:  'Zipcar-45 E. University Avenue'
- ap: 4411
  img:  'http://lh5.ggpht.com/DDClbLn6LNW1_Kr2O24_eIFuz6BfPSolc8s9i2SV9KvgoE8D_n6SY1mOzPFAUoLMe9HHKhD-azeRgoyYPNcaPw'
  lat: 40.115917
  level: 4
  lon: -88.243438
  name:  'Shay Memorial Plaque'
- ap: 4411
  img:  'http://lh6.ggpht.com/4K7T7_gGrfag_-Hep7ygH_rklKsjale4oo2CqJAFTpPB5EM4Dv8ZGyz7i_qUOuLnt16GWxDSJWCS8TZYyGY'
  lat: 40.115421
  level: 6
  lon: -88.243168
  name:  'Walnut Street Tea Co.'
- ap: 4336
  img:  'http://lh3.ggpht.com/-MRGQEVV5mNMzB4sb8JAsgVC56kTzYaFEf3mpRsfXAiO4KIrLw3LGFkt7Au97yDwY-AUSfghHcri53Zpmn-Z4Q'
  lat: 40.11621
  level: 4
  lon: -88.242535
  name:  'Inman Building Historic Plaque'
- ap: 4411
  img:  'http://lh6.ggpht.com/btym2_WGYuFNu2SNiR8qif7GXLMOPT7XpuHE7RPOipPC9Q5lEPfImKAzf2vm9RUe2rN0u3TePq4pM0IuZiLS'
  lat: 40.116436
  level: 4
  lon: -88.243459
  name:  'Champaign City Building'
- ap: 4411
  img:  'http://lh3.ggpht.com/8FqlniFErK7cq59awiT84u8KyV4FIRd5krZzfYa58zJToFps7whdBnriPqvO_kFKeLUE3SWbJhCOPuvUQzaGFA'
  lat: 40.100691
  level: 8
  lon: -88.251337
  name:  'In Loving Memory of Zeus'
- ap: 4411
  img:  'http://lh4.ggpht.com/wnCpWSqcq-cu9mV9rhwV8Tpt2zSmT5uur41SFaOm-8kSqciJtWQPacEqgSDjnzXhTChHQFdT7EKDU7UwX3Tn'
  lat: 40.1087
  level: 5
  lon: -88.222813
  name:  'Krannert Center Studio Theatre'
- ap: 4411
  img:  'http://lh6.ggpht.com/dIDmkL7jHZb1am2ptK9LrO6Ht_8jTKb3IOvGamBqIYzLXPgtEoPCV_9dMsqLxrgz8_MSq3UsEy9t49y_pqOd'
  lat: 40.125715
  level: 5
  lon: -88.2091
  name:  'Crystal Lake Park Aquatic Center'
- ap: 4411
  img:  'http://lh4.ggpht.com/KS4k0iDFceOcG_wEnQeqAeJpCkwjbjTItb2FUsyUJGsnhDizNqvrXmfee70SUhCcQ10_m1vv1vtcNRrFhIc'
  lat: 40.126039
  level: 5
  lon: -88.209117
  name:  'Water Sculpture'
- ap: 4411
  img: http://i.imgur.com/5j1qaiT.png
  lat: 40.205076
  level: '?'
  lon: -88.39379
  name:  '88b22f723d954699bdb089ff05d12bf6.16'
- ap: 4409
  img:  'http://lh3.ggpht.com/KxQsev6i7POmNh1IadCWwWQSMdCuLIYpPwIdenSlVtzum523D1R-1kfeTbuOGTkt_jDwn4jswCu1edkumm2-'
  lat: 40.110037
  level: 7
  lon: -88.23549
  name:  'Red Lion'
- ap: 3848
  img:  'http://lh4.ggpht.com/vKkSwERLa3zQO2UUIiYl1AEruAx1QTPcP4jSmPt89PG4AviJ1WhlVVH8qmqJ0aY2gqJmHcqdZFcM2pQconc'
  lat: 40.139375
  level: 4
  lon: -88.272793
  name:  'Salt And Light Ministries'
- ap: 3848
  img: http://i.imgur.com/5j1qaiT.png
  lat: 40.152792
  level: '?'
  lon: -88.253532
  name:  'Toalson Park'
- ap: 3848
  img:  'http://lh4.ggpht.com/lQtf71rwzXt5zHafbKPm8Czz3n2KwBWlEaNUh3-2JKrXTDueZ_JerHOPeSecqLaxLBWC09dTlPizrDMTafpT'
  lat: 40.105618
  level: 6
  lon: -88.230986
  name:  'Alpha Phi Sorority'
- ap: 3661
  img: http://i.imgur.com/5j1qaiT.png
  lat: 40.312242
  level: '?'
  lon: -88.201368
  name:  '2012 Employee Dedication Bench'
- ap: 3661
  img:  'http://lh4.ggpht.com/0pYkppjw5D-G0gCZ1pULK83NAqN9qsyzbBnG8K8YMyMekJwqUrZQDRpTqgqB3rrRD6zJezplE_wlFOTPLovb'
  lat: 40.127745
  level: 5
  lon: -88.287039
  name:  'Parkland College'
- ap: 3661
  img:  'http://lh5.ggpht.com/QruW49d2dc1uhQlK1BaZIeo6ruDNkqQfmvZz83eQ-1aC9ytGUcpFaHnKRTnXRc70F2EZ0-pVKGr9Slo0_9RfxA'
  lat: 40.139749
  level: 3
  lon: -88.273955
  name:  'Northside Church of Christ'
- ap: 3661
  img:  'http://lh5.ggpht.com/pSVHjk6puyYdv3ztHlpJGnbkZyGsGsirMnxkDhlt8UMko4AhtTQbrzwInBCu5lK4Ttf7furE5pNW2AZh8HuSZQ'
  lat: 40.138109
  level: 2
  lon: -88.270158
  name:  'Glory Center International Church'
- ap: 3661
  img:  'http://lh3.googleusercontent.com/3nkY0B9PDqzlWJ_EKh5GnTZ8z0U6X9-2dI5dapKA5Q3F4iKrE99AJZoy6NSvh2nU1WTG2hL70276yJjJ0G8'
  lat: 40.141598
  level: 6
  lon: -88.238817
  name:  'Red Shield Center'
- ap: 3661
  img:  'http://lh6.ggpht.com/71G0y8a-Y6DpLW3DWoGynP_3lfH8iG-Kjdw01gq-YTrrmx0T3udFLdjNDk9k0yQHDgdvvkWUHdZ6xo0EKLarCg'
  lat: 40.118593
  level: 2
  lon: -88.240416
  name:  'Champaign Rail Water Tower'
- ap: 3661
  img:  'http://lh4.ggpht.com/1viU2QjcAXgQcuyp6MBKY1751-1JGn5AfSHPcgvBGNOyXrKvvAXsCUrrW9_0w9LjaeyscKqh8v2rrMp3Gxoaeg'
  lat: 40.117134
  level: 3
  lon: -88.244337
  name:  'Downtown Flower Island'
- ap: 3661
  img:  'http://lh3.ggpht.com/lzCSS0_tjwUV7JQ2fgLI0e05IrzPxlVUs-6aEPOwUv67IanQJSTi71gkw0SGm8asmoE_r3Xoh048Fd9xRpE'
  lat: 40.099169
  level: 8
  lon: -88.251419
  name:  'Lyman Larson Memorial'
- ap: 3661
  img:  'http://lh4.ggpht.com/HEEvU2OlgWiV5huAu3cvNKaI-C8YKYTO3qB8WMTO7EbsjTO84KS6jLjbGCq7THZq6l63UiUKCSEqY2IADYns'
  lat: 40.091766
  level: 5
  lon: -88.250003
  name:  '"The Cranes" at Fox Corporate Center'
- ap: 3661
  img:  'http://lh4.ggpht.com/XlTZ26_29c4-74t23p1lgghqNfLI7aS3_kradmcl7vVQzV9jJRu78D1HdzJf-sWibnak644kxCBJDnA594PVaw'
  lat: 40.092849
  level: 6
  lon: -88.251586
  name:  'Boulware Trail'
- ap: 3661
  img:  'http://lh5.ggpht.com/OF0rdXnVnZe6syFsa4G9CE6iyvhfoYQN3QH9RESyB78MTKDC2NXYJuVd0TAnACMccmsKXhNcBH6qzWy9DPQ'
  lat: 40.105073
  level: 6
  lon: -88.231952
  name:  'University of Illinois Armory'
- ap: 3661
  img:  'http://lh4.ggpht.com/EsyXMnqVMX7wQ4YmoCFRiNljaJqaXrQvzyzzooqx2fPxCSkJMkdEssTbf618D8Qp9hh3E4Ud3hL1M3v-TsbO'
  lat: 40.104688
  level: 7
  lon: -88.230676
  name:  'Sousa Archives Center-Amer Music'
- ap: 3661
  img: http://i.imgur.com/5j1qaiT.png
  lat: 40.205206
  level: '?'
  lon: -88.393464
  name:  'ffb1c8830f184f8b9886fbf7c7604a37.12'
- ap: 3474
  img: http://i.imgur.com/5j1qaiT.png
  lat: 40.550486
  level: '?'
  lon: -88.060609
  name:  '0c60429ffcd645039beb5317456807b2.16'
- ap: 3474
  img: http://i.imgur.com/5j1qaiT.png
  lat: 40.336241
  level: '?'
  lon: -88.136271
  name:  'Brookhill Golf Course'
- ap: 3474
  img:  'http://lh5.ggpht.com/M86zCVcXjmwIC0SQgJ3q_heSiWsj4BJoAcO4SpBWLGzt7XQ3kJMk_1GdLAM_SOt_OkZnGrAEV9_g2KSQCguZ'
  lat: 40.133808
  level: 5
  lon: -88.284367
  name:  'Dodds Park Softball Complex'
- ap: 3474
  img:  'http://lh5.ggpht.com/tuo_ByFTbwLitFP5cBseOibqRxENxbCwOJ30dCnja5ijBI_qBv5vqNP7ZuZXnxhYM6ms_GbExZEwwKVUtwV2'
  lat: 40.093712
  level: 5
  lon: -88.281583
  name:  'Brownfield Dedication'
- ap: 3474
  img:  'http://lh6.ggpht.com/p2F3xw4xL4UdiMM9aSy628ISSglrvjPexpF3j340tMAP9MX07yh_sJv7kHVkeud8lyFf2ZwDohw3zsRS2PSd'
  lat: 40.093914
  level: 5
  lon: -88.281531
  name:  'Terry M. Warmbier Memorial'
- ap: 3474
  img:  'http://lh6.ggpht.com/Jz3ahY5LQ13wKWLY9SEvexiinJa3GeO1eB_FynplikRpa77swLST6cUAJjPpqKDSq2KU4Dcyui-QBstz_Z3k'
  lat: 40.094624
  level: 6
  lon: -88.282953
  name:  'Greenbelt 2'
- ap: 3474
  img:  'http://lh5.ggpht.com/nWEtxuKQdy0teBBue1DYmG7P3SF5-3A6zlB7GwVHBWlolAZYGq6Br78lWcF9ltFy-KeSlozXie2RmU6JfCUX'
  lat: 40.142673
  level: 5
  lon: -88.244603
  name:  'Italian Statue'
- ap: 3474
  img: http://i.imgur.com/5j1qaiT.png
  lat: 40.152192
  level: '?'
  lon: -88.252279
  name:  'Toalson Park South Entrance'
- ap: 3474
  img: http://i.imgur.com/5j1qaiT.png
  lat: 40.152342
  level: '?'
  lon: -88.252345
  name:  'Toalson Park Basketball Hoop'
- ap: 3474
  img:  'http://lh6.ggpht.com/XsUl74M1oxj6ptAvGEBOMH2wivRhxBNns62UJSGcPiQkuJIgPrmUYxMpSZZUfXRMMjrwoxlFK_DbAM78UrOh'
  lat: 40.113499
  level: 6
  lon: -88.244374
  name:  'Shatterglass Studios Mural'
- ap: 3474
  img:  'http://lh4.ggpht.com/9dqmZPc9OI1ON-iEnfXAxSAMX2M07pEgKUsb47vLrTrW2BW61siFLquk1fXbldWXGPg69XGdSG4wKPGS5rI'
  lat: 40.113521
  level: 6
  lon: -88.244122
  name:  'Artistic Graffiti at MCS'
- ap: 3174
  img:  'http://lh4.ggpht.com/xS51--rXA9M_IHpXWgFQxKZU-YbD-1zk-nug6k7RyKl8rYeam_YFwMmLNWRRHHzI-rOTGyhTJQQ314WudSQJ'
  lat: 40.117132
  level: 1
  lon: -88.243009
  name:  'Fountain in the Alley'
- ap: 3099
  img:  'http://lh3.googleusercontent.com/XXeIfloK29NB3kOQNB_Avx6Aurs9P8M5C2xARiAnTdW_JxewwfJs_p2A2u0vup08ZE6pnhatzC1VhSFwSZSA'
  lat: 40.117287
  level: 2
  lon: -88.242984
  name:  'Dandelion Mural'
- ap: 3474
  img:  'http://lh4.ggpht.com/W2chhQwPqSJEkl57NVoIL-OE4KFvJfp7Bsrrxza1apCYltcT3npz95LJxqHxvT9ZZu7wxF2gQy-5bpKal2p2'
  lat: 40.115838
  level: 6
  lon: -88.241338
  name:  'Illinois Terminal'
- ap: 3474
  img:  'http://lh3.ggpht.com/LunaMtSKD9yiLQClolDY-Iqh0ENm9AgJdL4D1QxGs0j6TXPgqxDZea35x5ilAfeI5_0TGh5x1q1EqRsJsLFi'
  lat: 40.114111
  level: 6
  lon: -88.243697
  name:  'Champaign Surplus'
- ap: 3174
  img:  'http://lh3.ggpht.com/CwgYIhVaivHHg_U6yqu5KSGhSh9ipRBDu7G192KiQfrnXc7C8uh7UOh6MP91vhZJ3LZdiTaFwpvFukvIaj6J'
  lat: 40.117445
  level: 2
  lon: -88.243409
  name:  'From Swords to Plowshares'
- ap: 3474
  img:  'http://lh6.ggpht.com/HvC073U-qgv-Zdd0zHS5_UQsybUORqZiuhnRY5V1bWxlRPwBG9564LEVab8tUebtP8OzNkBVp3K39WZkahjw'
  lat: 40.118119
  level: 7
  lon: -88.24714
  name:  'Police and Firefighters Memorial'
- ap: 3249
  img:  'http://lh3.ggpht.com/rm0mJKw5ksUEH6_YQLi-f3uo56Wv-4h1P-Q_Ws61holRtnLG9Qt0NObbSBzDxPm3tvIhWgzHLvftIMBC_5dZ'
  lat: 40.118435
  level: 3
  lon: -88.247677
  name:  'Burnham Athenaeum'
- ap: 3249
  img:  'http://lh6.ggpht.com/ZB8W5NNUt_ghaLF4gE_7_e_uguOocj1k6qCQvq2eAsayVQyZFUsUA3H5SFkHOwg20GluChbe2MSO_xWoB0bk8g'
  lat: 40.11813
  level: 4
  lon: -88.247413
  name:  'West Side Park'
- ap: 3474
  img:  'http://lh3.ggpht.com/ugJXpaIWZ-wI1vpderJmQjM8r0T5_Li2j4hvvsu4fRM9k3MeBpETqj2LFNd1pEkcfH0I9bgZh--5g1AEJKkq'
  lat: 40.092745
  level: 6
  lon: -88.251235
  name:  'William C Fox Honorary Plaque'
- ap: 3099
  img:  'http://lh4.ggpht.com/QK-MghSPteFj84zczypfRI354OtF0Ptf0u9QhOj1inCSQluqoDym0gzN3kOOvcmZUZ2CTxbjRprUJ0SB3lpC'
  lat: 40.107975
  level: 2
  lon: -88.223153
  name:  'Krannert Amphitheater'
- ap: 3474
  img:  'http://lh5.ggpht.com/dgQfoxxVeHT5ODqLiUYHV45qvkC_BMS0kIFRqvHvE2GO0TduZ0-XzhW8RE80LtPDK0Ay5xwA6PtjM7G3C9U8'
  lat: 40.108947
  level: 7
  lon: -88.232251
  name:  'McKinley Church'
- ap: 3474
  img:  'http://lh4.ggpht.com/9hzMj8KV-HraIucojjHAEgyMZsJAR9TWvNS-QSBB5LTYBOTwwqfTQySJ_Sz88eP3eyFWFYhx5qDVY93t8fk'
  lat: 40.108032
  level: 5
  lon: -88.225702
  name:  'Centennial Court'
- ap: 3474
  img:  'http://lh4.ggpht.com/7U0YXCB_DIhnqPJyjyLpNn6kg4lU8HvKL87ddBKWq1sptvVLvCEiCuNEnghQtqDGSN2OBNcOUK9nZcYjY4Vr'
  lat: 40.107887
  level: 5
  lon: -88.225998
  name:  'Lifesaving Antibiotic Plaque'
- ap: 3474
  img:  'http://lh5.ggpht.com/1fPvqpqXG5PDCkmegoWb9Tv9N5_MZh9XjmZpbyNEs5yPDsCscbrPB1cO_Pf8GT35HYrTF01FZ6s5VPIpjJ_20A'
  lat: 40.107098
  level: 6
  lon: -88.228984
  name:  'Saint Andrew''s Church'
- ap: 3474
  img:  'http://lh5.ggpht.com/Lup2et0i5h8oHqtBffIdoyX5uclC2MBn9ZnnKnYPr4RIFSflf9bi78zBHK7QqycA0qgEev9qOk0zU-1o1hg'
  lat: 40.108451
  level: 6
  lon: -88.228733
  name:  'The Centennial Colophon'
- ap: 3474
  img:  'http://lh4.ggpht.com/MhW7sdKYdOt__Gmefy7CMOI4_Q8_dqGGb_qolwk4Uf7b_fpr8t5QM5QiCFUOe_ZpsgAfLhPSU_lbVTX5DIEX'
  lat: 40.125951
  level: 5
  lon: -88.209474
  name:  'Give Creeks A Chance Street Art'
- ap: 3474
  img:  'http://lh5.ggpht.com/3mE32dJLH9WsEctr1UHzE0G5QN_4V0vcLCldzmPU_WRufBLcaKzAgprPRfGQDOytzwAYwWfLfWxqWYl7hMqA'
  lat: 40.125757
  level: 5
  lon: -88.20788
  name:  'Nature Center / Family Aquatic Center'
- ap: 3474
  img:  'http://lh3.googleusercontent.com/O0A6xsiat2O0IjuyckSS9k1cq1UOF3Cie-GIi1L5d58akNeRMYcb7agKQErL26RwfdgTl-W4anRPPhu-lKpy'
  lat: 40.128515
  level: 5
  lon: -88.212038
  name:  'Busey Woods Trail - A Helping Hand'
- ap: 3474
  img: http://i.imgur.com/5j1qaiT.png
  lat: 40.203973
  level: '?'
  lon: -88.393369
  name:  'Mabery Gelvin Botanical Garden'
- ap: 3285
  img: http://i.imgur.com/5j1qaiT.png
  lat: 42.401374
  level: '?'
  lon: -86.288005
  name:  '9c168d55307d46deafd3684ceac79063.16'
- ap: 3285
  img:  'http://lh4.ggpht.com/g5bf6n8J6ugyF8pztcWZWnGyNmzIDQhskzXCDf2dJbuiqbub_xApqggrQrqn6WCy2yYmLnGrcmuQkqeQKx2IwA'
  lat: 40.126769
  level: 5
  lon: -88.215041
  name:  'Busey Woods Swampland Overlook'
- ap: 3098
  img:  'http://lh3.ggpht.com/161K1avC8teYs8PtJMANd0cBrff72XYRYh2Gjg2_KhkEh6_F6MLd3cfHIXwK8zegd65ISEVxmEoD5THpeY-Q'
  lat: 40.112553
  level: 6
  lon: -88.236253
  name:  'Scott Park North Entrance'
- ap: 2911
  img:  'http://lh4.ggpht.com/AC0e3VVFenyh_tf4lpcee6alCTlto3O4cqychnUlTFCiLaMi6RUVh6BAC1-pjf7f7foTLFALejQiRxf1kKtS'
  lat: 40.104417
  level: 7
  lon: -88.24332
  name:  'Wayland Smith Estate Garden'
- ap: 2911
  img:  'http://lh5.ggpht.com/xcqe13f85fuXohGUUBZkNrUU1PunkcZ6xMNmHpAp0GJBtydVqCCGj5MqP3Uax4M7Qq4JzDFGqICFrFb6PNEXRw'
  lat: 40.08932
  level: 5
  lon: -88.251883
  name:  'Boulware Trail'
- ap: 2724
  img: http://i.imgur.com/5j1qaiT.png
  lat: 40.205583
  level: '?'
  lon: -88.394066
  name:  'Champaign Countys Lincoln'
- ap: 2724
  img:  'http://lh4.ggpht.com/yi9OPnLGsLTvtOMNuOUfed6edO9tB6h0QmSHJaKKaiMyEXC8Aj2hz9hIvgh8C2DY76mVgNHw4S0gsYpkPpkt'
  lat: 40.148692
  level: 7
  lon: -88.248724
  name:  'Fountain Town Center'
- ap: 2724
  img:  'http://lh5.ggpht.com/WgDPQ47lNn2nlvNDPgwM_c-1MpVvxdVZtjZmFtixtr3rIi91xqYhgtSbyJGqRFnSXCUHy_RjABgEj2LSzOs'
  lat: 40.113343
  level: 4
  lon: -88.290525
  name:  'Fish Chimes at Kaufman Lake'
- ap: 2724
  img:  'http://lh3.ggpht.com/jr89yrsC941ycnfQPQzYkTPCedQ8Suo8eiPCcNLvq0n0fw48_pywxGTqTsKaVh_KXAiza3ke5pjMejqiaD0'
  lat: 40.111568
  level: 6
  lon: -88.267345
  name:  'Illinois American Water Tower'
- ap: 2724
  img:  'http://lh4.ggpht.com/8Yhp3k9rCZps2AgalC_ip3F4DfS_sWuoDsILaXrP4RmZLhthvaiibjiEOn68zQ_QZyQu1Jyj8yb2lmNUNmrR'
  lat: 40.101186
  level: 5
  lon: -88.282524
  name:  'Rotary Shelter'
- ap: 2724
  img:  'http://lh5.ggpht.com/vYay8RKsCV_BP_MkeFm7se0VZoYthm-1pThiATAADleBlTsPowobgZyUoU7DUto6p5cpg9adpCcTgNR6iop0Jw'
  lat: 40.120121
  level: 7
  lon: -88.251967
  name:  'Sesquicentennial Neighborhood Sign'
- ap: 2724
  img:  'http://lh6.ggpht.com/q48Oqk2mm3dXQ2ppK-aYGXKjIiTAOEZfrFkiLK9LXRz2uN9hSKihKeCwfg33q1Z2zMTIMjqJRjPA1U_V3pbR6Q'
  lat: 40.104417
  level: 6
  lon: -88.231962
  name:  '1926 Sigil'
- ap: 2724
  img:  'http://lh6.ggpht.com/NMgUdPOdhvhvKZh7ugwXgybshZBZ2mkaEWMNKYdFPX6cfIYENSCqE9YpAXSNVuq_9VVWXJB-ShCBAPfF2Yvs'
  lat: 40.102513
  level: 6
  lon: -88.243679
  name:  'Robert Hosier Memorial Garden'
- ap: 2649
  img:  'http://lh4.ggpht.com/maBwz4G9LJZ5aVuX_WF1Z73xSbqoFsm3l6oyrNQ16LkJMvaEbFa-amdfCpKDVDe7NzjReNu8IGnn7BAI8yef'
  lat: 40.103534
  level: 6
  lon: -88.243478
  name:  'McCollum Park'
- ap: 2724
  img:  'http://lh5.ggpht.com/oCw3ZC6UKF3aiK6dkbz72dhzUsJNhOmfVjVsXJET_YP5e1p53pLTa8Dep24gLqeY9FghWE0kaAB64vvn7nq0'
  lat: 40.105008
  level: 7
  lon: -88.243265
  name:  'McCollum Park Peacock'
- ap: 2724
  img:  'http://lh6.ggpht.com/iVHoGDIqnjdRupoPTpZLPtrzaCpEGW6HV4QHZ5WW185rmkrOxvl-C7uIN_gNZnCrm-djktoPC1J-9vjBZfCb1w'
  lat: 40.115718
  level: 5
  lon: -88.228521
  name:  'Red Lines Sculpture'
- ap: 2724
  img:  'http://lh6.ggpht.com/Nv0tMktEkkuoGtg1QEPS1N2nTcBPg8ipu31i72XPDTGQ4HQI5oL58Ig8kofXUH_aCC2aaJ-NylWKPkC3hIBS'
  lat: 40.116218
  level: 5
  lon: -88.228757
  name:  'The Presidents'' Walk'
- ap: 2499
  img:  'http://lh4.ggpht.com/6x6YWyLyFdOTmCy0et8JbuSjZ8RxOPY-97_QeaHjaR6waOf9rUQI-F0pplNydCXGp6NpHDNRXLvgoyoHb2eV'
  lat: 40.110912
  level: 3
  lon: -88.223059
  name:  'UIUC Cyclotron "D''s" '
- ap: 2724
  img:  'http://lh5.ggpht.com/sNSUXW7rqg-Qb6dc2gyeAXcXM3VjBpmyYlgK8btL73fYOjsS67hh6b6LfmCRE6_ItufIvb_4YKG10bc3E1am'
  lat: 40.110969
  level: 6
  lon: -88.221953
  name:  'Arthur Hill Daniels Memorial'
- ap: 2724
  img:  'http://lh4.ggpht.com/2tHD_AHYQu0kWuwLX2HMYWBG4txVkuWsBEfzWLL39npWp8kMSHiUKxSJM1E7yhimuMVUJ-RIlSSKsgjETvtr'
  lat: 40.110524
  level: 7
  lon: -88.228706
  name:  'Leo Roy Tehon Memorial'
- ap: 2537
  img: http://i.imgur.com/5j1qaiT.png
  lat: 40.203922
  level: '?'
  lon: -88.387753
  name:  'Covered Bridge'
- ap: 2537
  img: http://i.imgur.com/5j1qaiT.png
  lat: 40.457257
  level: '?'
  lon: -88.372597
  name:  'ebaa4a5573f7449399263066d9248473.16'
- ap: 2537
  img: http://i.imgur.com/5j1qaiT.png
  lat: 41.890714
  level: '?'
  lon: -87.610524
  name:  '78cd733e94584d94ac0e1cd4d0a20cc4.16'
- ap: 2537
  img: http://i.imgur.com/5j1qaiT.png
  lat: 41.89196
  level: '?'
  lon: -87.609818
  name:  '9751404135d14a20835126ddf4d017dc.16'
- ap: 2537
  img: http://i.imgur.com/5j1qaiT.png
  lat: 40.172593
  level: '?'
  lon: -88.239993
  name:  'Faith Baptist Church'
- ap: 2537
  img: http://i.imgur.com/5j1qaiT.png
  lat: 40.286148
  level: '?'
  lon: -88.126397
  name:  'b7462fe79c874282b8ca4240ac1d6f55.16'
- ap: 2537
  img: http://i.imgur.com/5j1qaiT.png
  lat: 41.891383
  level: '?'
  lon: -87.610138
  name:  '8490a15bbc6d40e68d80c7d9626f193c.16'
- ap: 2537
  img: http://i.imgur.com/5j1qaiT.png
  lat: 41.891065
  level: '?'
  lon: -87.61055
  name:  '5f5a1a66edbd45a5bcdb4032a5f5d782.12'
- ap: 2537
  img: http://i.imgur.com/5j1qaiT.png
  lat: 40.196926
  level: '?'
  lon: -88.366258
  name:  'Filippos Pizza and Italian Food'
- ap: 2537
  img: http://i.imgur.com/5j1qaiT.png
  lat: 40.115972
  level: '?'
  lon: -88.016084
  name:  'St. Joe Park Swing'
- ap: 2537
  img: http://i.imgur.com/5j1qaiT.png
  lat: 41.892269
  level: '?'
  lon: -87.609873
  name:  '93a1b13c02d04db99ebaf46f118bef83.16'
- ap: 2537
  img:  'http://lh3.ggpht.com/rgh_2qJQUPC1OrARUkiQqPKoNReiqZYOimm5Nszb77pDh72OszuyiJBKn-vDxHUuyjO2XTeKU9GBHc3oHIYr'
  lat: 40.115283
  level: 5
  lon: -88.287899
  name:  'Greenbelt Bikeway'
- ap: 2537
  img:  'http://lh5.ggpht.com/7MD3uqic9NvHKG2s5NBkAL6kdsBT10BzFJ6jTSaOfZS8mbyTlRDRYtizrxfH8ZvyqpRWXJHgmC5bk9imHqQf'
  lat: 40.114042
  level: 5
  lon: -88.289889
  name:  'Optimist Club Dedication 1991'
- ap: 2537
  img:  'http://lh5.ggpht.com/ulBje3DZHcOGkPDTXihNL1tamRAm_GO1CREW8fA5fV0Znq1eF2J1hnbSZh35emEA1h9cL1qTj9FqGtb8VywgXQ'
  lat: 40.13765
  level: 6
  lon: -88.273074
  name:  'Garden Hills Park'
- ap: 2537
  img:  'http://lh3.ggpht.com/tXuCgd1tvCtlonW_e1jLC_5DH6g4Qh6zIUKhJeoBZuLvyB0ql69PlymRU3Ywf5lq_8PFYNylEKOiC_qJnnzJpg'
  lat: 40.138006
  level: 6
  lon: -88.272375
  name:  'Jericho Missionary Baptist Church'
- ap: 2537
  img:  'http://lh5.ggpht.com/BoAN9OSCH5u7G1sestzZaXjjik82i-SteF6-r5KTTyl530q9H5G3ibjJdqpGGY-nL8MypRXn2twwvn_y5nMmug'
  lat: 40.133159
  level: 6
  lon: -88.28778
  name:  'Campus Solar System - Saturn'
- ap: 2537
  img:  'http://lh3.ggpht.com/NgusMNa_MQJauBXm1lCWXnmzNqo5-TB-ihUlPa_vaI83WESAp8ChhEVR7KuBr_Na2-hzlLU7AB_STTq1gu7cwQ'
  lat: 40.112585
  level: 6
  lon: -88.271575
  name:  'Bobo''s Barbecue'
- ap: 2537
  img:  'http://lh3.ggpht.com/LI2lDP17lvIghR6Sltj6ECmzcCBHl8dTLBG7BVkPOqTkM9h8PGuXRp7mS8x3bxL-pbQzjV2HyP1y8XWbUzi4'
  lat: 40.100762
  level: 5
  lon: -88.282846
  name:  'Sholem Aquatic Center '
- ap: 2387
  img:  'http://lh5.ggpht.com/_quRYtw1nQsDlSn7VjdJ72LlgiwnF7tlWU9s2H40vdM6ILPMiOgmzt_fUXz7ocFI5MT7YWs-smZ9a6H7XR0'
  lat: 40.101822
  level: 1
  lon: -88.282612
  name:  'Winifred Nielubowski Memorial Plaque'
- ap: 2387
  img:  'http://lh5.ggpht.com/j6Gqd19ib1ziWv7UKoq4_fMXeXtxxdV85TchQ49_mIgeJYs7oUWOj860aB2Ok8NGNY5wNfMqDn7zeSKOgpxEzQ'
  lat: 40.108781
  level: 5
  lon: -88.271694
  name:  'Champaign Church of Christ'
- ap: 2537
  img:  'http://lh6.ggpht.com/WA_L9RXB_ZwCyxpgQ7Lyjp1-4xTl5O-BQohOBQcoEMnP7-wKp--MGUdnY_DPuCGZ78-x0LtEWc8FT2n9QMPS'
  lat: 40.148879
  level: 5
  lon: -88.258423
  name:  'War Veteran Memorial'
- ap: 2537
  img:  'http://lh6.ggpht.com/wk0l8Qe7j_Ph_LhyPvdNO6g8nwrxpswodrbNuOzLa3K1QNBrIVidi9iztmDXu3HtCWo5TpqDDjPsEbSl2aWUKg'
  lat: 40.144554
  level: 6
  lon: -88.248689
  name:  'Town Center Park Champaign Park District'
- ap: 2537
  img:  'http://lh5.ggpht.com/UTu16bRRNKyJj2cFsU4mRCMkGJbH7YCAm0gQdiJKjnnZtB00kMEb_-Lhf6AnAXRia4MH6FBrWQGkBCrMUz8'
  lat: 40.120135
  level: 7
  lon: -88.253121
  name:  'Rain Garden'
- ap: 2537
  img:  'http://lh3.ggpht.com/psgrRGIt786cUSq8EV7SBSDsS-aptrUKjaCXWv864H7OaJL2K71qJpxU9Iw-acwFMi52ZN2qpEmicGmlmhJq'
  lat: 40.121061
  level: 7
  lon: -88.250227
  name:  'Curtis F. Columbia Legacy Plaque'
- ap: 2537
  img:  'http://lh6.ggpht.com/D-AymiJdf5gt94o_wgUJbOD9Fpl4V7PijJOjkztpP0_J2k82i1TBLDAaqcH_SUTUFe9VlllfQCsXFg_J0uAPeA'
  lat: 40.11569
  level: 4
  lon: -88.243433
  name:  'Christ Community Church'
- ap: 2537
  img:  'http://lh4.ggpht.com/mrFIlt7StuloTop3ci5DRg10i06ivamSn69PgqYPZfkV23dOzf-DhDdDUjeOOzy1ILR9xOOdLX_NBsMOH9FO'
  lat: 40.124377
  level: 2
  lon: -88.25297
  name:  'Spalding Park'
- ap: 2537
  img:  'http://lh4.ggpht.com/mnyMwxXghZOmxdJw2eJk5U9A5sfO_QLi0eKc2knF3RS3bJhiIa0N7N75KIzjEehKD3ChMFgaOHVRltiOVAw'
  lat: 40.125074
  level: 1
  lon: -88.251776
  name:  'Spalding Recreation Center'
- ap: 2537
  img:  'http://lh4.ggpht.com/uAYfykn0e2h2UqP-anbYfkJNa38P0L1WY8FpF-CwRCPklg5wL1xYFkpGOCMt7SJ37qO8PGVE42nYX9Ba_-jG'
  lat: 40.105025
  level: 5
  lon: -88.243919
  name:  'Mural on Good Fellas'
- ap: 2537
  img:  'http://lh3.ggpht.com/swF7asGHDD1L9hslewSBg2z-tocpd_HXkIYuOmz739SWxCj8KBqf-kcOPOFPoE8pLXKDxR6Z8jAJ8Kx7Fbnc'
  lat: 40.089334
  level: 5
  lon: -88.253652
  name:  'Mattis Park'
- ap: 2162
  img:  'http://lh4.ggpht.com/ETgOsKlMmsv5wRT-aM33VVVEgFvp3ZoMxqXmYKxROpFAYnfPqjWhltqYBG7ajEuM8XKf3mVeSaF7r9grm2t8'
  lat: 40.113448
  level: 2
  lon: -88.237188
  name:  'Boneyard Creek Second Street  Basin'
- ap: 2537
  img:  'http://lh3.googleusercontent.com/0hydzoUNO41CcF2qZhlhMbaEgMVFjql3_RSDgrJLVIToqRsqh2aBcAoXsrxAlwXqgTcB1R71HZiHrjq1KdnXgA'
  lat: 40.11243
  level: 7
  lon: -88.235749
  name:  'Fountain at Scott Park'
- ap: 2537
  img:  'http://lh3.googleusercontent.com/78s4UE5PKzAAG8LQc8bJPPLK30nagQnB2-jzX2y9vVVAjUMejMsBGSAKck17bjgbH1Lndna45c3l7i6tR3A4'
  lat: 40.112908
  level: 4
  lon: -88.237287
  name:  'Stone Arch Bridge'
- ap: 2537
  img:  'http://lh3.ggpht.com/u7K5kVnPCD0MW4066CbBkbej_6bXnyhhEtj7aji1L8gF44dXAr_O3wE-MNw7-E96WUxdYILyIp1sw2IeBNrJXw'
  lat: 40.1179
  level: 5
  lon: -88.229372
  name:  'Wagner Hall'
- ap: 2537
  img:  'http://lh6.ggpht.com/o2VurlR2tYmjBqeWvy5vP3SJrV3BzcB4ykC1ZJswZX-Ayk5UGKvyekuWJPOzxgUest3mjDDMXCaxmttCN8Qw'
  lat: 40.117523
  level: 5
  lon: -88.229504
  name:  'St. Mary''s Catholic Church'
- ap: 2537
  img:  'http://lh6.ggpht.com/c2I39IJvSBKmCLonmhP_RN1vLEpYY1recBXFm8xpGHxES4bAN2kvAcda8ZzvT75uq0yWQCv7N_dzP6ce5-Tu'
  lat: 40.108043
  level: 3
  lon: -88.22469
  name:  'Building of Molecular and Cellular Biology Sculpture'
- ap: 2537
  img:  'http://lh5.ggpht.com/2PB1u3cNuASfw9D_MIUzI1JvNofebK7zsuGqKoUApr-nUWYZ8y5CzxH6g7CdcY7ShBaVGrBrurkbwrdUPD7JBk55TH0Ouao5b_g2jUI1saBNUE8'
  lat: 40.106744
  level: 4
  lon: -88.225347
  name:  'The Red Herring Vegetarian'
- ap: 2537
  img:  'http://lh4.ggpht.com/q2L_InMJy4JZq79dX9LLf9XauoaXGOLl7SWvVyD9F_jIgyqpn7SsqHfY9EMYq1SLteTpj0cQDZN4f9x0IuvV5w'
  lat: 40.107273
  level: 5
  lon: -88.222942
  name:  'Tryon Festival Theater'
- ap: 2537
  img:  'http://lh6.ggpht.com/cYQLNtCsiRGXd_y7-ZdI4jGlNRpC4oiy2Z7UT7etDH3FBvBRQDtOW_rY0NBvKLJMnTw_EXH75NDGMcI6UkeV'
  lat: 40.105618
  level: 6
  lon: -88.229005
  name:  'The Chapel of St. John the Divine'
- ap: 2537
  img:  'http://lh4.ggpht.com/mHAXKPtOyg_DWRs5A_0yhGeDsfU4f4o3xJvzziri7o3ksPPKtMAHUkUBOb0JJ78gArdP5Q6O-UiXNDG3RHaIYQ'
  lat: 40.109339
  level: 6
  lon: -88.234149
  name:  'Alpha Delta Phi Fraternity House'
- ap: 2237
  img:  'http://lh3.ggpht.com/WZ2x7xVM-rICLElKme5elfnFzWATxKyhh2ur0_-2QrpcSIc-HAYOqlwsp3cewAHAN0W751RblRvG3TzjraCj'
  lat: 40.110991
  level: 3
  lon: -88.223333
  name:  'Loomis Laboratory Jacob''s Ladder Device'
- ap: 2537
  img:  'http://lh6.ggpht.com/jhMQ5IGo-EB8MiVSEIUKmHbHwagHnJzv5RKZvsbHLes_88gz9Kesj98eZWV29mufV0LSUVjs53V5hMFQOG2Q'
  lat: 40.11067
  level: 5
  lon: -88.220974
  name:  'Astronomy Building'
- ap: 2537
  img:  'http://lh6.ggpht.com/MzDfG6eMMwVr56zIpVxRJKU2aoUq-95CLeBhoiEQQKzpC2zulq5jFDLv1IK0JcRy5Q0PhRAreZ1p2ElsdnNu'
  lat: 40.108048
  level: 6
  lon: -88.226279
  name:  'Nuclear Magnetic Resonance II Plaque'
- ap: 2537
  img:  'http://lh6.ggpht.com/WtqWBwqpYTSw3g9ru5NwcFn5iK5STxWgy2kv4OUTWqwtzx76-9Msz0eqoiw0qpEYE1U4zdt9rzzNZMDNagNg'
  lat: 40.107943
  level: 6
  lon: -88.226751
  name:  'Class Of 1917 Plaque'
- ap: 2537
  img:  'http://lh3.googleusercontent.com/DJEd6b3-MwXXA5oX_rKCuAtk2dlQ1yS2p9nG8oDmc86DmbzFvhKsP-KR9nKAzn84UUf_K5LjjTMgrt7AjCoU'
  lat: 40.110853
  level: 6
  lon: -88.238339
  name:  'Boneyard Greenway'
- ap: 2537
  img:  'http://lh5.ggpht.com/Z2EWM4D6YQHuqnLwtuPBawyQBZxTzVe9E17MKc8jOZkO0ZzkuD5zSQslY2iuXkkUnztPteUeOSHrSTz3voHC'
  lat: 40.111166
  level: 5
  lon: -88.228747
  name:  'Boneyard Creek Mural'
- ap: 2537
  img:  'http://lh5.ggpht.com/Tn5ARN-X6VTc2q6atZ2WYq3c2g3gbSGXu6_vXf1MDwHfLpdTtnQ-CilBAVGvL6R-SHhq3fJ4WZI-yiJKmIId'
  lat: 40.110398
  level: 7
  lon: -88.235143
  name:  'US Post Office, E Green St, Champaign'
- ap: 2537
  img:  'http://lh4.ggpht.com/d3UqrcK5M1wuOe19dIaBUOkrXF4C9IxhOWfxqzM4zIHkGsUIRb1mckNapOMRkkCtVIe0rzJumb1OVDVc1_Y'
  lat: 40.108055
  level: 7
  lon: -88.233688
  name:  'University Baptist Church'
- ap: 2537
  img:  'http://lh6.ggpht.com/C7ThuP5fwrDTu5cMDpoeGmRjotNh6eUnPf3ksvSsUj5NkHZ0yKbIUnF8cSikhX-I_7O42CTwqjhLq9z3jkIL'
  lat: 40.111844
  level: 6
  lon: -88.228609
  name:  'Talbot Labs '
- ap: 2537
  img:  'http://lh3.ggpht.com/nYd-393_D14GP4fiHeIzBxBwiribibe3KkVkqwo0A2KaBz3imkWBgyq_wiisXL0-RLbEESu9vTa02HbR5KcMQw'
  lat: 40.092652
  level: 5
  lon: -88.240341
  name:  'Buffalo Billiam'
- ap: 2537
  img:  'http://lh3.ggpht.com/xx2cD47rj0xUKO7q4YpTX_BdojpMt5E_TmbeJ4zRwvw3dwaQwY4I6B54OreMj0zqdsGgI15rgM3br0h_e5B4'
  lat: 40.09265
  level: 6
  lon: -88.240033
  name:  'Illinois Natural History Survey'
- ap: 2537
  img:  'http://lh4.ggpht.com/Hh8nntyxb361BGSJYy1ZxuMtkf5y1GXg3rEVqwI-1uwEH4MdL3b4JBnHLsxsMX1rCbbIWWVPDeDEsK6nvnyBGQ'
  lat: 40.124947
  level: 5
  lon: -88.210509
  name:  'Trail Marker in Busey Woods'
- ap: 2537
  img:  'http://lh6.ggpht.com/B4G90nKtVQc7jPOxaA1XcAIKA2UJlU15MIPZLitQmNBNAtfIc9qCPpe75YFHYaZN3YUpU6b4CNMOPsBrg1Q'
  lat: 40.100489
  level: 6
  lon: -88.218903
  name:  'Farmhouse Illinois Chapter'
- ap: 2537
  img:  'http://lh3.ggpht.com/gSjoDo9KYu-lgQFkD5uUnj4HXGc1BOihKfh-rNeZu_Q3hHyEkaBoalqYiV46QcvH9y4o8cPkHP_cmo_LxCyo4Q'
  lat: 40.10214
  level: 8
  lon: -88.218932
  name:  'Twin City Bible Church'
- ap: 2537
  img:  'http://lh3.ggpht.com/sEtB-WtZgmk9Bt0i07yNcTAXMhYB5KL6O1iQVnxq2V6mW6r89EY67NajUUF9c87CmLtzpwLsF_X2dYEcsDF4wA'
  lat: 40.112935
  level: 5
  lon: -88.220489
  name:  'The HUB Campus Church'
- ap: 2537
  img:  'http://lh6.ggpht.com/dmdoQn_snqIn6BdQ3XJFlx9FymfRalBxsT7fXXRSopbRaxiMoWzdC-LZBD-OymkgnPuGleuDWaQ_Ou_cqX0y'
  lat: 40.112912
  level: 5
  lon: -88.220206
  name:  'Peace Garden'
- ap: 2537
  img: http://i.imgur.com/5j1qaiT.png
  lat: 40.203562
  level: '?'
  lon: -88.395264
  name:  'Blue Star Memorial By-Way'
