- ap: 13407
  img:  'http://lh5.ggpht.com/HhVreJipNvxPRVFpmsh2BPo9PcpPO2Q2l3jCpDjIKgfKGycoTNPXR4DKiYccBXW4X-4dJf_vV0ESsWAWHcChsg'
  lat: 40.100936
  level: 7
  lon: -88.250855
  name:  'Donald F. Bresnan Memorial'
- ap: 10968
  img:  'http://lh4.ggpht.com/2tHD_AHYQu0kWuwLX2HMYWBG4txVkuWsBEfzWLL39npWp8kMSHiUKxSJM1E7yhimuMVUJ-RIlSSKsgjETvtr'
  lat: 40.110524
  level: 7
  lon: -88.228706
  name:  'Leo Roy Tehon Memorial'
- ap: 10218
  img:  'http://lh6.ggpht.com/yYW6Egg1lWn6UqqLzlgqwCQhtbuxiZSW4TmvI1XBPs33OTTJ0oh51XZXOIILxGI2juoO-E_YfG5UHmeb34rSOw'
  lat: 40.109165
  level: 6
  lon: -88.230269
  name:  'John Street Plaque'
- ap: 9846
  img:  'http://lh5.ggpht.com/4DJAFPeZ_w65Km7VDnsbOqouQaeBuPuxA0KHPQToT_B6o1hBxzdu3kn89UhHgv22Ygj52Fx9QqcbzOytuw'
  lat: 40.100078
  level: 7
  lon: -88.250683
  name:  'Brian Clark Memorial Plaque'
- ap: 9657
  img:  'http://lh3.ggpht.com/LR76HrJqriPFUoc2XSs7jb2SotnStZv20kI7rgUx8B5HqhmetnTW4MA1tCp1ws4g5gw0sf9g7M3Lwq4VwfpD'
  lat: 40.111687
  level: 5
  lon: -88.225353
  name:  'Transportation Building - University Of Illinois'
- ap: 9657
  img:  'http://lh5.ggpht.com/dEeT4acpLu-WQFlZWd3psap5qAqqPTSVzm8Qt1QtpqtwZ0j1V9eKFcmpgN9K_x1PL4XVchuevw25rxHekz3tvQ'
  lat: 40.111968
  level: 4
  lon: -88.226793
  name:  'Bardeen Quad Structure'
- ap: 8909
  img:  'http://lh4.ggpht.com/4LxsGZZMk3DnpJXUvqzrL54CHSP5TDXjUnDJyHmCCTtCJIjGEI7kxT9g4uxfSPh0X6yGLgQo1jfqbu7B8VEr'
  lat: 40.099084
  level: 7
  lon: -88.251826
  name:  'Irina P. Stewart Memorial Plaque'
- ap: 8907
  img:  'http://lh3.googleusercontent.com/hvoLMUc9UoNVVPttxWTc8PzOWdu5MBmPETnBexH7Alyl20WGCrNa0G_j7DwvD3qbhqpTaeThFhGDV2rCtp8'
  lat: 40.107629
  level: 5
  lon: -88.224484
  name:  'Bucky Balls'
- ap: 8722
  img:  'http://lh5.ggpht.com/tfAfnmo6mSMc6U0P533NMFJRGwn6lasmx-MLR2JJg1QOizMKkghFU8E7hb2zgYgdQEbgnCJUlvZIMdrrJe4'
  lat: 40.100822
  level: 7
  lon: -88.25193
  name:  'Seeds of Kindness Bench'
- ap: 7972
  img:  'http://lh6.ggpht.com/qSCp5fQMlyCQ-GOAgiSFy5gaHJei705Pa3eOlJiYO5wGjZTYtjA8q7QWWfAWcLKjxZSaFiMfXOPR8SO7rWU'
  lat: 40.099353
  level: 7
  lon: -88.251876
  name:  'Raymond B. Cattell Memorial'
- ap: 7972
  img:  'http://lh6.ggpht.com/5CDidk0pqfUtSW_Yqouuf3diX8drdMu9DoT728QpSz8q6A-WxNhT0yLcgM_7gGpyIAeXrHiTkIzzaVJFgnN9WA'
  lat: 40.099852
  level: 7
  lon: -88.251947
  name:  'Our Friend Tim Palmer'
- ap: 7785
  img:  'http://lh6.ggpht.com/yjfa0jJLjsfLRf9Zn9iafMp3MuIhgCi0WiOCF8GqTGiGvzEnsPGrFa0H1n-uzWhVehLbt44ShthsA32VzHd5iQ'
  lat: 40.099737
  level: 7
  lon: -88.251157
  name:  'Tyler Van Atkins Memorial'
- ap: 7783
  img:  'http://lh5.ggpht.com/4eagHlnlpVbtFi_knZN73PIs2A--Ipj6SOlkQADePlfnzfOnJn-cAv0IoNNv4qR8WrbUFImUKHBknyaoAewO'
  lat: 40.111383
  level: 6
  lon: -88.225675
  name:  'Only Rain Down The Drain'
- ap: 7409
  img:  'http://lh4.ggpht.com/S734i_6SihPtJW8WdegLb3gEuKeNx8e1qDm6CXjREzYHohw7XqL82m4EF2K5nS2TixHweLn3EuJ4YoQnrsw'
  lat: 40.107751
  level: 7
  lon: -88.231532
  name:  'Graduate School of Library and Information Science'
- ap: 7409
  img:  'http://lh5.ggpht.com/Z2EWM4D6YQHuqnLwtuPBawyQBZxTzVe9E17MKc8jOZkO0ZzkuD5zSQslY2iuXkkUnztPteUeOSHrSTz3voHC'
  lat: 40.111166
  level: 6
  lon: -88.228747
  name:  'Boneyard Creek Mural'
- ap: 7222
  img:  'http://lh3.ggpht.com/rUgM7jkTqL0VHxvsSW0yWuNJF5UrU62ITflghfn4PfKjn6L4WGz0ALkv98fc_q9dmK9SSpU1PXIawGvcRwE'
  lat: 40.098246
  level: 7
  lon: -88.251974
  name:  'Hessel Park'
- ap: 7035
  img:  'http://lh3.ggpht.com/G1CvGhpethi5UmprDWxZN9rTblHa3anSsQz1UPgJtkREkfN7lDFoxFObst0609Cg5mofuZxJKr0ddNKhY4VL'
  lat: 40.098464
  level: 7
  lon: -88.251426
  name:  'Ruth Haasis Memorial'
- ap: 7035
  img:  'http://lh4.ggpht.com/B_I1b0Jy3vW41RX8jjCNPP68AULplU0Pf8ddolyKmpEWCfBVShQkmjF1HfTPzDjmBBQGgOs0jHW-rUR0mv8BkA'
  lat: 40.098789
  level: 7
  lon: -88.251685
  name:  'Curtis William McKinney Memorial'
- ap: 6846
  img:  'http://lh6.ggpht.com/x11pEsOWqn4mqQ-dluGwqiNNwEbwDqcHukghtr3T9OW6zJ-huJiQzN28bQTAJutX0Cf8c-9nJICDcxGXa73y6w'
  lat: 40.109364
  level: 6
  lon: -88.227697
  name:  'The Diana Fountain'
- ap: 6659
  img:  'http://lh5.ggpht.com/28al1CSkHNCrM9Sb57TYmawr1uFh6r5raWMJKD4QjLCj6N5YHEYIIizONs_hHF3pHuIppLjqxbTFcvrI9Dq9'
  lat: 40.111205
  level: 6
  lon: -88.227583
  name:  'Theory of Superconductivity Plaque'
- ap: 6472
  img:  'http://lh5.ggpht.com/f710C9AvOEB7ieCI4f382wWUP4OgDxiqPzbxqxct6Ugf2PWBfyXyDpG_JcRQ6PaZ_jS0jpXXBhNSt_u9rFA'
  lat: 40.113864
  level: 6
  lon: -88.224839
  name:  'Plato: A Social Networking Revolution Begins'
- ap: 6472
  img:  'http://lh5.ggpht.com/f1O8bFXHTg2PTOAUVLvrqk5xx5ps9SeqhpJ1RIPtSxm0I-e7J275e2ujJp3lFQGHUBW_vS90KOsrcdLDJ84l4g'
  lat: 40.110797
  level: 5
  lon: -88.225321
  name:  'Multiphase Fluid Dynamics Plaque'
- ap: 6472
  img:  'http://lh6.ggpht.com/POBAhJlStu1uLv82RPSkd8lKQyojPByrKqAwgiZPyXTHQcNTCN7rkJM376YcVpMmZZVMgiXz9J1BXanexyA643e-FR9M70tksLdb1akPUe2Ra_xCyw'
  lat: 40.112411
  level: 6
  lon: -88.226875
  name:  'Grainger Engineering Library - William W. Grainger Medallion'
- ap: 6285
  img:  'http://lh4.ggpht.com/d3UqrcK5M1wuOe19dIaBUOkrXF4C9IxhOWfxqzM4zIHkGsUIRb1mckNapOMRkkCtVIe0rzJumb1OVDVc1_Y'
  lat: 40.108055
  level: 6
  lon: -88.233688
  name:  'University Baptist Church'
- ap: 6098
  img:  'http://lh3.ggpht.com/VrbXGwlUosNLEkVdshWUFoVa3KtlJQoEU4yLYygvftYbPCmxo644Uvar_v8Kb9RS53hB0tXgvV44GotrxZyu'
  lat: 40.098592
  level: 7
  lon: -88.251676
  name:  'Ruth and Fred Steigmann Plaque'
- ap: 6098
  img:  'http://lh4.ggpht.com/N-xxTzGXK34K-VdTOWaWrFJeP9_SLZ7ZBluxK2mjP51yZx_5HOMi_mb4Nu2rWgo3gOqUb19_cPb662sI7td_'
  lat: 40.105687
  level: 5
  lon: -88.225714
  name:  'Smith Memorial Hall'
- ap: 6098
  img:  'http://lh3.ggpht.com/x5fBw8MRogV8dm3kPO5zKNkUrQxn0dM7d1PIoASdX1_Rc8H5Duex4iZdOoIlqazCGll25TmptsWIRq1JFmj6'
  lat: 40.112135
  level: 5
  lon: -88.225762
  name:  'Computer Based Education Plaque'
- ap: 5909
  img:  'http://lh3.ggpht.com/HX3mWBGofQk08Qdp7A6KMK1AnSXlLEPJR-n6oeX69Efiiss29GHsLiDsHhRS5K8DrXh-QXP1T0AMaOsJmx_w'
  lat: 40.106921
  level: 7
  lon: -88.230145
  name:  'University Lutheran Church'
- ap: 5722
  img:  'http://lh3.ggpht.com/I8Cra-oBAq7td_84j0G8l8DIMXhxPP-O8A8xPb1WZb8O2s9DBapV_osKefRuzzDGDhcPRA9WT7yaPBvkGE4g'
  lat: 40.112836
  level: 5
  lon: -88.22802
  name:  '1909 Senior Memorial'
- ap: 5535
  img:  'http://lh3.ggpht.com/rT55OoX-8s-w_ikrqOgpC7QkK-Iqp4ylicElGoWFagKRQ8LX3Uvv8TZ5Xc8BlId1btzo5FTbgddPN72kYwA'
  lat: 40.114327
  level: 6
  lon: -88.224492
  name:  'Siebel Courtyard Structure'
- ap: 5535
  img:  'http://lh5.ggpht.com/dgQfoxxVeHT5ODqLiUYHV45qvkC_BMS0kIFRqvHvE2GO0TduZ0-XzhW8RE80LtPDK0Ay5xwA6PtjM7G3C9U8'
  lat: 40.108947
  level: 6
  lon: -88.232251
  name:  'McKinley Church'
- ap: 5348
  img:  'http://lh4.ggpht.com/OFVPvdgB3GVpaQknHdnt2okgP3xcQksAH3wvOGYVuP85MMlxo3bQ2SRpBb0hzNfjQoC_5LlRqaE6jLB-h9Gr'
  lat: 40.108092
  level: 6
  lon: -88.234589
  name:  'Koinonia Plaque'
- ap: 5348
  img:  'http://lh4.ggpht.com/hJDi8J7CZU-933hT0Culp2nhslv6p8rDRPdTFz6FwNaAjB5CmfkaQzj9sM--E-QBvI8yvIJn1F2jxy7ZKWlh'
  lat: 40.10816
  level: 6
  lon: -88.234245
  name:  'Stratford House'
- ap: 5161
  img:  'http://lh5.ggpht.com/-UWK84I78Sftf7yg-E2pg6xEAWTvyiThgJBJlxbqOZPYKNmzQ8uGgEEMetzplrG1HpXG5kQqNItUeXKxOHDsGA'
  lat: 40.100286
  level: 7
  lon: -88.251747
  name:  'Tennis Anyone'
- ap: 4972
  img:  'http://lh5.ggpht.com/LLVKvcsTaSPmGBzaGFrvYIV4RhGzb6LqC_npAarehd2aLZSaVhjGzQV6T63Ke07reCQzO-GoZXmEfwZMOcM'
  lat: 40.110569
  level: 5
  lon: -88.226784
  name:  'Cubist Art at MSEB'
- ap: 4785
  img:  'http://lh4.ggpht.com/j8nn4oxG37YIXPvQKVP6CBbVkveyhoHNg8O8QFxZKgbKVegaP5OdjJl8L8HTjzdBoVKPJIFHmwN26NfE9n4'
  lat: 40.111897
  level: 5
  lon: -88.222485
  name:  'Engineering Student Project Laboratory'
- ap: 4785
  img:  'http://lh4.ggpht.com/efOG849cf8EKwVLL2BfNKzwBdkrAuNsMeYOZfeR8FYnK3axQJJON0VH191MLBwjJaQ1EeQC9Pt8LMtNI2LEa'
  lat: 40.07718
  level: 2
  lon: -88.203511
  name:  'Denise and Ernest Walker Grove'
- ap: 4598
  img:  'http://lh5.ggpht.com/1yq3oFq9p_Yl5cUf5h7IEfZPAbae2MT7lA0DFo1DHwPWPZJJ-Ez-2AE2oTzHEHWsEJQVUcUwh3j_d3kOYgDS'
  lat: 40.110095
  level: 7
  lon: -88.22862
  name:  'Alma Mater Plaza'
- ap: 4596
  img:  'http://lh6.ggpht.com/SboHv2_AWJ6ll559fK1A5a1UIAKf04oIHrgidra_E6L8gDK_mQ-DaM7hKYkv7MT6ZAA8pzgPxv_Vy-eNN7g'
  lat: 40.110608
  level: 7
  lon: -88.231957
  name:  '217 Tattoo Co.'
- ap: 4411
  img:  'http://lh4.ggpht.com/PHV-1ZpFzCAl_ViCKwBY_x2pIDbVyaT7wJH1sTvFJCxrSdRrO1x7NaXq9OdRGwz_Mls4iwk6wuGHMBArfV54'
  lat: 40.098688
  level: 8
  lon: -88.25063
  name:  '"New Holland Yellow Dinosaurs" at Hessel Park'
- ap: 4411
  img:  'http://lh3.ggpht.com/lzCSS0_tjwUV7JQ2fgLI0e05IrzPxlVUs-6aEPOwUv67IanQJSTi71gkw0SGm8asmoE_r3Xoh048Fd9xRpE'
  lat: 40.099169
  level: 7
  lon: -88.251419
  name:  'Lyman Larson Memorial'
- ap: 4411
  img:  'http://lh5.ggpht.com/ENeQgqydWbi9-Oyf7vizunoRqJdsZV4o0RA_956wjGI8hqpTCHBPyWMpbTrrkwYpj5tgzDRvevGmvH4eFRU'
  lat: 40.099593
  level: 7
  lon: -88.251724
  name:  'Blessings from Devon Elaine Cattell'
- ap: 4411
  img:  'http://lh5.ggpht.com/C6wRSaEWO1NYGY5luyYZKHG3Z3aib4aflaPdV7B9G6N6adE890g3QuPRSvCUhsdFHqjoVUjo27mfz9WsjXyuhQ'
  lat: 40.100521
  level: 7
  lon: -88.250864
  name:  'Gabriel Patrick Maxeiner Memorial'
- ap: 4186
  img:  'http://lh3.ggpht.com/2bCNiD7SWsS3uzFLMO2cZh-LpHUEMQGnfTmcNx5vJapXho2TuXke630-7zop2Sq4fuY8nWVqy4VCG23mvnIJ'
  lat: 40.104168
  level: 4
  lon: -88.238808
  name:  'Alpha Gamma Rho'
- ap: 4411
  img:  'http://lh6.ggpht.com/S7Utf4_59vQkAP5JhC3mdbzVLKBTt-0zoJ2UjfxUnN10VBbixO-_VwvssWd1LbFSx_yafaijd_U0wTGo870'
  lat: 40.100941
  level: 7
  lon: -88.251314
  name:  'Gabriel Patrick Maxeiner Memorial Plaque'
- ap: 4411
  img:  'http://lh4.ggpht.com/vKgqIecJshMQxrhO-ZhMjcIyARuJdyU63wKfzAG0wouZex6LVzO46Qi5zM1N3Jx8xyantDFk9sQGsSEBhb-y'
  lat: 40.101327
  level: 7
  lon: -88.251412
  name:  'Zeus Memorial'
- ap: 4411
  img:  'http://lh3.googleusercontent.com/v44Gf5oEZGcwkQcA2wWz-uAeDFESHj7sEloxdCJd316RPH3w_ln8_9mBEMbAqGyI_2Y2qaYp525PnRip9Rg'
  lat: 40.105315
  level: 5
  lon: -88.226125
  name:  'U of I Observatory'
- ap: 4411
  img:  'http://lh3.ggpht.com/whmQSPmix2tEoKcWwrVrV0H0JzNf1tzyuohI3ykSa-Qx4rUcLTf4686WcnJjygsMY2QPUWhvVVzlmMMHof94'
  lat: 40.105907
  level: 5
  lon: -88.22564
  name:  'Andrew De Grado Memorial'
- ap: 4411
  img:  'http://lh4.ggpht.com/OKjZe5DNbqsjBvhTWI2C_GTSbIMUanllb49pzoadj3izBmngp5kFNgLokw6jbL1Y3BnreLD-LmzLdNEx-eRI'
  lat: 40.105694
  level: 5
  lon: -88.225345
  name:  '1981 Iota Chapter White Anchor'
- ap: 4411
  img:  'http://lh5.ggpht.com/J4IbsPUjPF6cIlktTr1tOGHi61krS9o1eXeuAlPRBrSYUQrwdyShfNzuzxD0epa_cBMPF1xJ9YhoBA5VOQtYRw'
  lat: 40.105467
  level: 5
  lon: -88.225644
  name:  'Smith Music Hall'
- ap: 4035
  img:  'http://lh4.ggpht.com/4_MOw_NKr2wZ2lzAzG2FlLtA3tfOfWqBZpNVP43LfN6ilD6qHRfZ-_wA1Xk8BnCqHKqKdqodC70X09pqtNXXqmNtK-uqo-fC9SZyOjT6ERfJorzg'
  lat: 40.118388
  level: 7
  lon: -88.245358
  name:  'Springer Cultural Center'
- ap: 3848
  img:  'http://lh6.ggpht.com/0IsQORyEW-bPA7sEbGspygtoI7ixEshm_2fUw5oeh9AeXg6JN5w0ypYIshpuKm-C0nG4Vm2XmpLvtWTZzWzd'
  lat: 40.111607
  level: 7
  lon: -88.233753
  name:  'Chabad Menorah'
- ap: 3848
  img:  'http://lh6.ggpht.com/WtqWBwqpYTSw3g9ru5NwcFn5iK5STxWgy2kv4OUTWqwtzx76-9Msz0eqoiw0qpEYE1U4zdt9rzzNZMDNagNg'
  lat: 40.107943
  level: 6
  lon: -88.226751
  name:  'Class Of 1917 Plaque'
- ap: 3848
  img:  'http://lh5.ggpht.com/jQxBvX2jWXZCQP5ap9HmKaDDgG40pdH5nPpBNcYppZdxce6GWdxMRTYyqKrLxnk_TsmMAd7G6gRwJ6YI7S-v'
  lat: 40.107574
  level: 5
  lon: -88.227843
  name:  'Iconic Pillars'
- ap: 3661
  img: http://i.imgur.com/5j1qaiT.png
  lat: 42.006828
  level: '?'
  lon: -87.65519
  name:  'f1155b4ff98f47a899c22acd70f130d5.16'
- ap: 3661
  img:  'http://lh5.ggpht.com/9XV46K2cUd84oc6HPyqlj53LKJS8lVs0f0gPHSCBkkTwiHaxivu36dlAj5M38EzK-2U4xhvZJ7AiVvGM5yk'
  lat: 40.118175
  level: 5
  lon: -88.244562
  name:  'The Russell Building'
- ap: 3661
  img:  'http://lh4.ggpht.com/_jAAuDi8SO5uupi8JlB3HZaFG40S15izNv_3vqOt7ro2rRHuXrfdEKfEFvRESdAjCEz3RVDpyrxJGSIrju5d'
  lat: 40.117916
  level: 5
  lon: -88.243087
  name:  'Sholem Building'
- ap: 3661
  img:  'http://lh4.ggpht.com/zZ2YpVpDiI1KdIQ9iI7mGJD_VtwFztJ4ZF1vRehD9OSnQ2K3433SIg22svwcqDJVfeO2fjE3fdT4eHAJWGpi'
  lat: 40.104339
  level: 5
  lon: -88.234788
  name:  'Pi Kappa Phi Fraternity'
- ap: 3661
  img:  'http://lh5.ggpht.com/Tn5ARN-X6VTc2q6atZ2WYq3c2g3gbSGXu6_vXf1MDwHfLpdTtnQ-CilBAVGvL6R-SHhq3fJ4WZI-yiJKmIId'
  lat: 40.110398
  level: 7
  lon: -88.235143
  name:  'US Post Office, E Green St, Champaign'
- ap: 3661
  img:  'http://lh4.ggpht.com/mHAXKPtOyg_DWRs5A_0yhGeDsfU4f4o3xJvzziri7o3ksPPKtMAHUkUBOb0JJ78gArdP5Q6O-UiXNDG3RHaIYQ'
  lat: 40.109339
  level: 4
  lon: -88.234149
  name:  'Alpha Delta Phi Fraternity House'
- ap: 3661
  img:  'http://lh3.googleusercontent.com/XQb7KWjSJlhbfrYsW2727_AeRoEQ5BbG0fRTTY5js_4zRdArbiRhCRkXunVa81rQpk9yX4RB6x1dV97DnYN7'
  lat: 40.104722
  level: 5
  lon: -88.223683
  name:  'Louise Freer Hall'
- ap: 3661
  img:  'http://lh6.ggpht.com/BzDhCANV_iNTHhKFBGLuaUqOvChRZtPWnJ2Xk4h7NsKJHmTGgCWtFHWv2PpDA2fCsHHKSCRTrUNK8AKrLRnS'
  lat: 40.108066
  level: 6
  lon: -88.230687
  name:  'Community United Church of Christ'
- ap: 3661
  img:  'http://lh4.ggpht.com/IZUCSooIdo5qUAG278Al-JEKCRv842M0uDMusE78yaL4p-QCYu2A4UXE6X2jTFemr_w8ZfD6g_lQqjwbdg'
  lat: 40.109702
  level: 6
  lon: -88.227571
  name:  'The Ray Bulinski Room'
- ap: 3661
  img:  'http://lh4.ggpht.com/Ad3EyxZM9v5cjmOiED5nr8Hf1mHtOMXrJtjU_U63YfE8lgUjAteiDYuYxND-ybx6tARUErULHJBDhgoDIblz'
  lat: 40.077349
  level: 3
  lon: -88.20659
  name:  'Bruno Schielzeth Plaque'
- ap: 3661
  img:  'http://lh4.ggpht.com/ojeB36C4pFrkpUOLeRf1wlevsVasnc0hxMgCCqBw0bmWLkPKciRkj06rLhJaSpLFbnUhIn2WqKdmVVVYGBw'
  lat: 40.077334
  level: 3
  lon: -88.202929
  name:  '"Marker" at Meadowbrook Park'
- ap: 3474
  img: http://i.imgur.com/5j1qaiT.png
  lat: 41.812283
  level: '?'
  lon: -89.686219
  name:  '2c47cde8fd624412b83048dc716c978b.16'
- ap: 3474
  img: http://i.imgur.com/5j1qaiT.png
  lat: 42.356918
  level: '?'
  lon: -90.002898
  name:  '4b2b62e3565247ada71f7778b3670cf1.16'
- ap: 3474
  img: http://i.imgur.com/5j1qaiT.png
  lat: 41.816052
  level: '?'
  lon: -89.694085
  name:  'c604d1508e9c497bb0473a6aaface8c9.16'
- ap: 3474
  img: http://i.imgur.com/5j1qaiT.png
  lat: 42.401374
  level: '?'
  lon: -86.288005
  name:  '9c168d55307d46deafd3684ceac79063.16'
- ap: 3474
  img: http://i.imgur.com/5j1qaiT.png
  lat: 42.585531
  level: '?'
  lon: -87.807675
  name:  '9ccc069dcb654a4286a8457b75e85a3a.16'
- ap: 3474
  img:  'http://lh3.ggpht.com/8FqlniFErK7cq59awiT84u8KyV4FIRd5krZzfYa58zJToFps7whdBnriPqvO_kFKeLUE3SWbJhCOPuvUQzaGFA'
  lat: 40.100691
  level: 7
  lon: -88.251337
  name:  'In Loving Memory of Zeus'
- ap: 3474
  img:  'http://lh5.ggpht.com/KQ7QYG8rWnVxSme_uq3cOu8IreZRbztWWKHTNPBy_6GvCqP3ywy-HEoSUxqloLDeUggEVV0UhKLy8Ja0v0yPdQ'
  lat: 40.110844
  level: 5
  lon: -88.224091
  name:  'Institute of Aviation'
- ap: 3474
  img:  'http://lh6.ggpht.com/y10QgRCNt0Bsefqp3olKgJp98whQkS0-vWqPskj3421hcSq96BG-b_KROqsO1mBEcNiYtAKhXuXG0EV0eaUW'
  lat: 40.107152
  level: 5
  lon: -88.235244
  name:  'Bromley Hall'
- ap: 3474
  img:  'http://lh3.googleusercontent.com/zmBaxEMhC7WvQDOei5LjXnSrM2p368YlSMZPtCtSY0t6bGsHjg5Bc91PGGsJ0oGn_hifKeBSMB_3BKH3hbwP'
  lat: 40.105567
  level: 5
  lon: -88.227662
  name:  'Freedom of the Press Plaque'
- ap: 3474
  img:  'http://lh6.ggpht.com/j712bbvDknzGlAU87nZA1Bx45Ng-0MGA9Uvuv-3WzIKA3W51mXOZpJ-TzVSbuU3uE2AsJ5wcO7_B6WDpdRr0'
  lat: 40.110684
  level: 4
  lon: -88.226053
  name:  'BCS Superconductivity Theory Plaque'
- ap: 3474
  img:  'http://lh3.ggpht.com/pVUYGCf7vsAndVd4vhK_pC9p6e9OvGa4ZiWuZg0ELOFDWptBba4H2N4PNZPjQdHXnV1GQyLTpCXQWDMKDUqn'
  lat: 40.108875
  level: 6
  lon: -88.227835
  name:  'Lion''s Head Planter'
- ap: 3474
  img:  'http://lh4.ggpht.com/GCS0-CwKl9SLe2zfeL7FPDuKv5ZFDhlnX3hMXZSJLvK-u73RlgWbn_FgnOHZi-0wqMk52z_YLSAMReYTSaoP'
  lat: 40.10659
  level: 5
  lon: -88.227679
  name:  'Lincoln Hall'
- ap: 3474
  img:  'http://lh6.ggpht.com/5FrAAzvYmAM-WLKT5FARCFzegoqjWDbNOkEi5jS2tKCRLbTeSfKuZonDJsFpjSfnQpj_fSJSV6P-msLaTJSk'
  lat: 40.080453
  level: 4
  lon: -88.205614
  name:  'Elaine Regehr  Memorial'
- ap: 3474
  img:  'http://lh3.ggpht.com/SGh5Xw4MO1dVvrMemAzgB9RDDBXEv4yPJSQnS537XIPlaVnoge7FriTE0zXjRXDxMtFiaTHXXihwZpbush_dbg'
  lat: 40.077367
  level: 3
  lon: -88.203354
  name:  'Meadowbrook Trail Map'
- ap: 3474
  img:  'http://lh3.ggpht.com/auODcSEEyS_cmdCKFpepPDD0gW_kEaFOoOpOfD8jnhCfcVh_700SftAr3yhsnLkr63Ac_MetCRRjp36GkKw'
  lat: 40.096302
  level: 1
  lon: -88.183872
  name:  'Karl B Lohmann Honorary Plaque'
- ap: 3474
  img:  'http://lh4.ggpht.com/pM54bxajiElAHvpOxTra6n3p9_Fy3FZDVv1HZu94ulaDSBKkvE5xOjxuEfC__ooPEItS_J5fqoI2Cw7BdPYn'
  lat: 40.09623
  level: 1
  lon: -88.184865
  name:  'Lohmann Park'
- ap: 3474
  img:  'http://lh4.ggpht.com/QaEETB-72_R_PXiJ2rTrNTf6R38GNDpwmzGIfbX-rkir8KsH3Nov2DZTVj2AVqnvDfMl6QC77gSMVWxAw8rQ'
  lat: 40.095923
  level: 1
  lon: -88.184083
  name:  'Lohmann Park Disc Golf Course'
- ap: 2724
  img:  'http://lh6.ggpht.com/duOeXcOSQLWosdD0JJXg3pWWQp4t5sL0x9qDHoTIBFNOzEW0t53Lt2cnwgV2E_Su0l1ajIQxPtVbbK_sDRaS'
  lat: 40.141775
  level: 5
  lon: -88.242671
  name:  'Marketplace Mall Fountain'
- ap: 2724
  img:  'http://lh3.ggpht.com/NfRR7PyM2-UNoQGKgRsf6sUZdUTMp0sWqha9caVs49hYb0AnT9OznQX0dQGxKJNP6KiHWJ0WRUMSQh1m4-rwvg'
  lat: 40.117976
  level: 6
  lon: -88.245082
  name:  'Robeson Building '
- ap: 2349
  img:  'http://lh3.ggpht.com/urNQaRe_wrjSAoW-Iis4CKHBvHhg6xwTvUcQPw4MqlQNK9ZuhMKEVtca2hGJnOCbyCC7ehJNuG00XZlaGXo'
  lat: 40.118898
  level: 2
  lon: -88.247032
  name:  'First Presbyterian Church'
- ap: 2724
  img:  'http://lh5.ggpht.com/KYppjeOoIlb4lbowRrrC5qRdYW7_KU8rzjtDMpvhh-Q_c6VZOTtVmOqmmxChJA2hjlpS5dJ1JnhUQcKUAXDWHA'
  lat: 40.117976
  level: 6
  lon: -88.242642
  name:  'Stevick Building'
- ap: 2724
  img:  'http://lh6.ggpht.com/BY965mN-IwRRa-jZ2gbLPDtjHyKpATG3VbP3LyHuDo6pU0R8wDi5gANnRox6DEA_ZgB0Xqi-p6k0SYPnSIs'
  lat: 40.115883
  level: 6
  lon: -88.232238
  name:  'Artwork at Fifth'
- ap: 2724
  img:  'http://lh6.ggpht.com/c2I39IJvSBKmCLonmhP_RN1vLEpYY1recBXFm8xpGHxES4bAN2kvAcda8ZzvT75uq0yWQCv7N_dzP6ce5-Tu'
  lat: 40.108043
  level: 5
  lon: -88.22469
  name:  'Building of Molecular and Cellular Biology Sculpture'
- ap: 2537
  img:  'http://lh6.ggpht.com/nSen6pmNOWw2QFmzlf67_mVA2uPP3zLgamxJ9aa-xPKG8QSq77ECt0GKvNGs7q0WbZA-oQGcbqRsU57Ns5Lj'
  lat: 40.068397
  level: 6
  lon: -88.315419
  name:  'First Christian Church'
- ap: 2537
  img: http://i.imgur.com/5j1qaiT.png
  lat: 39.966802
  level: '?'
  lon: -88.34467
  name:  '4559bb0f45f9470b8b155f0f3b6c9056.12'
- ap: 2537
  img: http://i.imgur.com/5j1qaiT.png
  lat: 42.40148
  level: '?'
  lon: -86.287044
  name:  'be78c15683554893a96f56b528eb8f83.16'
- ap: 2537
  img: http://i.imgur.com/5j1qaiT.png
  lat: 40.279711
  level: '?'
  lon: -88.346869
  name:  'Sangamon River Forest Preserve'
- ap: 2537
  img: http://i.imgur.com/5j1qaiT.png
  lat: 40.347254
  level: '?'
  lon: -88.762091
  name:  'ef6a27b9721a476a9006c096765f1fad.16'
- ap: 2537
  img: http://i.imgur.com/5j1qaiT.png
  lat: 42.333068
  level: '?'
  lon: -90.272555
  name:  '73b8762abf9c4b9db427d5a2eae1b441.16'
- ap: 2537
  img: http://i.imgur.com/5j1qaiT.png
  lat: 41.805661
  level: '?'
  lon: -89.94177
  name:  '60e216159b344aba8fa25ec35d98f2ea.16'
- ap: 2537
  img: http://i.imgur.com/5j1qaiT.png
  lat: 39.964362
  level: '?'
  lon: -88.348907
  name:  '9e87bde25e4742e6a2802b1d7b1617a0.16'
- ap: 2537
  img: http://i.imgur.com/5j1qaiT.png
  lat: 39.988867
  level: '?'
  lon: -88.260234
  name:  'e8936d5f39164dab96a8dff5d68bef57.16'
- ap: 2537
  img:  'http://lh6.ggpht.com/p2F3xw4xL4UdiMM9aSy628ISSglrvjPexpF3j340tMAP9MX07yh_sJv7kHVkeud8lyFf2ZwDohw3zsRS2PSd'
  lat: 40.093914
  level: 5
  lon: -88.281531
  name:  'Terry M. Warmbier Memorial'
- ap: 2537
  img:  'http://lh5.ggpht.com/tuo_ByFTbwLitFP5cBseOibqRxENxbCwOJ30dCnja5ijBI_qBv5vqNP7ZuZXnxhYM6ms_GbExZEwwKVUtwV2'
  lat: 40.093712
  level: 6
  lon: -88.281583
  name:  'Brownfield Dedication'
- ap: 2537
  img:  'http://lh4.ggpht.com/u_MtizNv_keIXM4ITgtjqC8nr5JvB8UpDBg_5_08uQDTsQr44mwr6ZlkhTp0iKbvcV9xCJqXDeN66xYWaI0'
  lat: 40.116227
  level: 7
  lon: -88.233833
  name:  'Haley-Walker-Ginza Building'
- ap: 2537
  img:  'http://lh3.ggpht.com/07XrBN-er6Ecleor0n9RJ4DfGO6B2yn-ZxjI-Uy8Ba46Jtb6cXNVmATPiPiGyk-1jZ4wxa7-EeIWbWUqArCG'
  lat: 40.142554
  level: 5
  lon: -88.243468
  name:  'Dog Heart'
- ap: 2537
  img:  'http://lh4.ggpht.com/BEyFLhgqk0ySf2zElnARv5eyaQggj_zbHSagW3_DGt9BieScmU4jGPvJCjezTjbiCP-DOJPLPfJ3HhnYAiQLEQ'
  lat: 40.119288
  level: 7
  lon: -88.248086
  name:  'The Hartford'
- ap: 2537
  img:  'http://lh4.ggpht.com/9jXAzAxn0JZrLkU9VK9p-mNzjw3x_6QqwMAn4CAEBAHp_lo2iDZeV_y-hoUzP5CYwm8kOMyrTToZQOWJBRnw'
  lat: 40.115095
  level: 5
  lon: -88.249052
  name:  'Bayne & Schumacher Fountain'
- ap: 2537
  img:  'http://lh4.ggpht.com/Iz-O9-kJLlEdRO9osaqkCvLRsSNF24c95jHG0lhtE95b99-cC2bKuCEiznIs1-ytpoCITEwQ7s5VuyURgrpM'
  lat: 40.117288
  level: 6
  lon: -88.248506
  name:  'Prayer for Rain  Fountain'
- ap: 2537
  img:  'http://lh3.ggpht.com/-xag7tp3BReTAhfRmVAvpMw1Af15prESg4rve7QnsiIC5IKmKjBszxDIj8F212BmRU1apH_2u_9wAmq58_91'
  lat: 40.114157
  level: 5
  lon: -88.238621
  name:  'Bombay Indian Grill'
- ap: 2537
  img:  'http://lh6.ggpht.com/RR0i4QdfoY8NkTQtssdOtDLhAEaCR7e-R4ipk5NzdKe9lTGDq2nyKI_7sF2BCXrgCZAZ2zEEtIzS7vg6Pu0hzA'
  lat: 40.126458
  level: 5
  lon: -88.218544
  name:  'The Vineyard Church'
- ap: 2537
  img:  'http://lh6.ggpht.com/Nv0tMktEkkuoGtg1QEPS1N2nTcBPg8ipu31i72XPDTGQ4HQI5oL58Ig8kofXUH_aCC2aaJ-NylWKPkC3hIBS'
  lat: 40.116218
  level: 5
  lon: -88.228757
  name:  'The Presidents'' Walk'
- ap: 2537
  img:  'http://lh6.ggpht.com/iVHoGDIqnjdRupoPTpZLPtrzaCpEGW6HV4QHZ5WW185rmkrOxvl-C7uIN_gNZnCrm-djktoPC1J-9vjBZfCb1w'
  lat: 40.115718
  level: 6
  lon: -88.228521
  name:  'Red Lines Sculpture'
- ap: 2537
  img:  'http://lh5.ggpht.com/n8MFM2pb-tE5i9EziJdygPPUK8VqEZ4BHGQaywz4lwe3WjwdgO0ohBCPZmiMoL00r3mVPmYnbCunJDeFbyk'
  lat: 40.118593
  level: 7
  lon: -88.240416
  name:  'Champaign Rail Water Tower'
- ap: 2537
  img:  'http://lh3.ggpht.com/EKf-sm5ZCYuiTXX4AKzlEv7GIrHKV_TLuLEfvyjAME2h47rQIOU4VRKY6CQb6qe8ZIQ_8ablR4-1JPH1JFhq0A'
  lat: 40.116423
  level: 7
  lon: -88.238623
  name:  'Champaign County Historical Museum'
- ap: 2387
  img:  'http://lh6.ggpht.com/RW34ntixvJkg7fD71TPYo_4KIsBzA0-a-6yXO0jKPbpGxX5gIGC7kBI-pXEF9OHhuolcAGW2fxyK3Pt42Iev'
  lat: 40.110489
  level: 4
  lon: -88.227412
  name:  'Bus Stop - Illini Union, Westbound'
- ap: 2537
  img:  'http://lh4.ggpht.com/PmGpygZ2fBs43twk2Y44XZbgGcHWv0YimAq7Fp3vlIRRqUyLpSmDmFwcn1ucfmJarcQrAAXJjYAXAhNyxSrz'
  lat: 40.110049
  level: 6
  lon: -88.231968
  name:  'Potbelly Mural'
- ap: 2537
  img:  'http://lh6.ggpht.com/rraU1rTd14rCyJXSoh2e6C2u94YDda9-bQvNx5QNAyqzNwDF1MB6ZmCYgnUrC1--QxP8_xEw0oI9iqEy1gto'
  lat: 40.108
  level: 5
  lon: -88.2219
  name:  'Foellinger Great Hall'
- ap: 2537
  img:  'http://lh4.ggpht.com/l4w3T1e27S5zPAMN3Mr-LqJ51cbm26ThR-ubvfUFHpl28dkeRb_CQThuhJ_HSNhdYt_dX9NTAN9hKFsDeWJQ'
  lat: 40.108295
  level: 5
  lon: -88.224083
  name:  'The Landing'
- ap: 2537
  img:  'http://lh6.ggpht.com/pxaCt7clhIXc1RVGMMJZsmnbEWNWjFYJiUrQMev_SeOmXBothvOzmfnirQ5_W8CMa7hpigqydQhKMa4XFCAi'
  lat: 40.108173
  level: 6
  lon: -88.230209
  name:  'Mural on South Sixth Street'
- ap: 2537
  img:  'http://lh3.googleusercontent.com/DNxNz5kUb4i3SBi5NKUZEHT0qc0Qef6rKL-J9jG--oDu69m1WEoRX_0_laXoooyFy2YJWQKQLkaUtu8rm2-D'
  lat: 40.078858
  level: 3
  lon: -88.200763
  name:  'Prairie Overlook'
- ap: 2537
  img: http://i.imgur.com/5j1qaiT.png
  lat: 40.202
  level: '?'
  lon: -88.384057
  name:  '0f17ebe8121f44b0b5d0d796c3e11838.16'
- ap: 2537
  img: http://i.imgur.com/5j1qaiT.png
  lat: 40.199138
  level: '?'
  lon: -88.385786
  name:  'dbf3b4e9041a4a01af2e803c4a7296c6.16'
