- ap: 9844
  img:  'http://lh5.ggpht.com/kElaGOaV9aI8SrnM1D65gx9J0Ky1AKrN9Yo-pXVmDhELt2pee4MwVRiCqCmlqWzUWj5pS33GnEzAiXmiWKsw'
  lat: 40.108111
  level: 6
  lon: -88.229625
  name:  'Illini Sports Mural'
- ap: 8907
  img:  'http://lh3.ggpht.com/F-cwL1kpN8KTxTiRAdaaAFictKYDbMRhPltdDuO0_6jhG8_6fxg1_yHzy1kBs1WXPRZ8UQDrxqY1fCdmHXFU'
  lat: 40.108042
  level: 7
  lon: -88.22808
  name:  'Earl W Porter Memorial Tree'
- ap: 8720
  img:  'http://lh3.ggpht.com/gS3gT_deXzbDvejCL-5ygs31dw9bLQqYr2nDcLPZiv6nQzahJl12awG1a2pwKbFuoTlsHQYxQ2O7HDXL4-8'
  lat: 40.110358
  level: 5
  lon: -88.230181
  name:  'Murphy''s Pub '
- ap: 8346
  img: http://i.imgur.com/5j1qaiT.png
  lat: 40.189082
  level: '?'
  lon: -88.785464
  name:  '7b87ad52b9034c1fbe34b70a2df457cf.16'
- ap: 7409
  img:  'http://lh6.ggpht.com/pxaCt7clhIXc1RVGMMJZsmnbEWNWjFYJiUrQMev_SeOmXBothvOzmfnirQ5_W8CMa7hpigqydQhKMa4XFCAi'
  lat: 40.108173
  level: 7
  lon: -88.230209
  name:  'Mural on South Sixth Street'
- ap: 7409
  img:  'http://lh6.ggpht.com/BzDhCANV_iNTHhKFBGLuaUqOvChRZtPWnJ2Xk4h7NsKJHmTGgCWtFHWv2PpDA2fCsHHKSCRTrUNK8AKrLRnS'
  lat: 40.108066
  level: 7
  lon: -88.230687
  name:  'Community United Church of Christ'
- ap: 7035
  img:  'http://lh6.ggpht.com/yYW6Egg1lWn6UqqLzlgqwCQhtbuxiZSW4TmvI1XBPs33OTTJ0oh51XZXOIILxGI2juoO-E_YfG5UHmeb34rSOw'
  lat: 40.109165
  level: 5
  lon: -88.230269
  name:  'John Street Plaque'
- ap: 6472
  img:  'http://lh5.ggpht.com/k_9eqZVvGcr3ZNyeeSNDM1-Y7od35KmnQQptB9usrdpTdpGW2c_5-12rYy9hGazdx7qhlYrEXxaJ_ZIVFywlcA'
  lat: 40.106706
  level: 6
  lon: -88.232116
  name:  'Illini Tower'
- ap: 6472
  img:  'http://lh5.ggpht.com/ucFkWovrZBr6wFMicSGD78p44tqzcyfJCvQuAocYo0do3ODoHsOeAMphZZferoOLkGfuJPQVlILRzKG1vAPg'
  lat: 40.109172
  level: 2
  lon: -88.231151
  name:  'Illini Life Christian Fellowship'
- ap: 6472
  img:  'http://lh3.ggpht.com/HX3mWBGofQk08Qdp7A6KMK1AnSXlLEPJR-n6oeX69Efiiss29GHsLiDsHhRS5K8DrXh-QXP1T0AMaOsJmx_w'
  lat: 40.106921
  level: 7
  lon: -88.230145
  name:  'University Lutheran Church'
- ap: 6285
  img:  'http://lh5.ggpht.com/dgQfoxxVeHT5ODqLiUYHV45qvkC_BMS0kIFRqvHvE2GO0TduZ0-XzhW8RE80LtPDK0Ay5xwA6PtjM7G3C9U8'
  lat: 40.108947
  level: 2
  lon: -88.232251
  name:  'McKinley Church'
- ap: 6098
  img:  'http://lh4.ggpht.com/S734i_6SihPtJW8WdegLb3gEuKeNx8e1qDm6CXjREzYHohw7XqL82m4EF2K5nS2TixHweLn3EuJ4YoQnrsw'
  lat: 40.107751
  level: 7
  lon: -88.231532
  name:  'Graduate School of Library and Information Science'
- ap: 5909
  img:  'http://lh3.googleusercontent.com/hvoLMUc9UoNVVPttxWTc8PzOWdu5MBmPETnBexH7Alyl20WGCrNa0G_j7DwvD3qbhqpTaeThFhGDV2rCtp8'
  lat: 40.107629
  level: 6
  lon: -88.224484
  name:  'Bucky Balls'
- ap: 5348
  img:  'http://lh5.ggpht.com/uP38yDCg4dPRI1F0r0ALGArEc8Q9eoRuaxkfxZTafZZr9tMcbLUZek1hZRbLUxHJVGPcLSf_JKbotbTBeR7nfA'
  lat: 40.107226
  level: 6
  lon: -88.22858
  name:  'Class of 1897 Tree'
- ap: 4785
  img:  'http://lh3.ggpht.com/eFFdc4ogWkS9n6Texp4aw9BhK-M6FRxwvMRH-YkXj7JP7qSRQdo7E0-0O4P7NawgvduxpxgjnbGHbN1BjW2_'
  lat: 40.114585
  level: 4
  lon: -88.311371
  name:  'Joe''s Park'
- ap: 4598
  img:  'http://lh3.googleusercontent.com/hJZWoErzM-MuXulq4FlhlZwMbJX1Isd81GBUBVKayd57jVIVxUle3itd-1DRKo2VaNXznWr1X639fa44Etk'
  lat: 40.141919
  level: 7
  lon: -88.244611
  name:  'Marketplace Mall Carousel'
- ap: 4411
  img: http://i.imgur.com/5j1qaiT.png
  lat: 40.152302
  level: '?'
  lon: -88.957483
  name:  '1b4eda9d0b704462bcca9b01429db0c9.16'
- ap: 4411
  img: http://i.imgur.com/5j1qaiT.png
  lat: 40.152769
  level: '?'
  lon: -88.949369
  name:  '463f4b2f21fe4d4783e410189302f748.16'
- ap: 4411
  img: http://i.imgur.com/5j1qaiT.png
  lat: 40.149936
  level: '?'
  lon: -88.95277
  name:  'e96e1cab74234c9099f7f84740b93c4c.16'
- ap: 4411
  img: http://i.imgur.com/5j1qaiT.png
  lat: 40.24314
  level: '?'
  lon: -88.642466
  name:  '49318246285449e19ab7b796855d480d.16'
- ap: 4411
  img:  'http://lh5.ggpht.com/-NsKnESr9uZb4z_j68xVZ0wUqdmw2w55j8GyLVxett1cBDOwLzwVF7FZY3yZZyTPCZeRYEynakch-pYO6GhZ'
  lat: 40.084056
  level: 5
  lon: -88.328738
  name:  'Champaign Bark District'
- ap: 4411
  img:  'http://lh3.ggpht.com/07XrBN-er6Ecleor0n9RJ4DfGO6B2yn-ZxjI-Uy8Ba46Jtb6cXNVmATPiPiGyk-1jZ4wxa7-EeIWbWUqArCG'
  lat: 40.142554
  level: 7
  lon: -88.243468
  name:  'Dog Heart'
- ap: 3810
  img:  'http://lh3.googleusercontent.com/0hydzoUNO41CcF2qZhlhMbaEgMVFjql3_RSDgrJLVIToqRsqh2aBcAoXsrxAlwXqgTcB1R71HZiHrjq1KdnXgA'
  lat: 40.11243
  level: 2
  lon: -88.235749
  name:  'Fountain at Scott Park'
- ap: 3848
  img:  'http://lh4.ggpht.com/DJiaqGgwCaKSjYczELIcjQOeBtoEqd--7TZYBJWO9_Nd16vjKwlco9tKatJTdAKT1CPoO7Cj39_rZvp8p0Ch'
  lat: 40.087241
  level: 5
  lon: -88.248222
  name:  'NCSA Blue Waters'
- ap: 3848
  img:  'http://lh4.ggpht.com/7U0YXCB_DIhnqPJyjyLpNn6kg4lU8HvKL87ddBKWq1sptvVLvCEiCuNEnghQtqDGSN2OBNcOUK9nZcYjY4Vr'
  lat: 40.107887
  level: 5
  lon: -88.225998
  name:  'Lifesaving Antibiotic Plaque'
- ap: 3848
  img:  'http://lh5.ggpht.com/Lup2et0i5h8oHqtBffIdoyX5uclC2MBn9ZnnKnYPr4RIFSflf9bi78zBHK7QqycA0qgEev9qOk0zU-1o1hg'
  lat: 40.108451
  level: 7
  lon: -88.228733
  name:  'The Centennial Colophon'
- ap: 3661
  img:  'http://lh6.ggpht.com/pRR6eCp2PyD3vDZlmHjKOeq8OKg0KhFPVnuWAP-pB7RR36eKA3TlQwYX5pwYfBjPyVyB4oPXXOomdbqpVcY'
  lat: 40.116065
  level: 5
  lon: -88.313206
  name:  'Alan Green Memorial'
- ap: 3661
  img:  'http://lh3.ggpht.com/CraZJCGkYMojxUhZiRGhjSMt9Ggq_EWkUgzsVChRJRy806N-iFxcUt910vs-j4ap6ycfrLl-faXk8cbXM2n3'
  lat: 40.105644
  level: 6
  lon: -88.309106
  name:  'Turnberry Ridge Park'
- ap: 3661
  img:  'http://lh6.ggpht.com/duOeXcOSQLWosdD0JJXg3pWWQp4t5sL0x9qDHoTIBFNOzEW0t53Lt2cnwgV2E_Su0l1ajIQxPtVbbK_sDRaS'
  lat: 40.141775
  level: 5
  lon: -88.242671
  name:  'Marketplace Mall Fountain'
- ap: 3661
  img:  'http://lh4.ggpht.com/-2q6p_jcZ5xVswdwpO98pGsMWXnqxUlsBmhWA2F6xs0MbwejV7FTN7-kHSb4nlsfg3uUsrvdDmUM5v1lQ-Ia'
  lat: 40.086252
  level: 5
  lon: -88.249351
  name:  'A Lady Waiting for the Bus'
- ap: 3661
  img:  'http://lh6.ggpht.com/0IsQORyEW-bPA7sEbGspygtoI7ixEshm_2fUw5oeh9AeXg6JN5w0ypYIshpuKm-C0nG4Vm2XmpLvtWTZzWzd'
  lat: 40.111607
  level: 7
  lon: -88.233753
  name:  'Chabad Menorah'
- ap: 3286
  img:  'http://lh4.ggpht.com/CZA6uXTYgSkrccw1vqf6XFlfkzl6I7Rj79GOKIYGvd1Zem8O1u-opoJu65ma2eHnKdfysF0mOVGzc_am2Ns'
  lat: 40.110623
  level: 2
  lon: -88.22799
  name:  'Eta Kappa Nu Plaque'
- ap: 3661
  img:  'http://lh5.ggpht.com/2PB1u3cNuASfw9D_MIUzI1JvNofebK7zsuGqKoUApr-nUWYZ8y5CzxH6g7CdcY7ShBaVGrBrurkbwrdUPD7JBk55TH0Ouao5b_g2jUI1saBNUE8'
  lat: 40.106744
  level: 6
  lon: -88.225347
  name:  'The Red Herring Vegetarian'
- ap: 3661
  img:  'http://lh3.ggpht.com/wOZOXhKOnhbKEPMQke-zGIG_vheDkHM8q19B1n_is5H7t1whBcQxBIGZI6VIPNw8mdCNXG6EUZeSjd1YLdngdg'
  lat: 40.108965
  level: 7
  lon: -88.227184
  name:  'U of I Mother''s Association Plaque'
- ap: 3661
  img:  'http://lh6.ggpht.com/5tR3GirLCJ25x9j0BfwipsCOjlPMYGMmFrzEkhsJ4eGZ84FFe1_KnUmW3OBzAKAzQgPWPxt1WLJG2DvjFy6W'
  lat: 40.109015
  level: 2
  lon: -88.224982
  name:  'John J. Morris Jr. Memorial'
- ap: 3474
  img: http://i.imgur.com/5j1qaiT.png
  lat: 40.247118
  level: '?'
  lon: -88.631854
  name:  'Woodlawn Country Club'
- ap: 3474
  img: http://i.imgur.com/5j1qaiT.png
  lat: 40.152623
  level: '?'
  lon: -88.959529
  name:  '3ece21516a6a4709a991894897f5227b.16'
- ap: 3474
  img: http://i.imgur.com/5j1qaiT.png
  lat: 40.15412
  level: '?'
  lon: -88.962554
  name:  '6096c5e5bdc14679aaecf942915edbd3.16'
- ap: 3474
  img: http://i.imgur.com/5j1qaiT.png
  lat: 40.148025
  level: '?'
  lon: -88.95752
  name:  'd122ef5cb6fe4c8f859475336c8f75c6.16'
- ap: 3474
  img:  'http://lh5.ggpht.com/nWEtxuKQdy0teBBue1DYmG7P3SF5-3A6zlB7GwVHBWlolAZYGq6Br78lWcF9ltFy-KeSlozXie2RmU6JfCUX'
  lat: 40.142673
  level: 5
  lon: -88.244603
  name:  'Italian Statue'
- ap: 3474
  img:  'http://lh5.ggpht.com/yK94cjys6dDm62pDsBwEKJP8ioxZEFbb2oelmT5ZMmaNZPkqAXW00NHP3_7fvtyG796u2ZhKGfbY7To9Sdtz'
  lat: 40.088063
  level: 7
  lon: -88.248271
  name:  'Still Waters'
- ap: 3474
  img:  'http://lh5.ggpht.com/jQxBvX2jWXZCQP5ap9HmKaDDgG40pdH5nPpBNcYppZdxce6GWdxMRTYyqKrLxnk_TsmMAd7G6gRwJ6YI7S-v'
  lat: 40.107574
  level: 6
  lon: -88.227843
  name:  'Iconic Pillars'
- ap: 3474
  img:  'http://lh5.ggpht.com/szWXjFVU67N6nJHeZbrcsC2b8J7kXF7nBh_RooZZ5-ezcJsxWUvA7NZrGjJxfwTzVkc2HYMYLwh19UaYEbm3-Vmu4ZAG8959ZOG44cpeeyoUHtkD'
  lat: 40.108422
  level: 6
  lon: -88.227811
  name:  'Henry Administration Building'
- ap: 3474
  img:  'http://lh3.ggpht.com/1Z3mCRroEUysinW4hlDhAFNnfog3gwBM_aM8wYT6tQPiXMMmaRE9CrO5XM6QMe3UPHzMQSoxFmvWlkwOTRAv'
  lat: 40.111111
  level: 4
  lon: -88.230176
  name:  'U of I Mural'
- ap: 3474
  img:  'http://lh3.ggpht.com/1JgqaWx4DIU04ms-XmufSumQ5BDP07SB97-kBjzxDePlLQR9HagCTfqdviW9ErxCqpvXgynqeosQhERhCat6'
  lat: 40.108781
  level: 1
  lon: -88.226388
  name:  'Illinois State Water Survey Plaque'
- ap: 3474
  img:  'http://lh5.ggpht.com/8OgQHnRehZt9nl_igzh_0k19Qp5vRgGVHo2IukHGLeEp0iNTb_YUZRDseHY39JvlTc0ROrDtbmt8SBAEFPOwpA'
  lat: 40.108965
  level: 1
  lon: -88.226465
  name:  'Harker Hall Fountain'
- ap: 3474
  img:  'http://lh4.ggpht.com/3_LELG2r-A5s2d-x2dWyz6h7HzfjVR_KZn9AG0vhih9EalQIG43iL6LdKqKNpnGdGwguP9ZfnGF0KMq_KDE'
  lat: 40.105799
  level: 6
  lon: -88.230188
  name:  'Color Glass Windows at the Newman Center'
- ap: 3474
  img:  'http://lh6.ggpht.com/MzDfG6eMMwVr56zIpVxRJKU2aoUq-95CLeBhoiEQQKzpC2zulq5jFDLv1IK0JcRy5Q0PhRAreZ1p2ElsdnNu'
  lat: 40.108048
  level: 6
  lon: -88.226279
  name:  'Nuclear Magnetic Resonance II Plaque'
- ap: 2911
  img:  'http://lh3.googleusercontent.com/vw4Js8jf11Ok889K1stO5ujNjIO9Ah9DEbsg1xBTrVbaeyBetcG75B8YS8CkQA0KVC8NA5Z02n220SI1UzdB'
  lat: 40.10985
  level: 6
  lon: -88.227236
  name:  'Illini Union'
- ap: 2724
  img: http://i.imgur.com/5j1qaiT.png
  lat: 40.298925
  level: '?'
  lon: -88.019731
  name:  '7145096e98704d56a798894b4f1e6363.16'
- ap: 2724
  img: http://i.imgur.com/5j1qaiT.png
  lat: 40.545333
  level: '?'
  lon: -88.721078
  name:  'fb8660ab5f8c4ad3accbdfc2519cdd55.16'
- ap: 2724
  img:  'http://lh5.ggpht.com/llyW63Gnxl-lT-L_MhXsl4mdbmv29RvYTWcLt1R7JxibVPORq5Wd_UHIdT-vQ0XaUqZVQiN2mXkV4KJpp5sm'
  lat: 40.1159
  level: 5
  lon: -88.238508
  name:  'Dallas & Co: Costumes and Magic'
- ap: 2724
  img:  'http://lh3.ggpht.com/Jjm7ZUINFebdUQM0ZQth9oP9Uyw8xFVkOvgyZHQPHJ1pHk0-WPWHpdBULljg6f9GLhbmItzSwpavqyrf1zXwIQ'
  lat: 40.087721
  level: 8
  lon: -88.248276
  name:  'Work And Play'
- ap: 2724
  img:  'http://lh4.ggpht.com/H1kV6JSczzSbcCblAHg5ZOgITW1mBAz0_oLbqbzxBlijGTBn7TP6KwA6UI0AAGrCN4VF0DAF79Vcj6_2R4dsB8LRTq6tud6v'
  lat: 40.107753
  level: 7
  lon: -88.228913
  name:  'Zipcar-Wright Street & Daniel Street'
- ap: 2537
  img: http://i.imgur.com/5j1qaiT.png
  lat: 40.312242
  level: '?'
  lon: -88.201368
  name:  '2012 Employee Dedication Bench'
- ap: 2537
  img:  'http://lh3.googleusercontent.com/mLqVBFC7xDFMCE6vvQLt7bEwzmAtOWSfPoxCDNPJ0aagTDdQtJZKZTbPDs_QXPyKJ-tqZHYr89xorZ0Aa0M'
  lat: 40.128515
  level: 6
  lon: -88.212038
  name:  'Busey Woods Trail - A Helping Hand'
- ap: 2537
  img: http://i.imgur.com/5j1qaiT.png
  lat: 40.836961
  level: '?'
  lon: -88.683284
  name:  'ffe93ab08c324a60b69ada35f5ec9cbc.16'
- ap: 2537
  img: http://i.imgur.com/5j1qaiT.png
  lat: 41.997372
  level: '?'
  lon: -87.65524
  name:  '2a3bcd11eeeb486b8c2fc1a2fb41aac9.16'
- ap: 2537
  img: http://i.imgur.com/5j1qaiT.png
  lat: 42.161049
  level: '?'
  lon: -86.435539
  name:  '2d8b6287ab974aa2afb6fc8b20a2b2fb.16'
- ap: 2537
  img: http://i.imgur.com/5j1qaiT.png
  lat: 40.5586
  level: '?'
  lon: -88.52144
  name:  '37b8010f3577489a917b0fbc9441ffff.16'
- ap: 2537
  img:  'http://lh6.ggpht.com/eeOtj4-6PU8Dt6QXk_TJjgkoEGRW9L8YzUqZE8QV5ZMCHnqA5CzoQoxKpnjCvXwaIflUUvPJmO_S7BdvMhcuzw'
  lat: 40.117588
  level: 4
  lon: -88.241787
  name:  'Adam & Eve Mourning Over the Soul of Abel'
- ap: 2537
  img:  'http://lh6.ggpht.com/hmDofhQgtMboyY40gAShyf0g__uH_qYaFzVKnGKShUBNn-JjwpN526PPOYKyq8kvusIGRrMQIZ7ozPedDVm4iA'
  lat: 40.117495
  level: 4
  lon: -88.241616
  name:  'Lincoln Building'
- ap: 2537
  img:  'http://lh5.ggpht.com/n8MFM2pb-tE5i9EziJdygPPUK8VqEZ4BHGQaywz4lwe3WjwdgO0ohBCPZmiMoL00r3mVPmYnbCunJDeFbyk'
  lat: 40.118593
  level: 5
  lon: -88.240416
  name:  'Champaign Rail Water Tower'
- ap: 2537
  img:  'http://lh3.googleusercontent.com/vMuPZQrBjsuqibkb-FCbuVrZzyuUSOhjlXxxxRc9hq0Y7prkP-Fpk1Hh6o5Eq8BhT6s7GRP5S5z2KFUL7hJY'
  lat: 40.113606
  level: 5
  lon: -88.243766
  name:  'Mural on South Neil St.'
- ap: 2537
  img:  'http://lh3.googleusercontent.com/ZyXHLNlediISMVLqM9sUeZ0FEft3El4ni5P7GPOy5UF2YYBkTywnN5g1lkaer_lDNSvBUvg7bQ5yA_4Wd9qRWg'
  lat: 40.113521
  level: 5
  lon: -88.244122
  name:  'Artistic Graffiti at MCS'
- ap: 2537
  img:  'http://lh4.ggpht.com/zZ2YpVpDiI1KdIQ9iI7mGJD_VtwFztJ4ZF1vRehD9OSnQ2K3433SIg22svwcqDJVfeO2fjE3fdT4eHAJWGpi'
  lat: 40.104339
  level: 7
  lon: -88.234788
  name:  'Pi Kappa Phi Fraternity'
- ap: 2537
  img:  'http://lh3.ggpht.com/2bCNiD7SWsS3uzFLMO2cZh-LpHUEMQGnfTmcNx5vJapXho2TuXke630-7zop2Sq4fuY8nWVqy4VCG23mvnIJ'
  lat: 40.104168
  level: 7
  lon: -88.238808
  name:  'Alpha Gamma Rho'
- ap: 2537
  img:  'http://lh6.ggpht.com/2NvBiEF5E3wBXJ0JKc8NUUbuZm1PhUhLId32Sc_hNjaonDtojWnGWZRYwJgz-UJwMgucV2NHBfCK_51gIyU'
  lat: 40.084725
  level: 4
  lon: -88.251794
  name:  'Masonic Temple of Champaign'
- ap: 2462
  img:  'http://lh3.ggpht.com/NSxjcLPhxtGCmwD2w7NdudcJR60RYpLfLXjEWjqyD0dFnd8Xv9gqmuHrOFvrnMf8UvmDTUOqCMMpGYYKCyYK'
  lat: 40.084118
  level: 4
  lon: -88.252891
  name:  'The Church of Latter Day Saints'
- ap: 2537
  img:  'http://lh5.ggpht.com/qq3QmeyCYxWnJF_DzzI5wVvHF4foNyr_bF3_j5eVPHJ1omSbD2INOifPJEO3pjz4X1l4_wMGD4uOT1_w6Tid'
  lat: 40.086713
  level: 8
  lon: -88.248293
  name:  'Garden Patio'
- ap: 2387
  img:  'http://lh4.ggpht.com/IZUCSooIdo5qUAG278Al-JEKCRv842M0uDMusE78yaL4p-QCYu2A4UXE6X2jTFemr_w8ZfD6g_lQqjwbdg'
  lat: 40.109702
  level: 4
  lon: -88.227571
  name:  'The Ray Bulinski Room'
- ap: 2537
  img:  'http://lh6.ggpht.com/WtqWBwqpYTSw3g9ru5NwcFn5iK5STxWgy2kv4OUTWqwtzx76-9Msz0eqoiw0qpEYE1U4zdt9rzzNZMDNagNg'
  lat: 40.107943
  level: 6
  lon: -88.226751
  name:  'Class Of 1917 Plaque'
- ap: 2537
  img:  'http://lh4.ggpht.com/bt261V8sct8HMdZl4ckTcRY_H_hIF2eSIbeM-IkO-Tfx3NrbIUqQeoZs5tlk3Gzb5tXZ1toPUA3-iWayISuOdQ'
  lat: 40.075588
  level: 5
  lon: -88.191486
  name:  'First Baptist Church'
- ap: 2537
  img: http://i.imgur.com/5j1qaiT.png
  lat: 40.084522
  level: '?'
  lon: -88.169688
  name:  '9b5959945a1d4c84be40982a99b0e943.16'
