- ap: 8535
  img: http://i.imgur.com/5j1qaiT.png
  lat: 40.312242
  level: '?'
  lon: -88.201368
  name:  '2012 Employee Dedication Bench'
- ap: 8535
  img: http://i.imgur.com/5j1qaiT.png
  lat: 40.106513
  level: '?'
  lon: -88.5585
  name:  'Lodge Christian Church'
- ap: 6848
  img: http://i.imgur.com/5j1qaiT.png
  lat: 40.341598
  level: '?'
  lon: -88.525757
  name:  'c9c7bb1cc98a403fb4aff200ccc5f242.12'
- ap: 6848
  img: http://i.imgur.com/5j1qaiT.png
  lat: 40.341303
  level: '?'
  lon: -88.525734
  name:  'baa4782d579a4b15b184b207abe0257e.16'
- ap: 5161
  img: http://i.imgur.com/5j1qaiT.png
  lat: 40.275273
  level: '?'
  lon: -88.353476
  name:  '28272aaee3234a039246a4282f96c916.16'
- ap: 5161
  img: http://i.imgur.com/5j1qaiT.png
  lat: 40.342828
  level: '?'
  lon: -88.525765
  name:  '487b3aa9f43e4b18b2b7699b56f0d8e0.12'
- ap: 4411
  img: http://i.imgur.com/5j1qaiT.png
  lat: 42.448182
  level: '?'
  lon: -89.376652
  name:  '7ecce09847b64557890010c347979cbf.12'
- ap: 4411
  img: http://i.imgur.com/5j1qaiT.png
  lat: 41.947994
  level: '?'
  lon: -89.079861
  name:  'a4b0119241ae4884a36a8fbe128662e9.16'
- ap: 3848
  img: http://i.imgur.com/5j1qaiT.png
  lat: 42.491938
  level: '?'
  lon: -88.599246
  name:  '39bffa6d9dd44809968df620f84eee82.16'
- ap: 3474
  img: http://i.imgur.com/5j1qaiT.png
  lat: 42.101598
  level: '?'
  lon: -89.094017
  name:  '2622c0cfaf2c460eb88b2f5c1f72cf4f.16'
- ap: 3285
  img: http://i.imgur.com/5j1qaiT.png
  lat: 42.161049
  level: '?'
  lon: -86.435539
  name:  '2d8b6287ab974aa2afb6fc8b20a2b2fb.16'
- ap: 2537
  img: http://i.imgur.com/5j1qaiT.png
  lat: 42.436153
  level: '?'
  lon: -89.331947
  name:  'de6c444932d8447a8df7d51a7638ba08.16'
- ap: 2537
  img: http://i.imgur.com/5j1qaiT.png
  lat: 41.964092
  level: '?'
  lon: -87.633659
  name:  '16dd983c6c30490faf1c45bfd3e1ff1e.16'
- ap: 2537
  img: http://i.imgur.com/5j1qaiT.png
  lat: 42.639923
  level: '?'
  lon: -89.685309
  name:  '77fb80dbe4054ed692ee42553a35bd12.16'
- ap: 2537
  img: http://i.imgur.com/5j1qaiT.png
  lat: 41.961753
  level: '?'
  lon: -87.635149
  name:  '6c2507186ab34c85872712308bb809fe.16'
- ap: 2537
  img: http://i.imgur.com/5j1qaiT.png
  lat: 41.962826
  level: '?'
  lon: -87.634756
  name:  '247a6de775a146a4accf8b1a11a1e0cc.16'
- ap: 2537
  img: http://i.imgur.com/5j1qaiT.png
  lat: 41.963042
  level: '?'
  lon: -87.634398
  name:  '70afae3a6c894f6799117a1c37f05e9d.16'
- ap: 2537
  img: http://i.imgur.com/5j1qaiT.png
  lat: 40.346898
  level: '?'
  lon: -88.761737
  name:  '7146a4c659e449f08cdcfb28a7a9f30e.16'
- ap: 2537
  img: http://i.imgur.com/5j1qaiT.png
  lat: 41.052451
  level: '?'
  lon: -89.051292
  name:  'd5f8a7d523604257abcf8dbb69a636ee.16'
- ap: 2537
  img: http://i.imgur.com/5j1qaiT.png
  lat: 41.964336
  level: '?'
  lon: -87.633564
  name:  '7fbe13944b5d4af78e982aada5eda453.16'
- ap: 2537
  img:  'http://lh6.ggpht.com/9ocSZtxwhI0ZOXkGFEbDOH1572LrymOwYpROz-hP90Uk4BAS8FIjCB4GXt2ndpQrlEV-tG4qc0zoMlk9693z'
  lat: 40.12977
  level: 4
  lon: -88.271927
  name:  'Citizens Park'
- ap: 2537
  img:  'http://lh3.ggpht.com/BTOxkIG5jV6VaSJtyt1Kge-WlIsvddZuz7YzzqkQhAMWxgfE71ab2wqWdKY20M9-6zbGlVq43XMJ2CrZDqU'
  lat: 40.127246
  level: 8
  lon: -88.276738
  name:  'Kraft Giant Macaroni'
- ap: 2537
  img:  'http://lh4.ggpht.com/tLO2wjyCgyune3KDOlQMV_oiDRxVsHqO1gAG_0xs9TvKOiuWRVmJcO29WI7jELxoxncaXpy91kMa89Uj65JVNw'
  lat: 40.11784
  level: 7
  lon: -88.24286
  name:  'Kaufman Memorial'
- ap: 2537
  img:  'http://lh5.ggpht.com/quR7Kzalr2uxeV70VwLSj7LDpe5ywDhO4LlSp1eTAhoVOCsyWIga42hKlmcrjiGlI3hZd24DWvtOfYe21RM9yA'
  lat: 40.11721
  level: 5
  lon: -88.236627
  name:  'Don Moyer Boys and Girls Club'
- ap: 2537
  img:  'http://lh5.ggpht.com/3RfiPeOzF67ubNX-vkwUJ6-EYld6BKuoBernq0_9kOjlIsSPr3saR9FIQzN7uiw7ouF0CpNflOnL0mUj9zbqdQ'
  lat: 40.109452
  level: 5
  lon: -88.229031
  name:  'Illini Hall'
- ap: 2537
  img:  'http://lh5.ggpht.com/1yq3oFq9p_Yl5cUf5h7IEfZPAbae2MT7lA0DFo1DHwPWPZJJ-Ez-2AE2oTzHEHWsEJQVUcUwh3j_d3kOYgDS'
  lat: 40.110095
  level: 6
  lon: -88.22862
  name:  'Alma Mater Plaza'
- ap: 2537
  img:  'http://lh4.ggpht.com/q2L_InMJy4JZq79dX9LLf9XauoaXGOLl7SWvVyD9F_jIgyqpn7SsqHfY9EMYq1SLteTpj0cQDZN4f9x0IuvV5w'
  lat: 40.107273
  level: 6
  lon: -88.222942
  name:  'Tryon Festival Theater'
- ap: 2462
  img:  'http://lh5.ggpht.com/o-kaBPu6kwiDnL2T5S5uQNOaquEtumPFT9hq4jX9uRcqpMRXMO4B80QO3gskaj677koefR0kBxjAnWHs6uwL'
  lat: 40.108675
  level: 5
  lon: -88.221303
  name:  'Levis Faculty Center'
