- ap: 5160
  img:  'http://lh6.ggpht.com/MsCeiBKy8tV3-ziINPCBPzkisfwOnBClSPr68FUxT1uMHlVmqtyTYYxNAZapU8bvWdcmm0lsmIzjMyv0CTJ2tQ'
  lat: 40.095364
  level: 2
  lon: -88.217386
  name:  'Miles C Hartley Selection Garden'
- ap: 5159
  img:  'http://lh4.ggpht.com/2tHD_AHYQu0kWuwLX2HMYWBG4txVkuWsBEfzWLL39npWp8kMSHiUKxSJM1E7yhimuMVUJ-RIlSSKsgjETvtr'
  lat: 40.110524
  level: 5
  lon: -88.228706
  name:  'Leo Roy Tehon Memorial'
- ap: 4785
  img:  'http://lh6.ggpht.com/0IsQORyEW-bPA7sEbGspygtoI7ixEshm_2fUw5oeh9AeXg6JN5w0ypYIshpuKm-C0nG4Vm2XmpLvtWTZzWzd'
  lat: 40.111607
  level: 5
  lon: -88.233753
  name:  'Chabad Menorah'
- ap: 4598
  img:  'http://lh3.ggpht.com/bVNaflT1bCgFsUDizKeHZFExlTyUFdVVpjEqrpacNh843YeRnU98IEQb8a02eE36XmEJXAkBC-FG1_3ezYP7'
  lat: 40.095365
  level: 5
  lon: -88.216784
  name:  '1867 Garden'
- ap: 4411
  img:  'http://lh4.ggpht.com/N-xxTzGXK34K-VdTOWaWrFJeP9_SLZ7ZBluxK2mjP51yZx_5HOMi_mb4Nu2rWgo3gOqUb19_cPb662sI7td_'
  lat: 40.105687
  level: 2
  lon: -88.225714
  name:  'Smith Memorial Hall'
- ap: 4411
  img:  'http://lh5.ggpht.com/J4IbsPUjPF6cIlktTr1tOGHi61krS9o1eXeuAlPRBrSYUQrwdyShfNzuzxD0epa_cBMPF1xJ9YhoBA5VOQtYRw'
  lat: 40.105467
  level: 4
  lon: -88.225644
  name:  'Smith Music Hall'
- ap: 4186
  img:  'http://lh4.ggpht.com/ZIOjKYlH2wMvdRD5A5HKGJPgBUYAaA7xHjGYnoXNzhzPIE6KR05FBciTJcN-AojoLyuwRlp3SF3TR1PXBrUPjw'
  lat: 40.094935
  level: 3
  lon: -88.216986
  name:  'Leroy Hubble Honorary Bench'
- ap: 3661
  img:  'http://lh3.googleusercontent.com/vw4Js8jf11Ok889K1stO5ujNjIO9Ah9DEbsg1xBTrVbaeyBetcG75B8YS8CkQA0KVC8NA5Z02n220SI1UzdB'
  lat: 40.10985
  level: 5
  lon: -88.227236
  name:  'Illini Union'
- ap: 3661
  img:  'http://lh5.ggpht.com/f1O8bFXHTg2PTOAUVLvrqk5xx5ps9SeqhpJ1RIPtSxm0I-e7J275e2ujJp3lFQGHUBW_vS90KOsrcdLDJ84l4g'
  lat: 40.110797
  level: 3
  lon: -88.225321
  name:  'Multiphase Fluid Dynamics Plaque'
- ap: 3661
  img:  'http://lh4.ggpht.com/OKjZe5DNbqsjBvhTWI2C_GTSbIMUanllb49pzoadj3izBmngp5kFNgLokw6jbL1Y3BnreLD-LmzLdNEx-eRI'
  lat: 40.105694
  level: 2
  lon: -88.225345
  name:  '1981 Iota Chapter White Anchor'
- ap: 3474
  img: http://i.imgur.com/5j1qaiT.png
  lat: 40.116547
  level: '?'
  lon: -87.505045
  name:  '28afad530ceb4c0c85a275b28dc28b83.16'
- ap: 3474
  img: http://i.imgur.com/5j1qaiT.png
  lat: 40.041848
  level: '?'
  lon: -87.638867
  name:  '8bb866f3c7b14c6086dcf2cf7a8c038d.16'
- ap: 3474
  img: http://i.imgur.com/5j1qaiT.png
  lat: 40.057574
  level: '?'
  lon: -86.911455
  name:  'a7e6dd7a938f40d28ef6105abe0dc296.16'
- ap: 3474
  img:  'http://lh3.googleusercontent.com/v44Gf5oEZGcwkQcA2wWz-uAeDFESHj7sEloxdCJd316RPH3w_ln8_9mBEMbAqGyI_2Y2qaYp525PnRip9Rg'
  lat: 40.105315
  level: 1
  lon: -88.226125
  name:  'U of I Observatory'
- ap: 3099
  img:  'http://lh5.ggpht.com/W2upB0MQ9l_1Z1JYjKFslTSSU-oi3b_kOidwTlG4pOCZRHWiD52CzcX2WMquuVEnMpxhtSRQOuAdLgDn8rs'
  lat: 40.096671
  level: 2
  lon: -88.217873
  name:  'Skull And Wagon Wheel'
- ap: 3474
  img:  'http://lh4.ggpht.com/jEbgkWj4jIpuTGF0BsLL3Qhx62u2Xh7IFfVmCspv6e6FjmSfbeTYkwQgAZ75wN8NpO2Lus14Khr5O4f9jvup'
  lat: 40.094517
  level: 5
  lon: -88.217269
  name:  'White Oak'
- ap: 2911
  img:  'http://lh6.ggpht.com/g00CHgvPQnSjjPtDBIePwTKCNdh3HB7MmvYFvkSM7tmZuoBJ4WaKiltQhrfxIflpUy2xiNU-Z_Z2PGCTnXfK'
  lat: 40.110725
  level: 5
  lon: -88.223784
  name:  'Anthony Leggett Superfluidity Nobel Prize Memorial Plaque'
- ap: 2724
  img:  'http://lh5.ggpht.com/KQ7QYG8rWnVxSme_uq3cOu8IreZRbztWWKHTNPBy_6GvCqP3ywy-HEoSUxqloLDeUggEVV0UhKLy8Ja0v0yPdQ'
  lat: 40.110844
  level: 5
  lon: -88.224091
  name:  'Institute of Aviation'
- ap: 2537
  img: http://i.imgur.com/5j1qaiT.png
  lat: 41.835853
  level: '?'
  lon: -89.480623
  name:  '17882b9b6e3140739dc93df9bd849dec.12'
- ap: 2537
  img: http://i.imgur.com/5j1qaiT.png
  lat: 41.360718
  level: '?'
  lon: -88.991258
  name:  'bd5ea812a7ab407fad92afc09c9bc4b0.16'
- ap: 2537
  img: http://i.imgur.com/5j1qaiT.png
  lat: 39.912869
  level: '?'
  lon: -88.271225
  name:  '7ae31819d59a42a286e4aba7926a74ac.16'
- ap: 2537
  img: http://i.imgur.com/5j1qaiT.png
  lat: 40.273821
  level: '?'
  lon: -88.676394
  name:  'Blue Star Highway Memorial'
- ap: 2537
  img: http://i.imgur.com/5j1qaiT.png
  lat: 42.588123
  level: '?'
  lon: -87.807579
  name:  'c106cbaedc2348069ff32d60674e1d91.16'
- ap: 2537
  img: http://i.imgur.com/5j1qaiT.png
  lat: 41.959231
  level: '?'
  lon: -87.640317
  name:  '545997a83dd54f2ebec2222456485699.16'
- ap: 2537
  img: http://i.imgur.com/5j1qaiT.png
  lat: 40.152737
  level: '?'
  lon: -88.962796
  name:  '390e5deafc2d49f8a5a35fe8bfa5cbe1.16'
- ap: 2537
  img: http://i.imgur.com/5j1qaiT.png
  lat: 40.477976
  level: '?'
  lon: -89.797635
  name:  '4c524c84bbb547f59b1ea35096b4e9ae.16'
- ap: 2537
  img: http://i.imgur.com/5j1qaiT.png
  lat: 41.431428
  level: '?'
  lon: -88.345007
  name:  'e5729b394f784af7b533789a1237123b.16'
- ap: 2537
  img: http://i.imgur.com/5j1qaiT.png
  lat: 41.053466
  level: '?'
  lon: -89.04979
  name:  '94b2245b5bf546fe91834ff8f19dc1f4.16'
- ap: 2537
  img:  'http://lh4.ggpht.com/ryDcZUJK2aQ_fI0-hY850_t4ZmG2hNmtCx7cxbX83w3cnUWdI-ywpTuQrUVQNxGl3_DcxxNr6bupfDTsagRa'
  lat: 40.117107
  level: 7
  lon: -88.242467
  name:  'Radio Maria'
- ap: 2537
  img:  'http://lh5.ggpht.com/BUGNnLReyCBJJj9_zpqgwv5_CAyiW8fWBpyVs0ip1hT5NEE6YKCYzlc8ahldKzk_xv-4uckNJNb6NrJd6r33qg'
  lat: 40.116989
  level: 7
  lon: -88.242255
  name:  'Blind Pig'
- ap: 2537
  img:  'http://lh4.ggpht.com/HMXgPSuj_Qc06z-u_ElF6pgeWVoxqEAZoT0woVULj2jB8M-G8a4In71YBTnsPrCaJTLx0DFoqB8lQ2847L9M'
  lat: 40.112187
  level: 5
  lon: -88.235913
  name:  'Scott Park Pavilion'
- ap: 2537
  img:  'http://lh3.ggpht.com/dBN6P2wGkcXj-MNbPjAJzN-RxmK93xRIhp29sZ6-ZmsbFoey4dGO51tP1FIFCzHjs4CIhHd-xGmflcW43R0w'
  lat: 40.10604
  level: 4
  lon: -88.224625
  name:  'Asian American Culture Center'
- ap: 2537
  img:  'http://lh6.ggpht.com/eVUed3229Zh9saFzaZQcI6LXsyDB0IJxc9v-Aa9Oa0AhjQLXBIVSuu1qUQwJVXWgmXYPY9sqTzK73Le4BuU'
  lat: 40.11122
  level: 5
  lon: -88.224097
  name:  'Nuclear Radiation Laboratory'
- ap: 2537
  img:  'http://lh3.ggpht.com/WZ2x7xVM-rICLElKme5elfnFzWATxKyhh2ur0_-2QrpcSIc-HAYOqlwsp3cewAHAN0W751RblRvG3TzjraCj'
  lat: 40.110991
  level: 5
  lon: -88.223333
  name:  'Loomis Laboratory Jacob''s Ladder Device'
- ap: 2537
  img:  'http://lh4.ggpht.com/hJDi8J7CZU-933hT0Culp2nhslv6p8rDRPdTFz6FwNaAjB5CmfkaQzj9sM--E-QBvI8yvIJn1F2jxy7ZKWlh'
  lat: 40.10816
  level: 5
  lon: -88.234245
  name:  'Stratford House'
- ap: 2537
  img:  'http://lh4.ggpht.com/OFVPvdgB3GVpaQknHdnt2okgP3xcQksAH3wvOGYVuP85MMlxo3bQ2SRpBb0hzNfjQoC_5LlRqaE6jLB-h9Gr'
  lat: 40.108092
  level: 5
  lon: -88.234589
  name:  'Koinonia Plaque'
- ap: 2537
  img:  'http://lh6.ggpht.com/LxVyXEFJmvSZ271mlFfYmCwyb05Kz8cIRxzMt24ZVhRzsH09nxErJw4gKErktjKpCARWfVl4Mla70NoODK2bng'
  lat: 40.11187
  level: 5
  lon: -88.220692
  name:  'Atmospheric Sciences Building'
- ap: 2537
  img:  'http://lh6.ggpht.com/D4r1KWBUGF8ZJDUXBHVcNVeP66FVliNQrEX0n-jZkYyFnWUfZ_vfBIAt4padKNgvgmextrkL2-kxkv6JbS3u'
  lat: 40.110394
  level: 5
  lon: -88.219509
  name:  'University Of Illinois'
