- ap: 16592
  img: http://i.imgur.com/5j1qaiT.png
  lat: 41.634356
  level: '?'
  lon: -87.178294
  name:  'd45d47f7d3a34245812bec73013df8d1.16'
- ap: 16592
  img: http://i.imgur.com/5j1qaiT.png
  lat: 41.156259
  level: '?'
  lon: -87.657985
  name:  'd8beb8f8277845a9b61f2f4176f70a00.16'
- ap: 14720
  img:  'http://lh4.ggpht.com/vKgqIecJshMQxrhO-ZhMjcIyARuJdyU63wKfzAG0wouZex6LVzO46Qi5zM1N3Jx8xyantDFk9sQGsSEBhb-y'
  lat: 40.101327
  level: 8
  lon: -88.251412
  name:  'Zeus Memorial'
- ap: 12283
  img:  'http://lh6.ggpht.com/5CDidk0pqfUtSW_Yqouuf3diX8drdMu9DoT728QpSz8q6A-WxNhT0yLcgM_7gGpyIAeXrHiTkIzzaVJFgnN9WA'
  lat: 40.099852
  level: 8
  lon: -88.251947
  name:  'Our Friend Tim Palmer'
- ap: 11346
  img:  'http://lh6.ggpht.com/yjfa0jJLjsfLRf9Zn9iafMp3MuIhgCi0WiOCF8GqTGiGvzEnsPGrFa0H1n-uzWhVehLbt44ShthsA32VzHd5iQ'
  lat: 40.099737
  level: 8
  lon: -88.251157
  name:  'Tyler Van Atkins Memorial'
- ap: 10033
  img:  'http://lh5.ggpht.com/4DJAFPeZ_w65Km7VDnsbOqouQaeBuPuxA0KHPQToT_B6o1hBxzdu3kn89UhHgv22Ygj52Fx9QqcbzOytuw'
  lat: 40.100078
  level: 8
  lon: -88.250683
  name:  'Brian Clark Memorial Plaque'
- ap: 8722
  img:  'http://lh6.ggpht.com/qSCp5fQMlyCQ-GOAgiSFy5gaHJei705Pa3eOlJiYO5wGjZTYtjA8q7QWWfAWcLKjxZSaFiMfXOPR8SO7rWU'
  lat: 40.099353
  level: 8
  lon: -88.251876
  name:  'Raymond B. Cattell Memorial'
- ap: 8159
  img:  'http://lh3.ggpht.com/rUgM7jkTqL0VHxvsSW0yWuNJF5UrU62ITflghfn4PfKjn6L4WGz0ALkv98fc_q9dmK9SSpU1PXIawGvcRwE'
  lat: 40.098246
  level: 8
  lon: -88.251974
  name:  'Hessel Park'
- ap: 7783
  img:  'http://lh5.ggpht.com/1yq3oFq9p_Yl5cUf5h7IEfZPAbae2MT7lA0DFo1DHwPWPZJJ-Ez-2AE2oTzHEHWsEJQVUcUwh3j_d3kOYgDS'
  lat: 40.110095
  level: 3
  lon: -88.22862
  name:  'Alma Mater Plaza'
- ap: 7035
  img:  'http://lh4.ggpht.com/B_I1b0Jy3vW41RX8jjCNPP68AULplU0Pf8ddolyKmpEWCfBVShQkmjF1HfTPzDjmBBQGgOs0jHW-rUR0mv8BkA'
  lat: 40.098789
  level: 8
  lon: -88.251685
  name:  'Curtis William McKinney Memorial'
- ap: 7035
  img:  'http://lh3.ggpht.com/lzCSS0_tjwUV7JQ2fgLI0e05IrzPxlVUs-6aEPOwUv67IanQJSTi71gkw0SGm8asmoE_r3Xoh048Fd9xRpE'
  lat: 40.099169
  level: 8
  lon: -88.251419
  name:  'Lyman Larson Memorial'
- ap: 7035
  img:  'http://lh3.ggpht.com/G1CvGhpethi5UmprDWxZN9rTblHa3anSsQz1UPgJtkREkfN7lDFoxFObst0609Cg5mofuZxJKr0ddNKhY4VL'
  lat: 40.098464
  level: 8
  lon: -88.251426
  name:  'Ruth Haasis Memorial'
- ap: 7035
  img:  'http://lh4.ggpht.com/4LxsGZZMk3DnpJXUvqzrL54CHSP5TDXjUnDJyHmCCTtCJIjGEI7kxT9g4uxfSPh0X6yGLgQo1jfqbu7B8VEr'
  lat: 40.099084
  level: 8
  lon: -88.251826
  name:  'Irina P. Stewart Memorial Plaque'
- ap: 6659
  img:  'http://lh3.googleusercontent.com/v44Gf5oEZGcwkQcA2wWz-uAeDFESHj7sEloxdCJd316RPH3w_ln8_9mBEMbAqGyI_2Y2qaYp525PnRip9Rg'
  lat: 40.105315
  level: 4
  lon: -88.226125
  name:  'U of I Observatory'
- ap: 6472
  img:  'http://lh6.ggpht.com/pYay9oPZwUNKfLdWJ1JMI5tA9-Gd0vsBddLTz7fXN6wUW7F23hLMWRwFZNnXyomRkc2f9sqCGMxNWuYHPFZx'
  lat: 40.109142
  level: 4
  lon: -88.228748
  name:  'Kappa Alpha Psi Plaque'
- ap: 6098
  img:  'http://lh3.ggpht.com/8FqlniFErK7cq59awiT84u8KyV4FIRd5krZzfYa58zJToFps7whdBnriPqvO_kFKeLUE3SWbJhCOPuvUQzaGFA'
  lat: 40.100691
  level: 8
  lon: -88.251337
  name:  'In Loving Memory of Zeus'
- ap: 6098
  img:  'http://lh3.ggpht.com/VrbXGwlUosNLEkVdshWUFoVa3KtlJQoEU4yLYygvftYbPCmxo644Uvar_v8Kb9RS53hB0tXgvV44GotrxZyu'
  lat: 40.098592
  level: 8
  lon: -88.251676
  name:  'Ruth and Fred Steigmann Plaque'
- ap: 5535
  img:  'http://lh5.ggpht.com/dRrlHXlT2nMNgZNHiYo52ha9L-Xay9DyOJR2Cpqs74hgAJ09abn9OTAtMzRVedt1_R9ObZllLO98vRhNMfgTgVsJCk1S-HJwX_XgiGpG4lz3a328'
  lat: 40.11671
  level: 5
  lon: -88.24263
  name:  'Cafe Kopi'
- ap: 5348
  img:  'http://lh4.ggpht.com/ryDcZUJK2aQ_fI0-hY850_t4ZmG2hNmtCx7cxbX83w3cnUWdI-ywpTuQrUVQNxGl3_DcxxNr6bupfDTsagRa'
  lat: 40.117107
  level: 5
  lon: -88.242467
  name:  'Radio Maria'
- ap: 5348
  img:  'http://lh5.ggpht.com/HhVreJipNvxPRVFpmsh2BPo9PcpPO2Q2l3jCpDjIKgfKGycoTNPXR4DKiYccBXW4X-4dJf_vV0ESsWAWHcChsg'
  lat: 40.100936
  level: 8
  lon: -88.250855
  name:  'Donald F. Bresnan Memorial'
- ap: 5348
  img:  'http://lh5.ggpht.com/tfAfnmo6mSMc6U0P533NMFJRGwn6lasmx-MLR2JJg1QOizMKkghFU8E7hb2zgYgdQEbgnCJUlvZIMdrrJe4'
  lat: 40.100822
  level: 8
  lon: -88.25193
  name:  'Seeds of Kindness Bench'
- ap: 5346
  img:  'http://lh6.ggpht.com/RW34ntixvJkg7fD71TPYo_4KIsBzA0-a-6yXO0jKPbpGxX5gIGC7kBI-pXEF9OHhuolcAGW2fxyK3Pt42Iev'
  lat: 40.110489
  level: 4
  lon: -88.227412
  name:  'Bus Stop - Illini Union, Westbound'
- ap: 5161
  img:  'http://lh5.ggpht.com/ENeQgqydWbi9-Oyf7vizunoRqJdsZV4o0RA_956wjGI8hqpTCHBPyWMpbTrrkwYpj5tgzDRvevGmvH4eFRU'
  lat: 40.099593
  level: 8
  lon: -88.251724
  name:  'Blessings from Devon Elaine Cattell'
- ap: 4598
  img:  'http://lh3.googleusercontent.com/M1BXbCtfOfi1ipACxyQaE2jCbcLCxQTsJVIUli8GgprQaS2WmnVuSsqMoFaWub8LM6VF7KK4wSH9SSGdrXM'
  lat: 40.117287
  level: 5
  lon: -88.242984
  name:  'Mural for the Blind Pig Brewery'
- ap: 4598
  img:  'http://lh5.ggpht.com/BUGNnLReyCBJJj9_zpqgwv5_CAyiW8fWBpyVs0ip1hT5NEE6YKCYzlc8ahldKzk_xv-4uckNJNb6NrJd6r33qg'
  lat: 40.116989
  level: 5
  lon: -88.242255
  name:  'Blind Pig'
- ap: 4411
  img: http://i.imgur.com/5j1qaiT.png
  lat: 42.672124
  level: '?'
  lon: -90.126884
  name:  'b98fc89b29194e6cba30b07adabe0c23.16'
- ap: 4411
  img: http://i.imgur.com/5j1qaiT.png
  lat: 42.196926
  level: '?'
  lon: -89.592984
  name:  'c390cab2367847948d38fd540b66a4d8.12'
- ap: 4411
  img:  'http://lh4.ggpht.com/xS51--rXA9M_IHpXWgFQxKZU-YbD-1zk-nug6k7RyKl8rYeam_YFwMmLNWRRHHzI-rOTGyhTJQQ314WudSQJ'
  lat: 40.117132
  level: 5
  lon: -88.243009
  name:  'Fountain in the Alley'
- ap: 4411
  img:  'http://lh4.ggpht.com/PHV-1ZpFzCAl_ViCKwBY_x2pIDbVyaT7wJH1sTvFJCxrSdRrO1x7NaXq9OdRGwz_Mls4iwk6wuGHMBArfV54'
  lat: 40.098688
  level: 7
  lon: -88.25063
  name:  '"New Holland Yellow Dinosaurs" at Hessel Park'
- ap: 4411
  img:  'http://lh5.ggpht.com/BK5TjuMzuJgDVPz4C8HRjfZKeaoISnPJ-H7VaYeMNUYmxvvUY7RzIIlR13FjW9HHF_i5-znqs3O6nMxKPfcj'
  lat: 40.102188
  level: 5
  lon: -88.251507
  name:  'Little Free Library Charter 5753'
- ap: 4411
  img:  'http://lh6.ggpht.com/S7Utf4_59vQkAP5JhC3mdbzVLKBTt-0zoJ2UjfxUnN10VBbixO-_VwvssWd1LbFSx_yafaijd_U0wTGo870'
  lat: 40.100941
  level: 8
  lon: -88.251314
  name:  'Gabriel Patrick Maxeiner Memorial Plaque'
- ap: 4411
  img:  'http://lh4.ggpht.com/mlUN5QXAR7rKFvUg7yhxcae3udkR7zCJVaWt5sq_YA47piV6tRi42RNN9fEtT_FafT7lhqg26WM1VETbz5E'
  lat: 40.098239
  level: 8
  lon: -88.25376
  name:  'Hessel Park Christian Reformed Church'
- ap: 4411
  img:  'http://lh5.ggpht.com/C6wRSaEWO1NYGY5luyYZKHG3Z3aib4aflaPdV7B9G6N6adE890g3QuPRSvCUhsdFHqjoVUjo27mfz9WsjXyuhQ'
  lat: 40.100521
  level: 8
  lon: -88.250864
  name:  'Gabriel Patrick Maxeiner Memorial'
- ap: 4411
  img:  'http://lh5.ggpht.com/-UWK84I78Sftf7yg-E2pg6xEAWTvyiThgJBJlxbqOZPYKNmzQ8uGgEEMetzplrG1HpXG5kQqNItUeXKxOHDsGA'
  lat: 40.100286
  level: 8
  lon: -88.251747
  name:  'Tennis Anyone'
- ap: 4411
  img:  'http://lh6.ggpht.com/1El0oK6CWDh7rAQeFmPEW_dA252pdq7piTtjtuQCkZvwRa689NLjEafLqQ35TI5qCW3Lmhja9PLQqKxFs9Ha'
  lat: 40.110627
  level: 4
  lon: -88.227584
  name:  'Tau Beta Pi Statue'
- ap: 3661
  img:  'http://lh4.ggpht.com/PfcTU4XsA06ThtmCWydIWhTsN3gR4jrqnrKxu0O5lhyibhRdKMEaf3jM8VNhViF8qLf13b01E71wr_ajxn0'
  lat: 40.118465
  level: 7
  lon: -88.245077
  name:  'Mural at Nitaya'
- ap: 3661
  img:  'http://lh3.ggpht.com/PKHUaHtGQlwpb8q3mUpPJtjb51_am_ieb_9X0u8g1PI_eg7NxFQU2fqeV8XjnIIDy0rCMtqsfMJLerOBo8M'
  lat: 40.118579
  level: 6
  lon: -88.244588
  name:  'Mural on Art Theatre'
- ap: 3661
  img:  'http://lh6.ggpht.com/cYQLNtCsiRGXd_y7-ZdI4jGlNRpC4oiy2Z7UT7etDH3FBvBRQDtOW_rY0NBvKLJMnTw_EXH75NDGMcI6UkeV'
  lat: 40.105618
  level: 5
  lon: -88.229005
  name:  'The Chapel of St. John the Divine'
- ap: 3661
  img:  'http://lh4.ggpht.com/1LUozaukItxu6cHk_7wORzYYNvskCHi_wUxbNOAcIXNbgLuYn7VElFG0tzY02e6pY-AEL8nNHAL6ewLCaLMH'
  lat: 40.10567
  level: 5
  lon: -88.228634
  name:  'Public Broadcasting Plaque'
- ap: 3474
  img: http://i.imgur.com/5j1qaiT.png
  lat: 41.629023
  level: '?'
  lon: -87.5024
  name:  'd8632611874f4a2f85619dcc20203869.16'
- ap: 3474
  img: http://i.imgur.com/5j1qaiT.png
  lat: 41.601651
  level: '?'
  lon: -87.498746
  name:  '57c301d5d4da40429bfff966ea83cd63.16'
- ap: 3474
  img: http://i.imgur.com/5j1qaiT.png
  lat: 42.312792
  level: '?'
  lon: -89.632643
  name:  '3220b6dde5b14f1ab85f1c33253a7d34.12'
- ap: 3474
  img: http://i.imgur.com/5j1qaiT.png
  lat: 41.291342
  level: '?'
  lon: -87.418888
  name:  'ebaa55e179334ea69f64776c114fafa8.16'
- ap: 3474
  img: http://i.imgur.com/5j1qaiT.png
  lat: 41.293897
  level: '?'
  lon: -87.41188
  name:  '370c1456dd2546019ba7756649c1fa56.16'
- ap: 3474
  img: http://i.imgur.com/5j1qaiT.png
  lat: 41.628006
  level: '?'
  lon: -87.499914
  name:  'bd36c7bec7e14e09ac96c55382b4ddd2.16'
- ap: 3474
  img: http://i.imgur.com/5j1qaiT.png
  lat: 41.605596
  level: '?'
  lon: -87.497836
  name:  'c1990079f744499ea0e6d41713fa8767.16'
- ap: 3474
  img: http://i.imgur.com/5j1qaiT.png
  lat: 41.580933
  level: '?'
  lon: -87.501085
  name:  '2aa5b52a10494843b2aed8c332d78ad1.16'
- ap: 3474
  img: http://i.imgur.com/5j1qaiT.png
  lat: 41.290431
  level: '?'
  lon: -87.407762
  name:  '153cafa57681448e922d78f7236fbf0e.16'
- ap: 3474
  img: http://i.imgur.com/5j1qaiT.png
  lat: 41.289556
  level: '?'
  lon: -87.406103
  name:  '56d672f6c7fe4a71a7fbab5e2f0ffb06.16'
- ap: 3474
  img: http://i.imgur.com/5j1qaiT.png
  lat: 41.585024
  level: '?'
  lon: -87.500008
  name:  'efba7666f9bf499a86aed86e9d362fd2.16'
- ap: 3474
  img: http://i.imgur.com/5j1qaiT.png
  lat: 41.592122
  level: '?'
  lon: -87.500642
  name:  '08391643a5dc44569bf52537964a223f.16'
- ap: 3474
  img: http://i.imgur.com/5j1qaiT.png
  lat: 41.584331
  level: '?'
  lon: -87.500013
  name:  '1119052e8024476499543cb5eaca7c8b.16'
- ap: 3474
  img: http://i.imgur.com/5j1qaiT.png
  lat: 42.672175
  level: '?'
  lon: -90.127145
  name:  'f0ad0be166484dff817ae9e279082e3d.16'
- ap: 3474
  img: http://i.imgur.com/5j1qaiT.png
  lat: 41.290412
  level: '?'
  lon: -87.408568
  name:  'fd617e0d4c834d6584b5a75fcc8848a0.12'
- ap: 3474
  img: http://i.imgur.com/5j1qaiT.png
  lat: 41.28875
  level: '?'
  lon: -87.405809
  name:  '3ea64ec46b434936b245c1a7cb2a83cb.16'
- ap: 3474
  img: http://i.imgur.com/5j1qaiT.png
  lat: 41.595108
  level: '?'
  lon: -87.499788
  name:  'f02765ef6e224455841eecefabf63e58.16'
- ap: 3474
  img:  'http://lh5.ggpht.com/tuo_ByFTbwLitFP5cBseOibqRxENxbCwOJ30dCnja5ijBI_qBv5vqNP7ZuZXnxhYM6ms_GbExZEwwKVUtwV2'
  lat: 40.093712
  level: 6
  lon: -88.281583
  name:  'Brownfield Dedication'
- ap: 3474
  img:  'http://lh6.ggpht.com/p2F3xw4xL4UdiMM9aSy628ISSglrvjPexpF3j340tMAP9MX07yh_sJv7kHVkeud8lyFf2ZwDohw3zsRS2PSd'
  lat: 40.093914
  level: 6
  lon: -88.281531
  name:  'Terry M. Warmbier Memorial'
- ap: 3474
  img:  'http://lh6.ggpht.com/Jz3ahY5LQ13wKWLY9SEvexiinJa3GeO1eB_FynplikRpa77swLST6cUAJjPpqKDSq2KU4Dcyui-QBstz_Z3k'
  lat: 40.094624
  level: 6
  lon: -88.282953
  name:  'Greenbelt 2'
- ap: 3474
  img:  'http://lh4.ggpht.com/MvwoDsxwfyNLHzfGkFJl-4VFeX7OvqB0hsMCrZ2D9Olh8GSghAJDfFfDh7a7cOtMIGwEDMyesZoKvKCXAGj4'
  lat: 40.116553
  level: 5
  lon: -88.242268
  name:  'Esquire Lounge'
- ap: 3474
  img:  'http://lh5.ggpht.com/3RfiPeOzF67ubNX-vkwUJ6-EYld6BKuoBernq0_9kOjlIsSPr3saR9FIQzN7uiw7ouF0CpNflOnL0mUj9zbqdQ'
  lat: 40.109452
  level: 4
  lon: -88.229031
  name:  'Illini Hall'
- ap: 3474
  img:  'http://lh4.ggpht.com/CZA6uXTYgSkrccw1vqf6XFlfkzl6I7Rj79GOKIYGvd1Zem8O1u-opoJu65ma2eHnKdfysF0mOVGzc_am2Ns'
  lat: 40.110623
  level: 4
  lon: -88.22799
  name:  'Eta Kappa Nu Plaque'
- ap: 2724
  img: http://i.imgur.com/5j1qaiT.png
  lat: 41.327192
  level: '?'
  lon: -89.141758
  name:  '293203cc2664476eb7005bbc0dc0da08.16'
- ap: 2537
  img: http://i.imgur.com/5j1qaiT.png
  lat: 41.570778
  level: '?'
  lon: -89.127801
  name:  '4bf70cbe46bb41489e8108e397ed5b30.16'
- ap: 2537
  img: http://i.imgur.com/5j1qaiT.png
  lat: 42.248754
  level: '?'
  lon: -90.418098
  name:  '70d2dfbf423e4fd391721645fd5a6223.16'
- ap: 2537
  img: http://i.imgur.com/5j1qaiT.png
  lat: 41.794705
  level: '?'
  lon: -89.680392
  name:  'a80dea5461284780a3e983d148be0a02.16'
- ap: 2537
  img: http://i.imgur.com/5j1qaiT.png
  lat: 41.838111
  level: '?'
  lon: -87.606584
  name:  '3daf518feec24f85afb2b368ecd8a0bc.16'
- ap: 2537
  img: http://i.imgur.com/5j1qaiT.png
  lat: 42.11635
  level: '?'
  lon: -86.494605
  name:  'b14006f6283943feb0976cc5c909a006.16'
- ap: 2537
  img: http://i.imgur.com/5j1qaiT.png
  lat: 41.804238
  level: '?'
  lon: -89.689174
  name:  '0dc5746d2d3d47e19e4731f89fc890db.16'
- ap: 2162
  img:  'http://lh4.ggpht.com/4_MOw_NKr2wZ2lzAzG2FlLtA3tfOfWqBZpNVP43LfN6ilD6qHRfZ-_wA1Xk8BnCqHKqKdqodC70X09pqtNXXqmNtK-uqo-fC9SZyOjT6ERfJorzg'
  lat: 40.118388
  level: 2
  lon: -88.245358
  name:  'Springer Cultural Center'
- ap: 2462
  img:  'http://lh3.googleusercontent.com/W5PjcRhelt3420IFjpSdOXtmIiv0M99Qv9Xupe6lckHDJDW4zHE9GyACkz8wXBF0_OIO2Jex9d7S8UQ4FJLa'
  lat: 40.118361
  level: 6
  lon: -88.244573
  name:  'Art Theater'
- ap: 2537
  img:  'http://lh3.googleusercontent.com/ZyXHLNlediISMVLqM9sUeZ0FEft3El4ni5P7GPOy5UF2YYBkTywnN5g1lkaer_lDNSvBUvg7bQ5yA_4Wd9qRWg'
  lat: 40.113521
  level: 5
  lon: -88.244122
  name:  'Artistic Graffiti at MCS'
- ap: 2537
  img:  'http://lh3.googleusercontent.com/vMuPZQrBjsuqibkb-FCbuVrZzyuUSOhjlXxxxRc9hq0Y7prkP-Fpk1Hh6o5Eq8BhT6s7GRP5S5z2KFUL7hJY'
  lat: 40.113606
  level: 5
  lon: -88.243766
  name:  'Mural on South Neil St.'
- ap: 2537
  img:  'http://lh3.ggpht.com/_K7sIxE489M-QkUoRrgaLB_XBi9BcOI563VzvhOcmhjwHsLO51ORrhkiWZkqThKNBlPAYzclT_qdR_sGe8g'
  lat: 40.114277
  level: 5
  lon: -88.238879
  name:  'Prow 2'
- ap: 2537
  img:  'http://lh3.ggpht.com/AflEYleLSbb1ODQvIdBOrTrq1Zkk-rgHU4WaHjaZ6Md2zDSaqq8cERAJWcwG1QFkrzGf6gp3oC-DZuLOCDb4'
  lat: 40.112779
  level: 5
  lon: -88.239045
  name:  'Layalina Mediterranean Grill'
- ap: 2537
  img:  'http://lh3.googleusercontent.com/EvLov_3eYLGHotkWec9w3T1VCPQri5SR8JLZjbJUaxRsyGPLS4YQNXf90xlPoKjxGYlml9N8IDYKwpNvVIWlVA'
  lat: 40.114563
  level: 5
  lon: -88.228735
  name:  'End Caps Sculpture at ECE'
- ap: 2462
  img:  'http://lh5.ggpht.com/LqyQMijwA_lYTV2EqLa9HoWNGh9YIVl8tE-65352cSjsJQ_XZYhixnzzoYuqTR31UzW060oLhJl0avgLPRpyZw'
  lat: 40.111
  level: 4
  lon: -88.22715
  name:  'Ross J. Martin Memorial'
- ap: 2537
  img:  'http://lh4.ggpht.com/RF7EbCh1YRbFHfis_PEc88NF1v4Ndhj-Rm7rrlY7F8s-Mrv1EMEFnajFbYiNffZ_3kMNL80Zv-_jtaMYMtLA'
  lat: 40.110655
  level: 5
  lon: -88.22725
  name:  'Gothic Brass'
- ap: 2537
  img:  'http://lh5.ggpht.com/LPlCgoOAlClRaVCl_B1sHDkn38OgDbXat-l5Q1bDZLP7mOUMfU8pK-o3N8BEqh0vHJcZBHo3iz2AMQKAhot7Tw'
  lat: 40.110833
  level: 4
  lon: -88.227425
  name:  'Engineering Class of 1975 Monument'
- ap: 2537
  img:  'http://lh5.ggpht.com/VYMooLhz51W3fCgti3L9LEQNMJjmFeW30saxIYK34yGEReG1naEKEd3eW1uyFgSlzpu-P5KertNDe4Z6qu8'
  lat: 40.109913
  level: 6
  lon: -88.228393
  name:  'Alma Mater Statue'
- ap: 2537
  img:  'http://lh4.ggpht.com/efOG849cf8EKwVLL2BfNKzwBdkrAuNsMeYOZfeR8FYnK3axQJJON0VH191MLBwjJaQ1EeQC9Pt8LMtNI2LEa'
  lat: 40.07718
  level: 6
  lon: -88.203511
  name:  'Denise and Ernest Walker Grove'
- ap: 2537
  img:  'http://lh3.ggpht.com/SGh5Xw4MO1dVvrMemAzgB9RDDBXEv4yPJSQnS537XIPlaVnoge7FriTE0zXjRXDxMtFiaTHXXihwZpbush_dbg'
  lat: 40.077367
  level: 6
  lon: -88.203354
  name:  'Meadowbrook Trail Map'
