- ap: 7972
  img:  'http://lh3.ggpht.com/lzCSS0_tjwUV7JQ2fgLI0e05IrzPxlVUs-6aEPOwUv67IanQJSTi71gkw0SGm8asmoE_r3Xoh048Fd9xRpE'
  lat: 40.099169
  level: 6
  lon: -88.251419
  name:  'Lyman Larson Memorial'
- ap: 7409
  img:  'http://lh6.ggpht.com/BzDhCANV_iNTHhKFBGLuaUqOvChRZtPWnJ2Xk4h7NsKJHmTGgCWtFHWv2PpDA2fCsHHKSCRTrUNK8AKrLRnS'
  lat: 40.108066
  level: 7
  lon: -88.230687
  name:  'Community United Church of Christ'
- ap: 7222
  img:  'http://lh4.ggpht.com/4LxsGZZMk3DnpJXUvqzrL54CHSP5TDXjUnDJyHmCCTtCJIjGEI7kxT9g4uxfSPh0X6yGLgQo1jfqbu7B8VEr'
  lat: 40.099084
  level: 6
  lon: -88.251826
  name:  'Irina P. Stewart Memorial Plaque'
- ap: 6659
  img:  'http://lh5.ggpht.com/k_9eqZVvGcr3ZNyeeSNDM1-Y7od35KmnQQptB9usrdpTdpGW2c_5-12rYy9hGazdx7qhlYrEXxaJ_ZIVFywlcA'
  lat: 40.106706
  level: 7
  lon: -88.232116
  name:  'Illini Tower'
- ap: 6659
  img:  'http://lh6.ggpht.com/c2I39IJvSBKmCLonmhP_RN1vLEpYY1recBXFm8xpGHxES4bAN2kvAcda8ZzvT75uq0yWQCv7N_dzP6ce5-Tu'
  lat: 40.108043
  level: 6
  lon: -88.22469
  name:  'Building of Molecular and Cellular Biology Sculpture'
- ap: 6472
  img:  'http://lh5.ggpht.com/ENeQgqydWbi9-Oyf7vizunoRqJdsZV4o0RA_956wjGI8hqpTCHBPyWMpbTrrkwYpj5tgzDRvevGmvH4eFRU'
  lat: 40.099593
  level: 6
  lon: -88.251724
  name:  'Blessings from Devon Elaine Cattell'
- ap: 6285
  img:  'http://lh6.ggpht.com/5CDidk0pqfUtSW_Yqouuf3diX8drdMu9DoT728QpSz8q6A-WxNhT0yLcgM_7gGpyIAeXrHiTkIzzaVJFgnN9WA'
  lat: 40.099852
  level: 6
  lon: -88.251947
  name:  'Our Friend Tim Palmer'
- ap: 6098
  img:  'http://lh4.ggpht.com/B_I1b0Jy3vW41RX8jjCNPP68AULplU0Pf8ddolyKmpEWCfBVShQkmjF1HfTPzDjmBBQGgOs0jHW-rUR0mv8BkA'
  lat: 40.098789
  level: 6
  lon: -88.251685
  name:  'Curtis William McKinney Memorial'
- ap: 6098
  img:  'http://lh3.ggpht.com/8FqlniFErK7cq59awiT84u8KyV4FIRd5krZzfYa58zJToFps7whdBnriPqvO_kFKeLUE3SWbJhCOPuvUQzaGFA'
  lat: 40.100691
  level: 6
  lon: -88.251337
  name:  'In Loving Memory of Zeus'
- ap: 5948
  img:  'http://lh4.ggpht.com/pWMrJGcrxdHbkyzK9GJLFBQdvgWtZzdJOIMHr66tCffHpsZd5e8NTrSPkYm0T9i4vtEVhARdLo6tZ7xLadU'
  lat: 40.108294
  level: 4
  lon: -88.224348
  name:  'Bird Of Prey Statue'
- ap: 5535
  img:  'http://lh6.ggpht.com/yYW6Egg1lWn6UqqLzlgqwCQhtbuxiZSW4TmvI1XBPs33OTTJ0oh51XZXOIILxGI2juoO-E_YfG5UHmeb34rSOw'
  lat: 40.109165
  level: 3
  lon: -88.230269
  name:  'John Street Plaque'
- ap: 5535
  img:  'http://lh6.ggpht.com/pxaCt7clhIXc1RVGMMJZsmnbEWNWjFYJiUrQMev_SeOmXBothvOzmfnirQ5_W8CMa7hpigqydQhKMa4XFCAi'
  lat: 40.108173
  level: 7
  lon: -88.230209
  name:  'Mural on South Sixth Street'
- ap: 5198
  img:  'http://lh5.ggpht.com/qXsP4-THlaQ8DmIiopsvR0dY2hqwPjIHoy1A1b_CUmqmADgED0FAkXDjkBzS-PY4jNfThICrCaXGja5OH8bWF4ghh7lBwJz0FzKz_zOvaiwHohU_'
  lat: 40.11945
  level: 4
  lon: -88.243175
  name:  '"Stride", Downtown Champaign'
- ap: 5348
  img:  'http://lh3.ggpht.com/G1CvGhpethi5UmprDWxZN9rTblHa3anSsQz1UPgJtkREkfN7lDFoxFObst0609Cg5mofuZxJKr0ddNKhY4VL'
  lat: 40.098464
  level: 6
  lon: -88.251426
  name:  'Ruth Haasis Memorial'
- ap: 5348
  img:  'http://lh5.ggpht.com/-UWK84I78Sftf7yg-E2pg6xEAWTvyiThgJBJlxbqOZPYKNmzQ8uGgEEMetzplrG1HpXG5kQqNItUeXKxOHDsGA'
  lat: 40.100286
  level: 6
  lon: -88.251747
  name:  'Tennis Anyone'
- ap: 5348
  img:  'http://lh3.ggpht.com/VrbXGwlUosNLEkVdshWUFoVa3KtlJQoEU4yLYygvftYbPCmxo644Uvar_v8Kb9RS53hB0tXgvV44GotrxZyu'
  lat: 40.098592
  level: 7
  lon: -88.251676
  name:  'Ruth and Fred Steigmann Plaque'
- ap: 5348
  img:  'http://lh6.ggpht.com/S7Utf4_59vQkAP5JhC3mdbzVLKBTt-0zoJ2UjfxUnN10VBbixO-_VwvssWd1LbFSx_yafaijd_U0wTGo870'
  lat: 40.100941
  level: 6
  lon: -88.251314
  name:  'Gabriel Patrick Maxeiner Memorial Plaque'
- ap: 4598
  img:  'http://lh6.ggpht.com/duOeXcOSQLWosdD0JJXg3pWWQp4t5sL0x9qDHoTIBFNOzEW0t53Lt2cnwgV2E_Su0l1ajIQxPtVbbK_sDRaS'
  lat: 40.141775
  level: 5
  lon: -88.242671
  name:  'Marketplace Mall Fountain'
- ap: 4598
  img:  'http://lh3.ggpht.com/oAhplQsltGmJyd6-FfScd0PFPwkg1lJn96dHQNw4VxgOy__gt2IaqcXddSDJHyFfu2JMrCFWTHHXbHhHnTU'
  lat: 40.119636
  level: 4
  lon: -88.243213
  name:  'Sunder Planet'
- ap: 4598
  img:  'http://lh3.ggpht.com/rUgM7jkTqL0VHxvsSW0yWuNJF5UrU62ITflghfn4PfKjn6L4WGz0ALkv98fc_q9dmK9SSpU1PXIawGvcRwE'
  lat: 40.098246
  level: 8
  lon: -88.251974
  name:  'Hessel Park'
- ap: 4598
  img:  'http://lh5.ggpht.com/kElaGOaV9aI8SrnM1D65gx9J0Ky1AKrN9Yo-pXVmDhELt2pee4MwVRiCqCmlqWzUWj5pS33GnEzAiXmiWKsw'
  lat: 40.108111
  level: 7
  lon: -88.229625
  name:  'Illini Sports Mural'
- ap: 4598
  img:  'http://lh6.ggpht.com/MzDfG6eMMwVr56zIpVxRJKU2aoUq-95CLeBhoiEQQKzpC2zulq5jFDLv1IK0JcRy5Q0PhRAreZ1p2ElsdnNu'
  lat: 40.108048
  level: 5
  lon: -88.226279
  name:  'Nuclear Magnetic Resonance II Plaque'
- ap: 4411
  img:  'http://lh5.ggpht.com/nWEtxuKQdy0teBBue1DYmG7P3SF5-3A6zlB7GwVHBWlolAZYGq6Br78lWcF9ltFy-KeSlozXie2RmU6JfCUX'
  lat: 40.142673
  level: 5
  lon: -88.244603
  name:  'Italian Statue'
- ap: 4186
  img:  'http://lh5.ggpht.com/J6mcCWpzY1HtqSgO5x_y5aVz-YFsC8M7QP6HkXPiD48zj2LwljZvVXDN2m_K8oMn6mei5g6B8PphiUGrXGDG6g'
  lat: 40.119305
  level: 2
  lon: -88.244122
  name:  'Women''s Town Club Building'
- ap: 4411
  img:  'http://lh5.ggpht.com/tfAfnmo6mSMc6U0P533NMFJRGwn6lasmx-MLR2JJg1QOizMKkghFU8E7hb2zgYgdQEbgnCJUlvZIMdrrJe4'
  lat: 40.100822
  level: 6
  lon: -88.25193
  name:  'Seeds of Kindness Bench'
- ap: 4411
  img:  'http://lh4.ggpht.com/PHV-1ZpFzCAl_ViCKwBY_x2pIDbVyaT7wJH1sTvFJCxrSdRrO1x7NaXq9OdRGwz_Mls4iwk6wuGHMBArfV54'
  lat: 40.098688
  level: 7
  lon: -88.25063
  name:  '"New Holland Yellow Dinosaurs" at Hessel Park'
- ap: 4411
  img:  'http://lh6.ggpht.com/qSCp5fQMlyCQ-GOAgiSFy5gaHJei705Pa3eOlJiYO5wGjZTYtjA8q7QWWfAWcLKjxZSaFiMfXOPR8SO7rWU'
  lat: 40.099353
  level: 6
  lon: -88.251876
  name:  'Raymond B. Cattell Memorial'
- ap: 4411
  img:  'http://lh5.ggpht.com/gkIcCbfmQWyJ7s9ryhzfOOn1K-oa8huqzZN80X2psVjx_6Iur5egjGncbUIAMLiAJAf9qG1Ac8lX2MomHYY'
  lat: 40.108185
  level: 6
  lon: -88.225203
  name:  'Statue at Medical Sciences'
- ap: 4411
  img:  'http://lh4.ggpht.com/S734i_6SihPtJW8WdegLb3gEuKeNx8e1qDm6CXjREzYHohw7XqL82m4EF2K5nS2TixHweLn3EuJ4YoQnrsw'
  lat: 40.107751
  level: 7
  lon: -88.231532
  name:  'Graduate School of Library and Information Science'
- ap: 4411
  img:  'http://lh5.ggpht.com/szWXjFVU67N6nJHeZbrcsC2b8J7kXF7nBh_RooZZ5-ezcJsxWUvA7NZrGjJxfwTzVkc2HYMYLwh19UaYEbm3-Vmu4ZAG8959ZOG44cpeeyoUHtkD'
  lat: 40.108422
  level: 4
  lon: -88.227811
  name:  'Henry Administration Building'
- ap: 4411
  img:  'http://lh3.ggpht.com/pVUYGCf7vsAndVd4vhK_pC9p6e9OvGa4ZiWuZg0ELOFDWptBba4H2N4PNZPjQdHXnV1GQyLTpCXQWDMKDUqn'
  lat: 40.108875
  level: 5
  lon: -88.227835
  name:  'Lion''s Head Planter'
- ap: 4035
  img:  'http://lh5.ggpht.com/Lup2et0i5h8oHqtBffIdoyX5uclC2MBn9ZnnKnYPr4RIFSflf9bi78zBHK7QqycA0qgEev9qOk0zU-1o1hg'
  lat: 40.108451
  level: 6
  lon: -88.228733
  name:  'The Centennial Colophon'
- ap: 3848
  img:  'http://lh3.ggpht.com/HX3mWBGofQk08Qdp7A6KMK1AnSXlLEPJR-n6oeX69Efiiss29GHsLiDsHhRS5K8DrXh-QXP1T0AMaOsJmx_w'
  lat: 40.106921
  level: 6
  lon: -88.230145
  name:  'University Lutheran Church'
- ap: 3848
  img:  'http://lh5.ggpht.com/uP38yDCg4dPRI1F0r0ALGArEc8Q9eoRuaxkfxZTafZZr9tMcbLUZek1hZRbLUxHJVGPcLSf_JKbotbTBeR7nfA'
  lat: 40.107226
  level: 5
  lon: -88.22858
  name:  'Class of 1897 Tree'
- ap: 3661
  img:  'http://lh3.googleusercontent.com/hJZWoErzM-MuXulq4FlhlZwMbJX1Isd81GBUBVKayd57jVIVxUle3itd-1DRKo2VaNXznWr1X639fa44Etk'
  lat: 40.141919
  level: 5
  lon: -88.244611
  name:  'Marketplace Mall Carousel'
- ap: 3661
  img:  'http://lh3.googleusercontent.com/vMuPZQrBjsuqibkb-FCbuVrZzyuUSOhjlXxxxRc9hq0Y7prkP-Fpk1Hh6o5Eq8BhT6s7GRP5S5z2KFUL7hJY'
  lat: 40.113606
  level: 6
  lon: -88.243766
  name:  'Mural on South Neil St.'
- ap: 3661
  img:  'http://lh5.ggpht.com/1fPvqpqXG5PDCkmegoWb9Tv9N5_MZh9XjmZpbyNEs5yPDsCscbrPB1cO_Pf8GT35HYrTF01FZ6s5VPIpjJ_20A'
  lat: 40.107098
  level: 5
  lon: -88.228984
  name:  'Saint Andrew''s Church'
- ap: 3661
  img:  'http://lh3.ggpht.com/gS3gT_deXzbDvejCL-5ygs31dw9bLQqYr2nDcLPZiv6nQzahJl12awG1a2pwKbFuoTlsHQYxQ2O7HDXL4-8'
  lat: 40.110358
  level: 6
  lon: -88.230181
  name:  'Murphy''s Pub '
- ap: 3474
  img:  'http://lh3.ggpht.com/07XrBN-er6Ecleor0n9RJ4DfGO6B2yn-ZxjI-Uy8Ba46Jtb6cXNVmATPiPiGyk-1jZ4wxa7-EeIWbWUqArCG'
  lat: 40.142554
  level: 5
  lon: -88.243468
  name:  'Dog Heart'
- ap: 3249
  img:  'http://lh5.ggpht.com/Jp7IxKww4URJW7CuBmWK-wgnCfMK0iUJrKL_UoRhWCyoVY0_cHasH1WH_nYzDpInelHY0uL_3K-u3czrBCY'
  lat: 40.11949
  level: 2
  lon: -88.242871
  name:  'Orpheum Children''s Science Museum'
- ap: 3174
  img:  'http://lh6.ggpht.com/XsUl74M1oxj6ptAvGEBOMH2wivRhxBNns62UJSGcPiQkuJIgPrmUYxMpSZZUfXRMMjrwoxlFK_DbAM78UrOh'
  lat: 40.113499
  level: 3
  lon: -88.244374
  name:  'Shatterglass Studios Mural'
- ap: 3474
  img:  'http://lh3.googleusercontent.com/ZyXHLNlediISMVLqM9sUeZ0FEft3El4ni5P7GPOy5UF2YYBkTywnN5g1lkaer_lDNSvBUvg7bQ5yA_4Wd9qRWg'
  lat: 40.113521
  level: 5
  lon: -88.244122
  name:  'Artistic Graffiti at MCS'
- ap: 3174
  img:  'http://lh5.ggpht.com/D9O580D9hlBOqeMvt2V4nL-eHP62h4vG4YFgk-WTw7GunusU9AOffFuHZ9XYWoB8YrGxpCMu2Y77-LCAgcdT'
  lat: 40.119328
  level: 2
  lon: -88.243755
  name:  'Birthplace of Champaign / Beautiful Beardsley Hotel'
- ap: 3474
  img:  'http://lh4.ggpht.com/vKgqIecJshMQxrhO-ZhMjcIyARuJdyU63wKfzAG0wouZex6LVzO46Qi5zM1N3Jx8xyantDFk9sQGsSEBhb-y'
  lat: 40.101327
  level: 5
  lon: -88.251412
  name:  'Zeus Memorial'
- ap: 3474
  img:  'http://lh4.ggpht.com/l4w3T1e27S5zPAMN3Mr-LqJ51cbm26ThR-ubvfUFHpl28dkeRb_CQThuhJ_HSNhdYt_dX9NTAN9hKFsDeWJQ'
  lat: 40.108295
  level: 6
  lon: -88.224083
  name:  'The Landing'
- ap: 3474
  img:  'http://lh3.googleusercontent.com/hvoLMUc9UoNVVPttxWTc8PzOWdu5MBmPETnBexH7Alyl20WGCrNa0G_j7DwvD3qbhqpTaeThFhGDV2rCtp8'
  lat: 40.107629
  level: 6
  lon: -88.224484
  name:  'Bucky Balls'
- ap: 3474
  img:  'http://lh5.ggpht.com/jQxBvX2jWXZCQP5ap9HmKaDDgG40pdH5nPpBNcYppZdxce6GWdxMRTYyqKrLxnk_TsmMAd7G6gRwJ6YI7S-v'
  lat: 40.107574
  level: 2
  lon: -88.227843
  name:  'Iconic Pillars'
- ap: 3474
  img:  'http://lh3.ggpht.com/o6_RpCgHFDA4MceKnIqFkksRYWZkhEKsAZE3VNGl5iS5zkkQWJdBKOY-gNca5iB37jbgnoYsbc1ROtZ-bQhJIw'
  lat: 40.108833
  level: 6
  lon: -88.228125
  name:  'Class of 1902 Memorial'
- ap: 3474
  img:  'http://lh3.ggpht.com/wOZOXhKOnhbKEPMQke-zGIG_vheDkHM8q19B1n_is5H7t1whBcQxBIGZI6VIPNw8mdCNXG6EUZeSjd1YLdngdg'
  lat: 40.108965
  level: 5
  lon: -88.227184
  name:  'U of I Mother''s Association Plaque'
- ap: 2724
  img:  'http://lh5.ggpht.com/n-WJVk4VFfgCVfLuyItrEjDCHgOd5YN1Z1ts6qT6-RmXvFyDeNKYarXwzwHKyd5B9tGmezRoEzKX4EFKmaY'
  lat: 40.124947
  level: 5
  lon: -88.210509
  name:  'Trail Marker in Busey Woods'
- ap: 2724
  img: http://i.imgur.com/5j1qaiT.png
  lat: 40.106513
  level: '?'
  lon: -88.5585
  name:  'Lodge Christian Church'
- ap: 2724
  img:  'http://lh4.ggpht.com/0j8eeTKJgjnYhHpf4qH_70CZHLbujC5v-XP_ndcqh1xIR-5V2K_CGdjIe1ZfMbwvSyISxxYKoZynw1DaQcj8'
  lat: 40.105874
  level: 7
  lon: -88.230562
  name:  'St. John''s Rectory'
- ap: 2724
  img:  'http://lh4.ggpht.com/zSwyeT2OHM1BNTwvZlgP1mVe-dTjc2LKjU4DSHSuEU24YLHSKziuJKmF4_BAMl1Dd3Sy1PRGPBbPbhSDX0fY'
  lat: 40.10349
  level: 8
  lon: -88.218942
  name:  'Kappa Kappa Gamma Plaque'
- ap: 2537
  img: http://i.imgur.com/5j1qaiT.png
  lat: 39.783737
  level: '?'
  lon: -88.27211
  name:  '762c4857527e4abe9a0b98a4ea51c1ca.16'
- ap: 2537
  img: http://i.imgur.com/5j1qaiT.png
  lat: 39.985169
  level: '?'
  lon: -88.259496
  name:  '41dd0bbf2c604d7a8eb6bf9863231d7b.16'
- ap: 2537
  img: http://i.imgur.com/5j1qaiT.png
  lat: 41.102653
  level: '?'
  lon: -87.828667
  name:  'd42c3965ba254e1eae0f47d5e1a38877.16'
- ap: 2537
  img: http://i.imgur.com/5j1qaiT.png
  lat: 40.873822
  level: '?'
  lon: -88.646106
  name:  '48c9d6133823423796c94e34eab373eb.16'
- ap: 2537
  img: http://i.imgur.com/5j1qaiT.png
  lat: 40.312242
  level: '?'
  lon: -88.201368
  name:  '2012 Employee Dedication Bench'
- ap: 2537
  img: http://i.imgur.com/5j1qaiT.png
  lat: 40.124247
  level: '?'
  lon: -88.926356
  name:  '774e54070f3d48e3804045a925ac7c05.16'
- ap: 2537
  img: http://i.imgur.com/5j1qaiT.png
  lat: 41.37168
  level: '?'
  lon: -90.165095
  name:  'c95c110111b44cd08149a1712123ed13.16'
- ap: 2537
  img: http://i.imgur.com/5j1qaiT.png
  lat: 41.556376
  level: '?'
  lon: -89.460081
  name:  '6c12dc3974dc45158c01b41e37791b4b.16'
- ap: 2537
  img: http://i.imgur.com/5j1qaiT.png
  lat: 39.772536
  level: '?'
  lon: -88.87563
  name:  'e7e5f76ee6ef4bceaf54487740c1594e.12'
- ap: 2537
  img: http://i.imgur.com/5j1qaiT.png
  lat: 40.154669
  level: '?'
  lon: -88.298035
  name:  'New Horizon Methodist Church'
- ap: 2537
  img:  'http://lh4.ggpht.com/ZevI283-hdNmxCDG58ggAccDFE_BgYgPK-Hwc6pMCOMdhClXrMtmBtTONxbI0Y_iV-SVdkgRT28tdz-T-6Vt'
  lat: 40.146982
  level: 5
  lon: -88.28914
  name:  'Champaign Kingdom Hall of Jehovah''s Witnesses'
- ap: 2537
  img:  'http://lh3.ggpht.com/5awYU9vtQhrJgqVWTgorW3FfOKgjEZtgRjWYRBTLqZxOOiuKje_aALtsSDOrslkMHWZqO4ZLwael60DZWxY'
  lat: 40.111807
  level: 5
  lon: -88.295361
  name:  'Unity Baptist Church'
- ap: 2537
  img:  'http://lh5.ggpht.com/8EXhrgcMBH0nDBQWTAlAwNIhxzaY7maIjYjg3fJnzGIp6_FNs98dPrYY4mtl4vhkPI5WQ1Xp8_V4vj2hAb9a'
  lat: 40.112026
  level: 5
  lon: -88.295327
  name:  'Carpenter''s Union Hall'
- ap: 2312
  img:  'http://lh4.ggpht.com/Ww9lgcscjGtB0ieiqyf2qK2ZzV0y3mZVpoi5ZZdPpArkbOa2B5aNli_k7t86GjD7eAeEFOw8W0oZvfr61S6Kxg'
  lat: 40.139196
  level: 4
  lon: -88.257755
  name:  'Market View Fountain'
- ap: 2537
  img:  'http://lh6.ggpht.com/vqiOPPON1phvYOdOmbFDrxhN6cbYjeLHVgH42EV0XsJjVNd81EM1DKY_aRVM-rwJ9Il5tLc3QsL_gOS4qAkF'
  lat: 40.139891
  level: 5
  lon: -88.257367
  name:  'Market View Baby Fountain'
- ap: 2537
  img:  'http://lh5.ggpht.com/QNdE7Z3gNcz1M-mzDms1aMrHPZpKr43FIfnMxwfwdp6kP1N6fPKwUzIx5qrt3k_KBeBFRmcD-PXCWq7V2Ygo'
  lat: 40.119969
  level: 5
  lon: -88.243775
  name:  'Mural at Bentley''s'
- ap: 2537
  img:  'http://lh4.ggpht.com/W2chhQwPqSJEkl57NVoIL-OE4KFvJfp7Bsrrxza1apCYltcT3npz95LJxqHxvT9ZZu7wxF2gQy-5bpKal2p2'
  lat: 40.115838
  level: 5
  lon: -88.241338
  name:  'Illinois Terminal'
- ap: 2462
  img:  'http://lh3.googleusercontent.com/8-4OkyRuEuagHGkNAbCDDtz9k34_nWE1lFlUqdqVSLAtsWkVNv5G84IpnbtVcup3-x3u4q6_AJ0OxQdkdt1-'
  lat: 40.113304
  level: 4
  lon: -88.240009
  name:  'VW Bug On The Roof'
- ap: 2162
  img:  'http://lh5.ggpht.com/0m1i3CJSj3bKhLj5BgXi8SFpgoihNsBoN6fpccgDU2tjtPcA5BqB1IxvR0yAX9FWkgt3_Q8gbAyGfdJDliGP'
  lat: 40.115142
  level: 2
  lon: -88.238658
  name:  'First Street Antiques'
- ap: 2237
  img:  'http://lh6.ggpht.com/POBAhJlStu1uLv82RPSkd8lKQyojPByrKqAwgiZPyXTHQcNTCN7rkJM376YcVpMmZZVMgiXz9J1BXanexyA643e-FR9M70tksLdb1akPUe2Ra_xCyw'
  lat: 40.112411
  level: 2
  lon: -88.226875
  name:  'Grainger Engineering Library - William W. Grainger Medallion'
- ap: 2162
  img:  'http://lh5.ggpht.com/Zoidr1eUAO2UEM6SyifBpkC3K42Ctl355Krd3S2ZU3BbbIMt1XFKF4C35huJT7a-K1PMF6JCK3ztTnr2Wbc9zw'
  lat: 40.109178
  level: 2
  lon: -88.22945
  name:  'Pineapple Pillar'
- ap: 2312
  img:  'http://lh6.ggpht.com/pYay9oPZwUNKfLdWJ1JMI5tA9-Gd0vsBddLTz7fXN6wUW7F23hLMWRwFZNnXyomRkc2f9sqCGMxNWuYHPFZx'
  lat: 40.109142
  level: 4
  lon: -88.228748
  name:  'Kappa Alpha Psi Plaque'
- ap: 2537
  img:  'http://lh6.ggpht.com/WtqWBwqpYTSw3g9ru5NwcFn5iK5STxWgy2kv4OUTWqwtzx76-9Msz0eqoiw0qpEYE1U4zdt9rzzNZMDNagNg'
  lat: 40.107943
  level: 5
  lon: -88.226751
  name:  'Class Of 1917 Plaque'
- ap: 2537
  img:  'http://lh3.googleusercontent.com/__dofGL-oELNLYymrJ5VDONThxrG0oMe5aQcopgTFJgu56wHeV1y-scJDNms_C4LRoqDe-qKwDBNRNkCiJnNUQ'
  lat: 40.127703
  level: 5
  lon: -88.211526
  name:  'Busey Woods Trail - Wet to Dry'
- ap: 2537
  img:  'http://lh3.ggpht.com/bGP5sHc4CJ8tWBxVUN_RonUmvTocQxNQDIzXf94PxHcFtqhDcWJi__diLWu-7b94x-lFOJSou24yKzPZr0E'
  lat: 40.103829
  level: 8
  lon: -88.219002
  name:  'BASIC Student Ministries Church'
- ap: 2537
  img:  'http://lh6.ggpht.com/X4iXokslnWFDeqwj8O471yVpY1yt3JaXPzv5dxVokmSQVqso_Ouz7xzlKgu986CiYn1RE6zBANqvPf2F3-fjPA'
  lat: 40.103188
  level: 8
  lon: -88.219107
  name:  'Alpha Gamma Delta '
- ap: 2537
  img: http://i.imgur.com/5j1qaiT.png
  lat: 40.203721
  level: '?'
  lon: -88.39221
  name:  'dd9c9d84f4934d84a0769ff14c381db2.16'
- ap: 2537
  img: http://i.imgur.com/5j1qaiT.png
  lat: 40.203973
  level: '?'
  lon: -88.393369
  name:  'Mabery Gelvin Botanical Garden'
