- ap: 11718
  img:  'http://lh3.ggpht.com/lSr_gDGX9o1BHZX9FUPCKAO2VVQjZ_NwTBaSNhNgjVyJ2p6BnLDByC_vIkhu637-W5nKMW2SShi0gXOlXNqY7A'
  lat: 40.097979
  level: 7
  lon: -88.247785
  name:  'Jarling''s Custard Cup'
- ap: 11346
  img:  'http://lh5.ggpht.com/4DJAFPeZ_w65Km7VDnsbOqouQaeBuPuxA0KHPQToT_B6o1hBxzdu3kn89UhHgv22Ygj52Fx9QqcbzOytuw'
  lat: 40.100078
  level: 8
  lon: -88.250683
  name:  'Brian Clark Memorial Plaque'
- ap: 10783
  img:  'http://lh3.ggpht.com/rUgM7jkTqL0VHxvsSW0yWuNJF5UrU62ITflghfn4PfKjn6L4WGz0ALkv98fc_q9dmK9SSpU1PXIawGvcRwE'
  lat: 40.098246
  level: 8
  lon: -88.251974
  name:  'Hessel Park'
- ap: 10781
  img:  'http://lh5.ggpht.com/THzk1iE4eBFdHkEgW_OGBWS54BbJw46faUZQS1Ad_IROHGgmVaXrphXJuL1O8N9k4G8_jaDT4P9tmLxMNi0W'
  lat: 40.131713
  level: 5
  lon: -88.29276
  name:  'Campus Solar System - Sun'
- ap: 10596
  img:  'http://lh3.ggpht.com/lzCSS0_tjwUV7JQ2fgLI0e05IrzPxlVUs-6aEPOwUv67IanQJSTi71gkw0SGm8asmoE_r3Xoh048Fd9xRpE'
  lat: 40.099169
  level: 8
  lon: -88.251419
  name:  'Lyman Larson Memorial'
- ap: 10594
  img:  'http://lh3.ggpht.com/NfRR7PyM2-UNoQGKgRsf6sUZdUTMp0sWqha9caVs49hYb0AnT9OznQX0dQGxKJNP6KiHWJ0WRUMSQh1m4-rwvg'
  lat: 40.117976
  level: 7
  lon: -88.245082
  name:  'Robeson Building '
- ap: 10594
  img:  'http://lh5.ggpht.com/KuDVZqnpBQnne0a_UqpN4wpsQFlw3nVXAWtRKP_AdZ3CjQ0MHUBgU_2hE8hb71h31FTQbduYmB6DNuVKA0s'
  lat: 40.116822
  level: 8
  lon: -88.243445
  name:  'Remembering Horeb'
- ap: 10409
  img:  'http://lh6.ggpht.com/6pMlM7pPsp-5PTNYZ8AJgo5ODURCPJO-_LigeHL2TMhjfK9MS17iEcpQqc89n5gyUdEO8seZrlThTGbKEqg'
  lat: 40.132999
  level: 5
  lon: -88.292808
  name:  'Campus Solar System - Mars'
- ap: 10407
  img:  'http://lh4.ggpht.com/H1kV6JSczzSbcCblAHg5ZOgITW1mBAz0_oLbqbzxBlijGTBn7TP6KwA6UI0AAGrCN4VF0DAF79Vcj6_2R4dsB8LRTq6tud6v'
  lat: 40.116164
  level: 7
  lon: -88.241661
  name:  'Zipcar-45 E. University Avenue'
- ap: 10218
  img:  'http://lh5.ggpht.com/_9uqsDQROIwqIhKx_URY4DdZAapoZBEWK6Eaclt5mM5vPsjwQAD-v8Bv-4b-Smq2F8X4zOgzLx2KwySkFWc'
  lat: 40.118448
  level: 6
  lon: -88.25211
  name:  'First Church of Christ, Scientist'
- ap: 10031
  img:  'http://lh5.ggpht.com/hjAc940kWyt9QT4G_BJyJKaTef3jL_Njnm8ubUtQD7u6qVsD9_7TiJbgZpKeqAv60kNw8FYspVxkn-Bt1cxYBw'
  lat: 40.109959
  level: 7
  lon: -88.24318
  name:  'Mini Park II Sculpture'
- ap: 10031
  img:  'http://lh6.ggpht.com/0IsQORyEW-bPA7sEbGspygtoI7ixEshm_2fUw5oeh9AeXg6JN5w0ypYIshpuKm-C0nG4Vm2XmpLvtWTZzWzd'
  lat: 40.111607
  level: 6
  lon: -88.233753
  name:  'Chabad Menorah'
- ap: 9846
  img:  'http://lh5.ggpht.com/ENeQgqydWbi9-Oyf7vizunoRqJdsZV4o0RA_956wjGI8hqpTCHBPyWMpbTrrkwYpj5tgzDRvevGmvH4eFRU'
  lat: 40.099593
  level: 8
  lon: -88.251724
  name:  'Blessings from Devon Elaine Cattell'
- ap: 9846
  img:  'http://lh6.ggpht.com/BKeORacgeVrG8XzxTuXmpq5UxomWpK-I2n7Xy0PVbdSciNx9MJl869TcibnFIiV5PJHGv5R3QOpX6ZgLUwU'
  lat: 40.099706
  level: 5
  lon: -88.250065
  name:  'Lois Barham Memorial Tree'
- ap: 9846
  img:  'http://lh5.ggpht.com/C6wRSaEWO1NYGY5luyYZKHG3Z3aib4aflaPdV7B9G6N6adE890g3QuPRSvCUhsdFHqjoVUjo27mfz9WsjXyuhQ'
  lat: 40.100521
  level: 8
  lon: -88.250864
  name:  'Gabriel Patrick Maxeiner Memorial'
- ap: 9844
  img:  'http://lh4.ggpht.com/vKgqIecJshMQxrhO-ZhMjcIyARuJdyU63wKfzAG0wouZex6LVzO46Qi5zM1N3Jx8xyantDFk9sQGsSEBhb-y'
  lat: 40.101327
  level: 8
  lon: -88.251412
  name:  'Zeus Memorial'
- ap: 9094
  img:  'http://lh3.ggpht.com/AflEYleLSbb1ODQvIdBOrTrq1Zkk-rgHU4WaHjaZ6Md2zDSaqq8cERAJWcwG1QFkrzGf6gp3oC-DZuLOCDb4'
  lat: 40.112779
  level: 8
  lon: -88.239045
  name:  'Layalina Mediterranean Grill'
- ap: 8909
  img:  'http://lh6.ggpht.com/oTEawnC2cPnZ7T10vs9tiueaLsN0ILM7tgPLWVfa0njwvTDrUvS-w8x5SK4iMDd0tuHYP2w5a-H0AQ4NaAyU'
  lat: 40.116388
  level: 7
  lon: -88.243702
  name:  'Cycles of Love'
- ap: 8909
  img:  'http://lh3.ggpht.com/GXyi2ghi2DR3h7uIHNYiEZPYixRhDo7LO0WHQ0PyEzb-150r7ar7JGeVjUoPuObC-GFWf22UWqnYCMtED0M-'
  lat: 40.100341
  level: 8
  lon: -88.249937
  name:  'Alice Marie Weber Plaque'
- ap: 8909
  img:  'http://lh5.ggpht.com/3t7XZHqwxLZ8Lc9YomR8FInm74U2PAA-DBk8kmdxXIrcXbKa1CoBDTlgdDJeO-_yVT3qNKRnNLzbdil1eH41iA'
  lat: 40.09935
  level: 5
  lon: -88.249766
  name:  'Jim Bickel Honorary Plaque'
- ap: 8909
  img:  'http://lh3.ggpht.com/KzADjdPRAvwycpfTBdAeDwFJ0AxZJG2dPmbPWkXq55QLV9PfpJ_-DsXWIlVgsISUApRdJ5cAxRWx0k0W2hI'
  lat: 40.09979
  level: 5
  lon: -88.249107
  name:  'Jerome Cook Memorial'
- ap: 8722
  img:  'http://lh4.ggpht.com/4LxsGZZMk3DnpJXUvqzrL54CHSP5TDXjUnDJyHmCCTtCJIjGEI7kxT9g4uxfSPh0X6yGLgQo1jfqbu7B8VEr'
  lat: 40.099084
  level: 8
  lon: -88.251826
  name:  'Irina P. Stewart Memorial Plaque'
- ap: 8720
  img:  'http://lh5.ggpht.com/V9AFUiWKES88x0FruZILBXEBv1d476XQMgH8JsCHDQgvjDvk95Mgjf5vcl-Nx7CkPvfhwVGIrvB1EA5Tlh2j'
  lat: 40.132437
  level: 5
  lon: -88.29022
  name:  'Dr. Ray Braun Memorial'
- ap: 8720
  img:  'http://lh4.ggpht.com/-2q6p_jcZ5xVswdwpO98pGsMWXnqxUlsBmhWA2F6xs0MbwejV7FTN7-kHSb4nlsfg3uUsrvdDmUM5v1lQ-Ia'
  lat: 40.086252
  level: 6
  lon: -88.249351
  name:  'A Lady Waiting for the Bus'
- ap: 8533
  img:  'http://lh4.ggpht.com/wbrbzDCo3C4qFJyHTWOST5o8B7kwZSWePUWOboIlYrdvxjrhWLqVQ1MqUF5-Hy4nt26x_oHQq9f8EbfdEjVK'
  lat: 40.117382
  level: 6
  lon: -88.243748
  name:  'Days of Venus'
- ap: 8533
  img:  'http://lh5.ggpht.com/Q32BPmFRIQYqXI5gLOV9ifHvFlGdyD_yws2172-sHnSZ-StunhCM0Abqd9rBWSaKBWN7RPpa1h-nok4Mc23i'
  lat: 40.101062
  level: 5
  lon: -88.249275
  name:  'Narayan & Shanti Achanta Memorial Plaque'
- ap: 8346
  img:  'http://lh3.ggpht.com/LunaMtSKD9yiLQClolDY-Iqh0ENm9AgJdL4D1QxGs0j6TXPgqxDZea35x5ilAfeI5_0TGh5x1q1EqRsJsLFi'
  lat: 40.114111
  level: 6
  lon: -88.243697
  name:  'Champaign Surplus'
- ap: 8346
  img:  'http://lh3.googleusercontent.com/SjusdEZ1n6AkcvHdrM3TfGAqP_W5LJRmm4qEdm5xmdvHcBejD6Jg0kXCZaHyUk5WGeE8Zu0RrSSq_1VDXFU'
  lat: 40.117419
  level: 6
  lon: -88.240991
  name:  'Old News Gazette Offices'
- ap: 8346
  img:  'http://lh6.ggpht.com/uaO1clC1eOzxRVRPPU6mVM4lEPV2U6uxh64a8kJNRglHSObClWlHGEcfJTknzwB_7Wli3doxQJbZKiBHIXI'
  lat: 40.102834
  level: 7
  lon: -88.241672
  name:  'Rehabilitation Education Center'
- ap: 8346
  img:  'http://lh3.googleusercontent.com/enpZZ8JRREFPTvYd3jbeUlpS-mmcwKe5fsvoWRPkfMUj6PijyI-5tbR55UItBoNJAFSl9fAAOvXb6BpWCJT4'
  lat: 40.102495
  level: 7
  lon: -88.242132
  name:  'Nuclear Physics Lab'
- ap: 8346
  img:  'http://lh3.ggpht.com/AD9d7JPmLdYRdpxESO9iORy1GRXAcN1jzn8dDNvm6FO7cIHVsjwAKI8LmbW4dico1Xe9jzJfsZZriP0CxXA46w'
  lat: 40.104084
  level: 6
  lon: -88.241616
  name:  'Honorary Memorial Steam Ventilation Pipe'
- ap: 8157
  img:  'http://lh6.ggpht.com/NMgUdPOdhvhvKZh7ugwXgybshZBZ2mkaEWMNKYdFPX6cfIYENSCqE9YpAXSNVuq_9VVWXJB-ShCBAPfF2Yvs'
  lat: 40.102513
  level: 8
  lon: -88.243679
  name:  'Robert Hosier Memorial Garden'
- ap: 8157
  img:  'http://lh3.googleusercontent.com/vJ_iyOb44eFzOJUNpRouOPDI8rKgOESn7TWw9U9BR3OcWsb6Oak-SSfVH4iPPmtXJdk30rqet1D0KxVohiBC'
  lat: 40.114712
  level: 7
  lon: -88.238392
  name:  'Mexico Mural'
- ap: 8157
  img:  'http://lh5.ggpht.com/dgQfoxxVeHT5ODqLiUYHV45qvkC_BMS0kIFRqvHvE2GO0TduZ0-XzhW8RE80LtPDK0Ay5xwA6PtjM7G3C9U8'
  lat: 40.108947
  level: 8
  lon: -88.232251
  name:  'McKinley Church'
- ap: 7972
  img:  'http://lh5.ggpht.com/XQVr2AUWddJQMpYbapEIpcTLBeBvcpgmW016VjkAOXrp8_P2VsMxQY8FVhtDhA73iTCXCPiydjFIJcbcSa8_'
  lat: 40.116206
  level: 7
  lon: -88.24306
  name:  'Indigo Art Gallery'
- ap: 7972
  img:  'http://lh6.ggpht.com/5CDidk0pqfUtSW_Yqouuf3diX8drdMu9DoT728QpSz8q6A-WxNhT0yLcgM_7gGpyIAeXrHiTkIzzaVJFgnN9WA'
  lat: 40.099852
  level: 8
  lon: -88.251947
  name:  'Our Friend Tim Palmer'
- ap: 7972
  img:  'http://lh6.ggpht.com/YdeB0EKlsopL39a9YXWj4JBZgXNNLWHgfe4PQzdpWCNWc0fR1YTj8WjARDHnmrusvKWTqKLcGg8U9frhtsw'
  lat: 40.09821
  level: 8
  lon: -88.249879
  name:  'Hessel Park'
- ap: 7972
  img:  'http://lh5.ggpht.com/fDRifvVcFT_dKhPuNBN4rR9lNHL0Q6NvbMnGr2-ZdiirR2rJrBcWRi4vyM3-DYNHymUs7bWchaWRaUtBpg'
  lat: 40.098541
  level: 8
  lon: -88.250389
  name:  'Dennis Robert Costello Memorial'
- ap: 7972
  img:  'http://lh6.ggpht.com/3o0ObAARFV_8mBVCC_QD0iLOPVzNkakXybhLnSVEuXIJfDLKMxeYj-EkWIw9NPoZIVRf5Dkrid2yf_NEQ-iE'
  lat: 40.100347
  level: 5
  lon: -88.249385
  name:  'Travis Marmion Memorial'
- ap: 7972
  img:  'http://lh5.ggpht.com/-UWK84I78Sftf7yg-E2pg6xEAWTvyiThgJBJlxbqOZPYKNmzQ8uGgEEMetzplrG1HpXG5kQqNItUeXKxOHDsGA'
  lat: 40.100286
  level: 8
  lon: -88.251747
  name:  'Tennis Anyone'
- ap: 7972
  img:  'http://lh3.ggpht.com/VLipBehsKPCp8ewQnBV1ZCz7uE75zcY46iGDyFfFHgX1o55t3DONb3wcBcL5RMYSqABRK0TgIW3DluNy8y6WaA'
  lat: 40.101131
  level: 8
  lon: -88.250539
  name:  'Hessel Park'
- ap: 7972
  img:  'http://lh6.ggpht.com/n0f7lyo15OzZn5IJHsohIGAA58iioentPZGEY4zeMZCCoX4GjEEkqfaTCIbrx9OnezriThnbFV14kYcwKTgL1g'
  lat: 40.098444
  level: 7
  lon: -88.248167
  name:  'Healthcare Not War Mural'
- ap: 7972
  img:  'http://lh5.ggpht.com/q-mJ2EvrjGn2PfbBh3Pl3XIGUyzTqxGjZmTMhn3k9_2Qi0S2hs3k2ZvpKb4kvt60AXHiyQdxqft5ZecPcg7x'
  lat: 40.098959
  level: 5
  lon: -88.250141
  name:  'Bob and Wilma Tinkham'
- ap: 7972
  img:  'http://lh3.ggpht.com/sisvfsphxy7AK_2qrrqb7lNJk3_7ciHSVJyodINYITBc-UqugyNOooCxKupgJKEg5m_x95eZwouSO2WCmN60ew'
  lat: 40.098579
  level: 8
  lon: -88.249603
  name:  'Chef Ra Memorial Plaque'
- ap: 7970
  img:  'http://lh4.ggpht.com/IM3Yvrk727rz6f1euz6nTpei6llE4E4oqn_l-WbxZIN3K6dF8pEa7wGKzbjqfr0DBRubxiNFztHBePH9-Iw'
  lat: 40.132147
  level: 5
  lon: -88.291251
  name:  'Staerkel Planetarium '
- ap: 7785
  img:  'http://lh3.ggpht.com/VrbXGwlUosNLEkVdshWUFoVa3KtlJQoEU4yLYygvftYbPCmxo644Uvar_v8Kb9RS53hB0tXgvV44GotrxZyu'
  lat: 40.098592
  level: 8
  lon: -88.251676
  name:  'Ruth and Fred Steigmann Plaque'
- ap: 7783
  img:  'http://lh4.ggpht.com/4_MOw_NKr2wZ2lzAzG2FlLtA3tfOfWqBZpNVP43LfN6ilD6qHRfZ-_wA1Xk8BnCqHKqKdqodC70X09pqtNXXqmNtK-uqo-fC9SZyOjT6ERfJorzg'
  lat: 40.118388
  level: 6
  lon: -88.245358
  name:  'Springer Cultural Center'
- ap: 7596
  img:  'http://lh5.ggpht.com/Tn5ARN-X6VTc2q6atZ2WYq3c2g3gbSGXu6_vXf1MDwHfLpdTtnQ-CilBAVGvL6R-SHhq3fJ4WZI-yiJKmIId'
  lat: 40.110398
  level: 5
  lon: -88.235143
  name:  'US Post Office, E Green St, Champaign'
- ap: 7259
  img:  'http://lh6.ggpht.com/mKnh6CvhOm_8Kn26lJTmk71nbwSMS-i9VJ45CR83Z8wB6Qn-9JAiyt1GEfrWKkv51a_y-lbN8pO6R1L5EZWfzw'
  lat: 40.117349
  level: 4
  lon: -88.244537
  name:  'Flower Island'
- ap: 7409
  img:  'http://lh4.ggpht.com/xS51--rXA9M_IHpXWgFQxKZU-YbD-1zk-nug6k7RyKl8rYeam_YFwMmLNWRRHHzI-rOTGyhTJQQ314WudSQJ'
  lat: 40.117132
  level: 7
  lon: -88.243009
  name:  'Fountain in the Alley'
- ap: 7409
  img:  'http://lh3.ggpht.com/PT4NTR04lFCXxqN8xnrhEQppaXrkIbW4n-WkUVikx4zfcqksHUun6eOqFNMG6c0UA_X97iSLI4EJTN5aHkf-aE-PnsYLjAgXkSjZEtL8BvQtGyg'
  lat: 40.112752
  level: 6
  lon: -88.196586
  name:  'Victory Park'
- ap: 7407
  img:  'http://lh4.ggpht.com/mnyMwxXghZOmxdJw2eJk5U9A5sfO_QLi0eKc2knF3RS3bJhiIa0N7N75KIzjEehKD3ChMFgaOHVRltiOVAw'
  lat: 40.125074
  level: 5
  lon: -88.251776
  name:  'Spalding Recreation Center'
- ap: 7222
  img:  'http://lh5.ggpht.com/wX6-mbTE7nT00T6ildapKbI5ZrnhPIt4l91DhMseyo3GYFrgQIuqbjh8ntZY6NxGZ-qa6fKWlyoBOPdIdNIt'
  lat: 40.114653
  level: 7
  lon: -88.243729
  name:  'The Phoenix'
- ap: 7222
  img:  'http://lh3.ggpht.com/CwgYIhVaivHHg_U6yqu5KSGhSh9ipRBDu7G192KiQfrnXc7C8uh7UOh6MP91vhZJ3LZdiTaFwpvFukvIaj6J'
  lat: 40.117445
  level: 5
  lon: -88.243409
  name:  'From Swords to Plowshares'
- ap: 7072
  img:  'http://lh5.ggpht.com/kDVKmp7jSlZ1o-7qOsCnRovJeghgXHZ8aCDs-HOlcHhrSbcYXNYN2IOODVgKVnUMF_i6KDi2h96TMWnnUlUl'
  lat: 40.117287
  level: 4
  lon: -88.242984
  name:  'Dandelion Mural'
- ap: 7222
  img:  'http://lh5.ggpht.com/tfAfnmo6mSMc6U0P533NMFJRGwn6lasmx-MLR2JJg1QOizMKkghFU8E7hb2zgYgdQEbgnCJUlvZIMdrrJe4'
  lat: 40.100822
  level: 8
  lon: -88.25193
  name:  'Seeds of Kindness Bench'
- ap: 7035
  img:  'http://lh6.ggpht.com/4K7T7_gGrfag_-Hep7ygH_rklKsjale4oo2CqJAFTpPB5EM4Dv8ZGyz7i_qUOuLnt16GWxDSJWCS8TZYyGY'
  lat: 40.115421
  level: 7
  lon: -88.243168
  name:  'Walnut Street Tea Co.'
- ap: 7035
  img:  'http://lh3.ggpht.com/oHMQr2Z5LayQFbZOwOZK4ZbYQ1OVxs85-qNTvSj8epsP72vQiOdrzVmkuMPFQtCSf9Rr0oqcnSLFjLn-sPw'
  lat: 40.116592
  level: 7
  lon: -88.243236
  name:  'Champaign City Bldg. Landmark Plaque'
- ap: 7035
  img:  'http://lh3.ggpht.com/J_h4tdb4wqy8bmmQfDuy5yqTR2IlkzKojfvsMOvlD-3tf1pKxbDlhA6W9Q8RX-JaSxhItMr4bmCxiUQXTLbz'
  lat: 40.10064
  level: 7
  lon: -88.24958
  name:  'Edward A. Cousins Plaque'
- ap: 7035
  img:  'http://lh6.ggpht.com/S7Utf4_59vQkAP5JhC3mdbzVLKBTt-0zoJ2UjfxUnN10VBbixO-_VwvssWd1LbFSx_yafaijd_U0wTGo870'
  lat: 40.100941
  level: 8
  lon: -88.251314
  name:  'Gabriel Patrick Maxeiner Memorial Plaque'
- ap: 7035
  img:  'http://lh3.ggpht.com/G1CvGhpethi5UmprDWxZN9rTblHa3anSsQz1UPgJtkREkfN7lDFoxFObst0609Cg5mofuZxJKr0ddNKhY4VL'
  lat: 40.098464
  level: 8
  lon: -88.251426
  name:  'Ruth Haasis Memorial'
- ap: 7035
  img:  'http://lh6.ggpht.com/YVbqGVTjJuDMDdj71CP2mWvnUIdgO25PgoDdJwEGnEE_M9I1aDgKyjSr9JOZVU6UQTZQtfUo9RAWyz92n3jtCQ'
  lat: 40.098475
  level: 7
  lon: -88.249208
  name:  'In Fond Memory of William Moore Jr'
- ap: 7035
  img:  'http://lh5.ggpht.com/8zq5tMevCiipZK8N9-8SZw3vdsA2HwH0E02ormQshGxHVZrB2WPK7OPC8zt6pjLlgpXVuEYHVA_08_Q8fPw-'
  lat: 40.099647
  level: 5
  lon: -88.249648
  name:  'Max Overmyer Memorial Playground'
- ap: 7035
  img:  'http://lh5.ggpht.com/CRkkFx_9jq2hCt1HtflqZDqCdmSG5MN88FV0rLXk1PZm7maZWzLTKZhjqlSKUx1Tg0tSB62l75w2VFsyUZI'
  lat: 40.09991
  level: 5
  lon: -88.249899
  name:  'Benjamin Biddle Memorial Plaque'
- ap: 7035
  img:  'http://lh5.ggpht.com/T0WLAJf0s4nu2Phxax31eu6pO6zNoA4JpvHMLyfMKttzJALEWB8EAWOziQwgjdWE3YjBbG1XjGYsgihqCSX9'
  lat: 40.100414
  level: 6
  lon: -88.249061
  name:  'Randy William Auteberry Memorial'
- ap: 7035
  img:  'http://lh5.ggpht.com/yEiiHAgbSW12_Cpdb0_ksVrjWt6yb6BFtEwm3wjzPJN68wl0QhkI_oaTXxM__Dud8x9jZitaHmpZHZNxDHrD'
  lat: 40.099056
  level: 5
  lon: -88.249136
  name:  '"Cricket" and Bob Barger Memorial'
- ap: 7035
  img:  'http://lh3.googleusercontent.com/Tixp17uCaP682s77UzvCwWCOE6vg7iB2qEFLjACq7xtVJdHE0K3yKYsl3_SwKbiUfQWwgTQRbvfka3U0NvNc'
  lat: 40.098819
  level: 5
  lon: -88.249214
  name:  'Bette McKown Honorary'
- ap: 7033
  img:  'http://lh6.ggpht.com/NH1CnJnblS1bpZxZJ0VxAHy0tYw7BiYdVK5V9KnTw0N1KMf8OFR6FZP01shVet9ha4cEfSYufO9a1bv8Sqyd'
  lat: 40.12142
  level: 5
  lon: -88.243105
  name:  'US Post Office, N Neil St, Champaign'
- ap: 6846
  img:  'http://lh5.ggpht.com/BoAN9OSCH5u7G1sestzZaXjjik82i-SteF6-r5KTTyl530q9H5G3ibjJdqpGGY-nL8MypRXn2twwvn_y5nMmug'
  lat: 40.133159
  level: 7
  lon: -88.28778
  name:  'Campus Solar System - Saturn'
- ap: 6846
  img:  'http://lh4.ggpht.com/FAqopsayR2vfoblDs12USLGHxH0S1lfng6IlvgMPO2k4a1fKXYQnDWf0Lbf3zAqLfMU0aGaHpSZxycRqft9pmQ'
  lat: 40.119381
  level: 6
  lon: -88.24555
  name:  'The Lodge on Hill'
- ap: 6846
  img:  'http://lh6.ggpht.com/1K0653ZxIuKpFDYjAXvWFkFii9HCrpkUZDascv0U6nSG3FskYCLjraQFxKX5q3QGemaoIvHBZzttiSoAvfs'
  lat: 40.084517
  level: 6
  lon: -88.249848
  name:  'Boulware Trail'
- ap: 6846
  img:  'http://lh4.ggpht.com/QwsEAxJxXih3pk0pVFqxU5BqHCY0sPesI5cs9qmw4rX55HG6-kHZC-0O_JV-ksx0rkRV7vbv4cNoCCqUGKe6NA'
  lat: 40.117334
  level: 6
  lon: -88.240517
  name:  'Glory Pipes 2.0'
- ap: 6846
  img:  'http://lh3.ggpht.com/CR1oyIMrhQAfPTgu8XecnRJCaZQPaxLxcYAxbg5uQ8trUjWE5PUfqrN-8mm4ccHrFPk5p0cO6kY1p4xZuQBelw'
  lat: 40.132482
  level: 5
  lon: -88.217217
  name:  'Jericho Missionary Baptist Church'
- ap: 6696
  img:  'http://lh4.ggpht.com/ryDcZUJK2aQ_fI0-hY850_t4ZmG2hNmtCx7cxbX83w3cnUWdI-ywpTuQrUVQNxGl3_DcxxNr6bupfDTsagRa'
  lat: 40.117107
  level: 4
  lon: -88.242467
  name:  'Radio Maria'
- ap: 6659
  img:  'http://lh4.ggpht.com/0UzQDuaKLiiPhEgEmKghfkzvXj6lROhxPIDJuI4nWLJFvdxJwGNcJZ1va0K_9cy4L2u0Zyeqv_qlIAwch5o'
  lat: 40.133475
  level: 6
  lon: -88.293988
  name:  'Parkhill Applied Technology Center'
- ap: 6659
  img:  'http://lh6.ggpht.com/f3cOUn1gqLkJZQzs4-Y9j6j2ZXbb1Kmzf3klCFzF8zmFSlZZ-B6O4-5t1KIX95jbYUjeqMgOohEf1ilF75Uqyw'
  lat: 40.132777
  level: 7
  lon: -88.287351
  name:  'Parkland College Prairie Restoration Reserve'
- ap: 6659
  img:  'http://lh3.ggpht.com/ykBYPl8Bo1p_kEXn-mEqhg3k6_885_hOQ2G2hi9b_kDcmiGHWz3L0t1c_Gi2ZIkzlHhyfqh0hgIM_uuZ4Dk'
  lat: 40.117519
  level: 6
  lon: -88.240577
  name:  'Spiral Flight'
- ap: 6659
  img:  'http://lh5.ggpht.com/RsXj0S9rbD_i4VFZmhxJtNtmwEeJOoYsmM8wyu90kB6srZMfUskP6iqrTY9eqFNQhhQrU50k92lCH4JEQ2w'
  lat: 40.127358
  level: 8
  lon: -88.243851
  name:  'Stanchion'
- ap: 6659
  img:  'http://lh5.ggpht.com/oCw3ZC6UKF3aiK6dkbz72dhzUsJNhOmfVjVsXJET_YP5e1p53pLTa8Dep24gLqeY9FghWE0kaAB64vvn7nq0'
  lat: 40.105008
  level: 8
  lon: -88.243265
  name:  'McCollum Park Peacock'
- ap: 6472
  img:  'http://lh4.ggpht.com/mlUN5QXAR7rKFvUg7yhxcae3udkR7zCJVaWt5sq_YA47piV6tRi42RNN9fEtT_FafT7lhqg26WM1VETbz5E'
  lat: 40.098239
  level: 6
  lon: -88.25376
  name:  'Hessel Park Christian Reformed Church'
- ap: 6472
  img:  'http://lh4.ggpht.com/DJiaqGgwCaKSjYczELIcjQOeBtoEqd--7TZYBJWO9_Nd16vjKwlco9tKatJTdAKT1CPoO7Cj39_rZvp8p0Ch'
  lat: 40.087241
  level: 7
  lon: -88.248222
  name:  'NCSA Blue Waters'
- ap: 6472
  img:  'http://lh6.ggpht.com/5m_DdlbswQXPJueGjlDknXPY3RqwtwdrWAsNLBfbSNENcdAw3oafNYp_YTPk5KmZZpY5M4zwdxKoE9Tq5kDv'
  lat: 40.118985
  level: 6
  lon: -88.245285
  name:  'The Little Brick Memorial'
- ap: 6472
  img:  'http://lh4.ggpht.com/PfcTU4XsA06ThtmCWydIWhTsN3gR4jrqnrKxu0O5lhyibhRdKMEaf3jM8VNhViF8qLf13b01E71wr_ajxn0'
  lat: 40.118465
  level: 7
  lon: -88.245077
  name:  'Mural at Nitaya'
- ap: 6472
  img:  'http://lh3.ggpht.com/KxQsev6i7POmNh1IadCWwWQSMdCuLIYpPwIdenSlVtzum523D1R-1kfeTbuOGTkt_jDwn4jswCu1edkumm2-'
  lat: 40.110037
  level: 7
  lon: -88.23549
  name:  'Red Lion'
- ap: 6472
  img:  'http://lh3.googleusercontent.com/ZEt3dzGoBmn_BW1MwPTE7MY4Jcoj66UkwEA7wA7H40hbb-SwJheC1V67Dh89eAbpG6H_SeWDV3E0X5lRAkQ'
  lat: 40.111342
  level: 6
  lon: -88.23557
  name:  'Boneyard Greenway'
- ap: 6472
  img:  'http://lh5.ggpht.com/4eagHlnlpVbtFi_knZN73PIs2A--Ipj6SOlkQADePlfnzfOnJn-cAv0IoNNv4qR8WrbUFImUKHBknyaoAewO'
  lat: 40.111383
  level: 5
  lon: -88.225675
  name:  'Only Rain Down The Drain'
- ap: 6472
  img:  'http://lh5.ggpht.com/X8fMC6BEd-s7yEaLcZgy9h_jsPOyLnqtyUSQXq-f0-8tddmWEfww8biVS0z223PMPQNhXHt3TuCOP4zDqXi4mA'
  lat: 40.111425
  level: 4
  lon: -88.196843
  name:  'Tulip Tree Plaque'
- ap: 6285
  img:  'http://lh3.ggpht.com/yeYI3q7rDQLA5xBcWfH-Caw2Uh740ZPRQjjyvOrZz7ZyLI-gxBpi8yqxqDrlOBzG9YHs6YlxdgX0obTpXlQ'
  lat: 40.117681
  level: 5
  lon: -88.241405
  name:  'Jupiter''s Downtown'
- ap: 6285
  img:  'http://lh6.ggpht.com/XsUl74M1oxj6ptAvGEBOMH2wivRhxBNns62UJSGcPiQkuJIgPrmUYxMpSZZUfXRMMjrwoxlFK_DbAM78UrOh'
  lat: 40.113499
  level: 5
  lon: -88.244374
  name:  'Shatterglass Studios Mural'
- ap: 6285
  img:  'http://lh5.ggpht.com/KadNuhjGK6FUXezGHW1W1kfPOQV5l7gJP594EQm5nPZFLTgcTsjl4ixa-j7XitgtyJyou3q0pTfMr4i2E_avIA'
  lat: 40.118013
  level: 6
  lon: -88.243445
  name:  'Clock at Neil and Main'
- ap: 6285
  img:  'http://lh4.ggpht.com/1BgYrJYdcGdepVZ6ibhTjtjZ6MyzKnQzLL4wxEnn_CEPnrJmOKHzPXm1qinGRA78MqKq11gKRlprm3Z7mDr0'
  lat: 40.115645
  level: 5
  lon: -88.243036
  name:  'The Art Party Studio'
- ap: 6285
  img:  'http://lh4.ggpht.com/XlTZ26_29c4-74t23p1lgghqNfLI7aS3_kradmcl7vVQzV9jJRu78D1HdzJf-sWibnak644kxCBJDnA594PVaw'
  lat: 40.092849
  level: 6
  lon: -88.251586
  name:  'Boulware Trail'
- ap: 6285
  img:  'http://lh4.ggpht.com/DvS6go5Krx0CocEL5s29eIW_bm_5HDMdSrRgfi7i3uLEXMkzxPLKWMX24OvVm9geOAeqRlmoqv4HQWwH-d_vfg'
  lat: 40.11075
  level: 5
  lon: -88.198278
  name:  'Urbana Baha''i Center'
- ap: 6283
  img:  'http://lh4.ggpht.com/0JuC7vEVtmbgkx1FUhaTylcKfKuYoGNdW2P5GNZzGbeOzxEH0Q-9gP9gmmBzx2bkLNA0dnw9FiEJYiHjWXM'
  lat: 40.121329
  level: 8
  lon: -88.24558
  name:  'The Gregory'
- ap: 6283
  img:  'http://lh3.ggpht.com/nYd-393_D14GP4fiHeIzBxBwiribibe3KkVkqwo0A2KaBz3imkWBgyq_wiisXL0-RLbEESu9vTa02HbR5KcMQw'
  lat: 40.092652
  level: 4
  lon: -88.240341
  name:  'Buffalo Billiam'
- ap: 6098
  img:  'http://lh5.ggpht.com/HhVreJipNvxPRVFpmsh2BPo9PcpPO2Q2l3jCpDjIKgfKGycoTNPXR4DKiYccBXW4X-4dJf_vV0ESsWAWHcChsg'
  lat: 40.100936
  level: 8
  lon: -88.250855
  name:  'Donald F. Bresnan Memorial'
- ap: 6098
  img:  'http://lh4.ggpht.com/PHV-1ZpFzCAl_ViCKwBY_x2pIDbVyaT7wJH1sTvFJCxrSdRrO1x7NaXq9OdRGwz_Mls4iwk6wuGHMBArfV54'
  lat: 40.098688
  level: 7
  lon: -88.25063
  name:  '"New Holland Yellow Dinosaurs" at Hessel Park'
- ap: 6098
  img:  'http://lh6.ggpht.com/f43AXqkZOVuig6JgnORI4vC7QZWr2a0lnTW39-gMaRiWW13AuK6U0ZSoFc1k6xi2YvZU6ad6EC-xTq404ZM'
  lat: 40.103258
  level: 6
  lon: -88.241752
  name:  'Medical Services'
- ap: 6098
  img:  'http://lh6.ggpht.com/qSCp5fQMlyCQ-GOAgiSFy5gaHJei705Pa3eOlJiYO5wGjZTYtjA8q7QWWfAWcLKjxZSaFiMfXOPR8SO7rWU'
  lat: 40.099353
  level: 8
  lon: -88.251876
  name:  'Raymond B. Cattell Memorial'
- ap: 6098
  img:  'http://lh5.ggpht.com/aeGh3iXJqJ7skg-2JHEpngMSfcp1qDIEPoLMxzQNqbS5Y7HcxN7oE789bXiVFoFIcdCn7-3AhLPtxT_WE2E'
  lat: 40.0985
  level: 8
  lon: -88.248681
  name:  'Siti Sculpture'
- ap: 6098
  img:  'http://lh3.ggpht.com/8FqlniFErK7cq59awiT84u8KyV4FIRd5krZzfYa58zJToFps7whdBnriPqvO_kFKeLUE3SWbJhCOPuvUQzaGFA'
  lat: 40.100691
  level: 8
  lon: -88.251337
  name:  'In Loving Memory of Zeus'
- ap: 6098
  img:  'http://lh3.ggpht.com/-xag7tp3BReTAhfRmVAvpMw1Af15prESg4rve7QnsiIC5IKmKjBszxDIj8F212BmRU1apH_2u_9wAmq58_91'
  lat: 40.114157
  level: 7
  lon: -88.238621
  name:  'Bombay Indian Grill'
- ap: 6098
  img:  'http://lh5.ggpht.com/f1O8bFXHTg2PTOAUVLvrqk5xx5ps9SeqhpJ1RIPtSxm0I-e7J275e2ujJp3lFQGHUBW_vS90KOsrcdLDJ84l4g'
  lat: 40.110797
  level: 6
  lon: -88.225321
  name:  'Multiphase Fluid Dynamics Plaque'
- ap: 6096
  img:  'http://lh4.ggpht.com/AC0e3VVFenyh_tf4lpcee6alCTlto3O4cqychnUlTFCiLaMi6RUVh6BAC1-pjf7f7foTLFALejQiRxf1kKtS'
  lat: 40.104417
  level: 7
  lon: -88.24332
  name:  'Wayland Smith Estate Garden'
- ap: 6096
  img:  'http://lh5.ggpht.com/yK94cjys6dDm62pDsBwEKJP8ioxZEFbb2oelmT5ZMmaNZPkqAXW00NHP3_7fvtyG796u2ZhKGfbY7To9Sdtz'
  lat: 40.088063
  level: 7
  lon: -88.248271
  name:  'Still Waters'
- ap: 6096
  img:  'http://lh6.ggpht.com/yYW6Egg1lWn6UqqLzlgqwCQhtbuxiZSW4TmvI1XBPs33OTTJ0oh51XZXOIILxGI2juoO-E_YfG5UHmeb34rSOw'
  lat: 40.109165
  level: 7
  lon: -88.230269
  name:  'John Street Plaque'
- ap: 5909
  img:  'http://lh4.ggpht.com/ln3YbdhkDSQ19t2mM9P_UcuQQA67KZkxL5aFii6BK7359DmhZ_z7Zk_GHQ0XQDLl8X3UnUr0lhnCkOlv6lwl'
  lat: 40.125825
  level: 6
  lon: -88.244671
  name:  'Randolph Street Community Garden'
- ap: 5909
  img:  'http://lh5.ggpht.com/_Tp5JJFIIlt0iHHyC_A_gnEm1sxUEKDHmQr0oby74HL0rnFZ5JrnuvOTPk6_vulsU_GJue_7RAAX2Y7I2Wxw4A'
  lat: 40.132354
  level: 5
  lon: -88.292578
  name:  'Campus Solar System - Venus'
- ap: 5909
  img:  'http://lh4.ggpht.com/2JNDO54Hu2KzjIaEeCIFVgD7gEa5VXNBsIemFYp6cgiTUbsSpOwLTc-HqZb__uut24jHpVnQVokRVtL00ozu'
  lat: 40.132056
  level: 5
  lon: -88.292671
  name:  'Campus Solar System - Mercury'
- ap: 5909
  img:  'http://lh3.ggpht.com/-HtfCPsl6TBR07OSYeO879iOvq7SdMYFxEnoERPL5FVgGJEwLdiysHzEBNfVhjVLVD6bohjNTro7bbSOwgvj'
  lat: 40.094638
  level: 5
  lon: -88.241532
  name:  'National Petascale Computing Facility'
- ap: 5909
  img:  'http://lh4.ggpht.com/ik1uVZ-KWyRH4dh51LJI7gFmnM7bmfSZ-1YqfELbVQEvuo-gEx2QpG6jQpFPeAlFPi2rVPAuzRmXMD0Whsm2HA'
  lat: 40.122038
  level: 7
  lon: -88.245318
  name:  'The Old Residential Block'
- ap: 5909
  img:  'http://lh3.googleusercontent.com/78s4UE5PKzAAG8LQc8bJPPLK30nagQnB2-jzX2y9vVVAjUMejMsBGSAKck17bjgbH1Lndna45c3l7i6tR3A4'
  lat: 40.112908
  level: 6
  lon: -88.237287
  name:  'Stone Arch Bridge'
- ap: 5909
  img:  'http://lh3.googleusercontent.com/erdNDM4HaNMn_EeFz0IoM_0LQWykLGJ1Y7-URXSvEithPHs8Rnwf7oWZyxVKu7qOpPdKjeeCy3dkywZ7n6KrsA'
  lat: 40.111615
  level: 7
  lon: -88.235593
  name:  'Fred B Lamb Trail'
- ap: 5722
  img:  'http://lh6.ggpht.com/WVVbmiu2GGTnPTszcnYYILHKlkZDoxB-QY6Yv7YPoUfdVn92jYnKjpVKNkfWdFrPjq-BaFeKGJWLZlE-bbA'
  lat: 40.120467
  level: 7
  lon: -88.2577
  name:  'Salvation Army Church'
- ap: 5722
  img:  'http://lh4.ggpht.com/W2chhQwPqSJEkl57NVoIL-OE4KFvJfp7Bsrrxza1apCYltcT3npz95LJxqHxvT9ZZu7wxF2gQy-5bpKal2p2'
  lat: 40.115838
  level: 5
  lon: -88.241338
  name:  'Illinois Terminal'
- ap: 5722
  img:  'http://lh5.ggpht.com/9XV46K2cUd84oc6HPyqlj53LKJS8lVs0f0gPHSCBkkTwiHaxivu36dlAj5M38EzK-2U4xhvZJ7AiVvGM5yk'
  lat: 40.118175
  level: 7
  lon: -88.244562
  name:  'The Russell Building'
- ap: 5722
  img:  'http://lh6.ggpht.com/UHh6R5Pfoiuw4sX96l-GNlhyni2EhPOuuEfaN9oWYLEs8qV6pfLkQugcY8yhMRq01gHqUu5GqKOA6bt9t2NfFQ'
  lat: 40.104458
  level: 6
  lon: -88.239125
  name:  'Delta Chi'
- ap: 5722
  img:  'http://lh5.ggpht.com/LLVKvcsTaSPmGBzaGFrvYIV4RhGzb6LqC_npAarehd2aLZSaVhjGzQV6T63Ke07reCQzO-GoZXmEfwZMOcM'
  lat: 40.110569
  level: 7
  lon: -88.226784
  name:  'Cubist Art at MSEB'
- ap: 5535
  img:  'http://lh4.ggpht.com/qj7RZgjywjmhALnf1YyB5hWBrpO3hxjXZJdOzfE7YYV0p_vq9KA8GrgL9SfBHf_Ry3MVzMy1iJ6pAOkYL_lT'
  lat: 40.119118
  level: 6
  lon: -88.24584
  name:  'Amvets Post 3'
- ap: 5535
  img:  'http://lh6.ggpht.com/Ga3KqqKjCVdJ61URIBqkyBWPxV3xirqZoKzANDZmHeorlcqipmRLJFOy4-GmWU_2_783_KDPu3hkA0PNh5s'
  lat: 40.124082
  level: 7
  lon: -88.243434
  name:  'Theb Sculpture'
- ap: 5535
  img:  'http://lh3.ggpht.com/_K7sIxE489M-QkUoRrgaLB_XBi9BcOI563VzvhOcmhjwHsLO51ORrhkiWZkqThKNBlPAYzclT_qdR_sGe8g'
  lat: 40.114277
  level: 7
  lon: -88.238879
  name:  'Prow 2'
- ap: 5535
  img:  'http://lh3.googleusercontent.com/W5PjcRhelt3420IFjpSdOXtmIiv0M99Qv9Xupe6lckHDJDW4zHE9GyACkz8wXBF0_OIO2Jex9d7S8UQ4FJLa'
  lat: 40.118361
  level: 7
  lon: -88.244573
  name:  'Art Theater'
- ap: 5535
  img:  'http://lh5.ggpht.com/nirQKdy3s9r8TSV7cB7_B0l-0EsFXBkg1aitH05R0ttPhOEewGxlq1GRnlDvYFT2V8Z91hWnB9YD3WjxBvyZ'
  lat: 40.11868
  level: 6
  lon: -88.243426
  name:  '"Pointless"'
- ap: 5535
  img:  'http://lh3.ggpht.com/bltQwmnzp2vSKYhLpzNLqB4iddy6ie0kWk9G7Wce4U9qmW3CABxbXAhF7v0oG9QLFD2q57UZuVqZCMgN3MHZfA'
  lat: 40.118335
  level: 6
  lon: -88.243408
  name:  'Downtown Fountain'
- ap: 5535
  img:  'http://lh5.ggpht.com/Sgu5qG2Ltp9axQc8nEr3fJ_qvNo6-gwd5TuKMrk2LM9d5P7DDy0oCoWiGnr6Ybp84FGMh9DQYLnFtBTZtBIm'
  lat: 40.113606
  level: 6
  lon: -88.243766
  name:  'Mural on South Neil St.'
- ap: 5535
  img:  'http://lh3.ggpht.com/tXDyz6XRrR2AKSg9Rrj1z6jBG4dz7uR9qFmSUO1bWljMEw67ncNiq-2Hx3O9Fs029iRtvCV1gdlGN7pG69L0'
  lat: 40.114104
  level: 7
  lon: -88.237694
  name:  'Lo Park Fountain'
- ap: 5535
  img:  'http://lh4.ggpht.com/maBwz4G9LJZ5aVuX_WF1Z73xSbqoFsm3l6oyrNQ16LkJMvaEbFa-amdfCpKDVDe7NzjReNu8IGnn7BAI8yef'
  lat: 40.103534
  level: 8
  lon: -88.243478
  name:  'McCollum Park'
- ap: 5535
  img:  'http://lh4.ggpht.com/Gyz7BDhWdUinBQfD8duByX5-aBgPmB9oSesH20dH8uGJnTiaIHkeRJARtH6YQUUD5A5X2IjPTlT989AfutNc'
  lat: 40.092773
  level: 6
  lon: -88.250951
  name:  'William C. Fox Waterway'
- ap: 5535
  img:  'http://lh6.ggpht.com/3Z_ahLKZKpEJ_5dh8wG1jTBp6wvIadDrU8lnAkZ4flL_mtxKtbh2HxixutEK3usEaP47L6jU0VA1by70WIuJ'
  lat: 40.110984
  level: 4
  lon: -88.196857
  name:  'Victory Park South Entrance'
- ap: 5533
  img:  'http://lh4.ggpht.com/IAi2A1ukQunZaoCY1OUJnvZC_MAEjnYzlg7vcsIuPQyLIB710_5ueVQ3El8Pok0aNvlB18-Tdo1euhYbaf0'
  lat: 40.115224
  level: 5
  lon: -88.24957
  name:  'Linda M. Wesolowski Memorial Sign'
- ap: 5348
  img:  'http://lh3.ggpht.com/PKHUaHtGQlwpb8q3mUpPJtjb51_am_ieb_9X0u8g1PI_eg7NxFQU2fqeV8XjnIIDy0rCMtqsfMJLerOBo8M'
  lat: 40.118579
  level: 7
  lon: -88.244588
  name:  'Mural on Art Theatre'
- ap: 5348
  img:  'http://lh6.ggpht.com/cZVUlNaHjfsB6Lu5hnj8JjUk4lvsgOV7DFz4Nl47-RaQObW1VPRpos6hTDD6WgYrNxCh9UKfn5DFU-K7lRe9pQ'
  lat: 40.1164
  level: 6
  lon: -88.242747
  name:  'Sidewalk Art'
- ap: 5348
  img:  'http://lh3.ggpht.com/-MRGQEVV5mNMzB4sb8JAsgVC56kTzYaFEf3mpRsfXAiO4KIrLw3LGFkt7Au97yDwY-AUSfghHcri53Zpmn-Z4Q'
  lat: 40.11621
  level: 7
  lon: -88.242535
  name:  'Inman Building Historic Plaque'
- ap: 5348
  img:  'http://lh4.ggpht.com/3gTAX6rKgNjLmBOYvAVTgSPQej5yRF_38uRllp9H4n5N6pvwWo5kDMDwlIkFVPPl30BXPSGAlZ9pO9B4DMk'
  lat: 40.116218
  level: 5
  lon: -88.242141
  name:  'Live Action Games'
- ap: 5161
  img:  'http://lh6.ggpht.com/btym2_WGYuFNu2SNiR8qif7GXLMOPT7XpuHE7RPOipPC9Q5lEPfImKAzf2vm9RUe2rN0u3TePq4pM0IuZiLS'
  lat: 40.116436
  level: 7
  lon: -88.243459
  name:  'Champaign City Building'
- ap: 5161
  img:  'http://lh4.ggpht.com/B_I1b0Jy3vW41RX8jjCNPP68AULplU0Pf8ddolyKmpEWCfBVShQkmjF1HfTPzDjmBBQGgOs0jHW-rUR0mv8BkA'
  lat: 40.098789
  level: 8
  lon: -88.251685
  name:  'Curtis William McKinney Memorial'
- ap: 5159
  img:  'http://lh3.ggpht.com/2bCNiD7SWsS3uzFLMO2cZh-LpHUEMQGnfTmcNx5vJapXho2TuXke630-7zop2Sq4fuY8nWVqy4VCG23mvnIJ'
  lat: 40.104168
  level: 8
  lon: -88.238808
  name:  'Alpha Gamma Rho'
- ap: 4972
  img:  'http://lh5.ggpht.com/pSVHjk6puyYdv3ztHlpJGnbkZyGsGsirMnxkDhlt8UMko4AhtTQbrzwInBCu5lK4Ttf7furE5pNW2AZh8HuSZQ'
  lat: 40.138109
  level: 7
  lon: -88.270158
  name:  'Glory Center International Church'
- ap: 4972
  img:  'http://lh4.ggpht.com/53avgB1jGEftJ9eyV5l3nee16yHgYDAXkZoonzyXO3mwPLijOgz1uOtcxfKdCaRzaBqW-BQ4ft-Od3uZnja8'
  lat: 40.118436
  level: 6
  lon: -88.26383
  name:  'Davidson Park'
- ap: 4785
  img:  'http://lh4.ggpht.com/GcCZ7JTzkEHTZnUWfpUgibDh2Wa4nzGM9-k13AG4I2RwFiPa6exz1vCzj7Hwvf_oPwJvYJt0xoRE6GZXmCMX'
  lat: 40.132625
  level: 5
  lon: -88.292636
  name:  'Campus Solar System - Earth'
- ap: 4785
  img:  'http://lh4.ggpht.com/vbIH-PkUCBuwDTIRXA4p5jtGQ86SqYlc1e-g3Y9Ef2zaSb0ozkDD41Iq51orLhtPyShj4UzC6CPn0Unt8SY'
  lat: 40.145108
  level: 6
  lon: -88.260083
  name:  'Historic Interpretive Map of Champaign'
- ap: 4785
  img:  'http://lh5.ggpht.com/H88EzgVTAsWrhBcyG4PwdAbPDu4BLlyXkVIBnJ6gtmNusC2MU2vLumSrYGbl_7GmGJ7f5kE-6ebyy_VokU0L'
  lat: 40.107512
  level: 7
  lon: -88.244964
  name:  'Fellowship Circle'
- ap: 4785
  img:  'http://lh3.ggpht.com/xx2cD47rj0xUKO7q4YpTX_BdojpMt5E_TmbeJ4zRwvw3dwaQwY4I6B54OreMj0zqdsGgI15rgM3br0h_e5B4'
  lat: 40.09265
  level: 4
  lon: -88.240033
  name:  'Illinois Natural History Survey'
- ap: 4785
  img:  'http://lh3.ggpht.com/my_h4qixFMd6jwP9asxucVH5iZ3ZW1oV4DbCKeys_8MAAp1-KYNV0YFzZtZTEd9L0ZaMl1OqucHJTPdwROI'
  lat: 40.127447
  level: 7
  lon: -88.244069
  name:  'Hazel Park Playground Dedication Plaque'
- ap: 4785
  img:  'http://lh3.ggpht.com/X30u-Y3JoCurNlH3pvt-DlJeV7obUlOeBDbH-tkN6QcPEHvknjSz3nYF8EGtXWani_tyNgcyl2naDFhje8E'
  lat: 40.083706
  level: 5
  lon: -88.251419
  name:  'Harlan E. Moore Park'
- ap: 4785
  img:  'http://lh5.ggpht.com/Lup2et0i5h8oHqtBffIdoyX5uclC2MBn9ZnnKnYPr4RIFSflf9bi78zBHK7QqycA0qgEev9qOk0zU-1o1hg'
  lat: 40.108451
  level: 6
  lon: -88.228733
  name:  'The Centennial Colophon'
- ap: 4598
  img:  'http://lh4.ggpht.com/EbBkWl7u8IzfuSOKbXTBKdMileYrjubgGK5MOwxzEGIDtOO8oYloK2Mh-oe6t3SLxiC4Dul0W7en-SG0hw4'
  lat: 40.124346
  level: 7
  lon: -88.243367
  name:  'Bannon Mini Park'
- ap: 4598
  img:  'http://lh3.ggpht.com/0IkSOblVdAgYOJ2Bk2QqvqWjdstWNQgp7g9oSz1Sq70jG6cLusjwYW76irF9h-c7cafatMcyGsjw85xwYgPQyw'
  lat: 40.118353
  level: 7
  lon: -88.246658
  name:  'First United Methodist Church'
- ap: 4598
  img:  'http://lh6.ggpht.com/EiNXerTyRNFVC9pti48SExCtqR9p6t3-Xne_jw2YB90-VjUeJ3KGX8Se436SNVkFb5wOw0N7CKCz9brOeVg6WQ'
  lat: 40.117802
  level: 3
  lon: -88.249547
  name:  'Warren and Mary Filer Memorial'
- ap: 4598
  img:  'http://lh3.ggpht.com/5iH9kzVECg-dsKRPYTzLzAT5eoYnDhGrcJB1N-hLShal9eEun1_Ml0oFX2c42cGNjKj8-yvsEnUn2j4C_90'
  lat: 40.11792
  level: 4
  lon: -88.249845
  name:  'Thomas R. Sandrock'
- ap: 4598
  img:  'http://lh5.ggpht.com/ONr7OWgjlaWwJELaKTJEC1ZVpkIkuN-2c01D2AligYZC9Zbt8lH0SMkirhrWfHdjmVDmCtzhJWoVxoZM-NM'
  lat: 40.116766
  level: 4
  lon: -88.247614
  name:  'Mary Shaw Memorial Tree'
- ap: 4598
  img:  'http://lh4.ggpht.com/nWSZEVnpEj78GBs58tujBturUcAqKjsgYU_9v_qXRS_K_ROKLNgBwnqKopJse169VJqqWtn6oo3h_qABlaw'
  lat: 40.117571
  level: 6
  lon: -88.240851
  name:  'The Highdive'
- ap: 4598
  img:  'http://lh3.googleusercontent.com/0sr-qQ4Z1TW1AZ62RFHko9Cbb8g36Renb3nRyxFJr_r68iVMsuh_EwrbThhXg2hVyqNQSjX7rFVvrWpfHS4'
  lat: 40.103958
  level: 7
  lon: -88.240451
  name:  'Bruce D. Nesbit African American Cultural Center'
- ap: 4598
  img:  'http://lh3.googleusercontent.com/DJEd6b3-MwXXA5oX_rKCuAtk2dlQ1yS2p9nG8oDmc86DmbzFvhKsP-KR9nKAzn84UUf_K5LjjTMgrt7AjCoU'
  lat: 40.110853
  level: 4
  lon: -88.238339
  name:  'Boneyard Greenway'
- ap: 4598
  img:  'http://lh5.ggpht.com/qq3QmeyCYxWnJF_DzzI5wVvHF4foNyr_bF3_j5eVPHJ1omSbD2INOifPJEO3pjz4X1l4_wMGD4uOT1_w6Tid'
  lat: 40.086713
  level: 6
  lon: -88.248293
  name:  'Garden Patio'
- ap: 4598
  img:  'http://lh4.ggpht.com/HEEvU2OlgWiV5huAu3cvNKaI-C8YKYTO3qB8WMTO7EbsjTO84KS6jLjbGCq7THZq6l63UiUKCSEqY2IADYns'
  lat: 40.091766
  level: 5
  lon: -88.250003
  name:  '"The Cranes" at Fox Corporate Center'
- ap: 4598
  img:  'http://lh3.ggpht.com/LR76HrJqriPFUoc2XSs7jb2SotnStZv20kI7rgUx8B5HqhmetnTW4MA1tCp1ws4g5gw0sf9g7M3Lwq4VwfpD'
  lat: 40.111687
  level: 5
  lon: -88.225353
  name:  'Transportation Building - University Of Illinois'
- ap: 4373
  img:  'http://lh3.ggpht.com/9nRBPBevoSH63TqH_TIguV2jgvD-cPd6EMEg6i9iTDzR_ciJpmWoK-FK3WDc0M9qnBhPQjn7uZEMwAT9icqY'
  lat: 40.112227
  level: 1
  lon: -88.196705
  name:  'Victory Park Neighborhood Gardens'
- ap: 4411
  img:  'http://lh4.ggpht.com/XmQtS5vWS277-auG5r5x80jUieF2311Xfv6rWkYqVBZ3wz2cqxRtgabyzOhXn0fCpSpDD6Y_CFd9Rzti4eqj'
  lat: 40.148874
  level: 7
  lon: -88.268577
  name:  'Newt Dodds Tennis Center'
- ap: 4411
  img:  'http://lh3.ggpht.com/O-DGELnJZNJ5CXEaU3N0dzBK_ZVUUnTe6ey0TMrxXnXS1aXD9xo662l9u-8O6f3472F8hgDnW-wwDQ29XUYuyw'
  lat: 40.115941
  level: 3
  lon: -88.258345
  name:  'Trevett  Finch Park Historical Site'
- ap: 4411
  img:  'http://lh6.ggpht.com/ea6HxAw7m0OhhPqJJkZR9u60pR1sab_JdxaOyEltqmQd-63FFJzPY72jEnu08g9Gcjjj5cf3jyyS_M1E7OIbfg'
  lat: 40.11616
  level: 5
  lon: -88.241422
  name:  'It''s A Mistree'
- ap: 4411
  img:  'http://lh3.ggpht.com/1G0o5RjtXyfAjbI-E2honhhelnuiq4lIkpHmB44e-AwSBuIxVOdLPVYjImbTMS8kyBdZuKuiMQHciUIdAWg'
  lat: 40.118368
  level: 6
  lon: -88.243737
  name:  'Frank Robeson Memorial'
- ap: 4411
  img:  'http://lh5.ggpht.com/6qIQAtIoPbAVQ1O3BoOnGg6gtTa9fd0JIkxt6P1kmSimVswLaPpCRaLEudsNcMfP_kKb4SCE1By1o3lhYevmIA'
  lat: 40.1172
  level: 7
  lon: -88.243745
  name:  'Circle of Friends'
- ap: 4036
  img:  'http://lh4.ggpht.com/1viU2QjcAXgQcuyp6MBKY1751-1JGn5AfSHPcgvBGNOyXrKvvAXsCUrrW9_0w9LjaeyscKqh8v2rrMp3Gxoaeg'
  lat: 40.117134
  level: 1
  lon: -88.244337
  name:  'Downtown Flower Island'
- ap: 4411
  img:  'http://lh5.ggpht.com/FeG7Xn052FyJtG43yF0j2iYs3BdENjAx_oZUTzI70y4H0qeexU7B8NrXaT20cmXSKwnWV8xFSc3OlG_KQU09pE8fyCAYXWWPbTzC0_GZ1aynCFni'
  lat: 40.116185
  level: 7
  lon: -88.243429
  name:  'C.V. Lloyde'
- ap: 4411
  img:  'http://lh6.ggpht.com/D-AymiJdf5gt94o_wgUJbOD9Fpl4V7PijJOjkztpP0_J2k82i1TBLDAaqcH_SUTUFe9VlllfQCsXFg_J0uAPeA'
  lat: 40.11569
  level: 6
  lon: -88.243433
  name:  'Christ Community Church'
- ap: 4411
  img:  'http://lh6.ggpht.com/tEtHQ3gjXHp940OLn9txVBSOCdT8UfYUs3C29Cgx6HiCLrS3KBboU3Wms2rEVMQWEf7lf67xfK7MIUmimDw'
  lat: 40.116631
  level: 4
  lon: -88.247334
  name:  'Jack C. Richmond Lion''s Club Bench'
- ap: 4411
  img:  'http://lh4.ggpht.com/LukOnZPQdxTvyW2kKwpCrzH9PWuOtO6LZyu0jeZSt8ijAhlA0l-3oYZ_m0HbPoF316Mhgbh-SaZNKtmX82c'
  lat: 40.11814
  level: 5
  lon: -88.249887
  name:  'Silver Cloud Oakley Washburn, Jr.'
- ap: 4411
  img:  'http://lh6.ggpht.com/yjfa0jJLjsfLRf9Zn9iafMp3MuIhgCi0WiOCF8GqTGiGvzEnsPGrFa0H1n-uzWhVehLbt44ShthsA32VzHd5iQ'
  lat: 40.099737
  level: 8
  lon: -88.251157
  name:  'Tyler Van Atkins Memorial'
- ap: 4411
  img:  'http://lh5.ggpht.com/N1cFx79JwZqPlYPDW3HkNwRX8N4Auriii45qzYkAx9l-cKeK81qgZ6nuBpTBEIOyLzy4aIIhQKt2E7ZiysSjkg'
  lat: 40.10036
  level: 8
  lon: -88.250515
  name:  'Mark Foutch Pavilion'
- ap: 4411
  img:  'http://lh3.ggpht.com/Jjm7ZUINFebdUQM0ZQth9oP9Uyw8xFVkOvgyZHQPHJ1pHk0-WPWHpdBULljg6f9GLhbmItzSwpavqyrf1zXwIQ'
  lat: 40.087721
  level: 7
  lon: -88.248276
  name:  'Work And Play'
- ap: 4411
  img:  'http://lh6.ggpht.com/j712bbvDknzGlAU87nZA1Bx45Ng-0MGA9Uvuv-3WzIKA3W51mXOZpJ-TzVSbuU3uE2AsJ5wcO7_B6WDpdRr0'
  lat: 40.110684
  level: 7
  lon: -88.226053
  name:  'BCS Superconductivity Theory Plaque'
- ap: 4411
  img:  'http://lh5.ggpht.com/3RfiPeOzF67ubNX-vkwUJ6-EYld6BKuoBernq0_9kOjlIsSPr3saR9FIQzN7uiw7ouF0CpNflOnL0mUj9zbqdQ'
  lat: 40.109452
  level: 6
  lon: -88.229031
  name:  'Illini Hall'
- ap: 4411
  img:  'http://lh5.ggpht.com/1yq3oFq9p_Yl5cUf5h7IEfZPAbae2MT7lA0DFo1DHwPWPZJJ-Ez-2AE2oTzHEHWsEJQVUcUwh3j_d3kOYgDS'
  lat: 40.110095
  level: 7
  lon: -88.22862
  name:  'Alma Mater Plaza'
- ap: 4411
  img:  'http://lh6.ggpht.com/jzcknzJD--LvlqQqPBMjG5p5MOsy0bVOqavN3G5IS_o5-rYQyZDSv-dIiYpewV2Odmjeq9dpcCnS9xfpo4aRxQ'
  lat: 40.194684
  level: 5
  lon: -88.401764
  name:  'Mahomet Community Pavillion'
- ap: 4411
  img:  'http://lh3.ggpht.com/nGhmCwJD6bTZSD4fk-6vnaRZfPq8CI7zLMEDuUZFl7no1ZUFie42aJKdxr5r-212vPk5feGwGFfkMrb_IBc'
  lat: 40.195177
  level: 5
  lon: -88.401915
  name:  'Fire Fighters Pavilion'
- ap: 4222
  img:  'http://lh4.ggpht.com/0pYkppjw5D-G0gCZ1pULK83NAqN9qsyzbBnG8K8YMyMekJwqUrZQDRpTqgqB3rrRD6zJezplE_wlFOTPLovb'
  lat: 40.127745
  level: 7
  lon: -88.287039
  name:  'Parkland College'
- ap: 4222
  img:  'http://lh5.ggpht.com/QruW49d2dc1uhQlK1BaZIeo6ruDNkqQfmvZz83eQ-1aC9ytGUcpFaHnKRTnXRc70F2EZ0-pVKGr9Slo0_9RfxA'
  lat: 40.139749
  level: 7
  lon: -88.273955
  name:  'Northside Church of Christ'
- ap: 4222
  img:  'http://lh3.ggpht.com/Vcus4uEIgRrZOTuMTz10IGc3qhU5MdpmGnEzN_IiBQrVm1M6Q26geFSgc4VIbgx12Utl9V52J1Y4g35V3MneDg'
  lat: 40.117215
  level: 7
  lon: -88.245551
  name:  'The Virginia Theater'
- ap: 4222
  img:  'http://lh4.ggpht.com/ezHSw_hRdts3U3bzkEEn46LneS1miDpbSGoxg0v1TqG_W82bvfR2uSTZeDFfhG0kmPJAkOblWP_ZilA6TP8'
  lat: 40.112523
  level: 4
  lon: -88.227765
  name:  'Bardeen Quadrangle - North Side'
- ap: 3848
  img:  'http://lh6.ggpht.com/wk0l8Qe7j_Ph_LhyPvdNO6g8nwrxpswodrbNuOzLa3K1QNBrIVidi9iztmDXu3HtCWo5TpqDDjPsEbSl2aWUKg'
  lat: 40.144554
  level: 6
  lon: -88.248689
  name:  'Town Center Park Champaign Park District'
- ap: 3848
  img:  'http://lh4.ggpht.com/yi9OPnLGsLTvtOMNuOUfed6edO9tB6h0QmSHJaKKaiMyEXC8Aj2hz9hIvgh8C2DY76mVgNHw4S0gsYpkPpkt'
  lat: 40.148692
  level: 7
  lon: -88.248724
  name:  'Fountain Town Center'
- ap: 3848
  img:  'http://lh4.ggpht.com/vKkSwERLa3zQO2UUIiYl1AEruAx1QTPcP4jSmPt89PG4AviJ1WhlVVH8qmqJ0aY2gqJmHcqdZFcM2pQconc'
  lat: 40.139375
  level: 6
  lon: -88.272793
  name:  'Salt And Light Ministries'
- ap: 3848
  img:  'http://lh6.ggpht.com/yQPHFh4brRKGyXx9PtGN3hQza65T2PIyjArUf9NgW5fqFvx9m22oY2acMcEwFcVRNh0MTfGqc0WfMJFOt1io'
  lat: 40.10725
  level: 7
  lon: -88.244219
  name:  'Titan Games'
- ap: 3848
  img:  'http://lh3.ggpht.com/1-JS8sV0YQTNKZcOYkhHUpeLbSapI7w9Nksu7UJhMKpIgoGwe-FKIo9ALf7fXUm4mHlsQxcyMdJyQbI5tCmc'
  lat: 40.116494
  level: 6
  lon: -88.268495
  name:  'Eisner Park'
- ap: 3848
  img:  'http://lh6.ggpht.com/ZpJuVeWuDsVo9oPzh9mGzFjeTz2FQluKlriJijNL29HFEEWmMBqok5fCxVis8MpHqJYCBQUhRLNU9yuE7luP'
  lat: 40.129233
  level: 7
  lon: -88.238696
  name:  'Bristol Park'
- ap: 3848
  img:  'http://lh5.ggpht.com/qXsP4-THlaQ8DmIiopsvR0dY2hqwPjIHoy1A1b_CUmqmADgED0FAkXDjkBzS-PY4jNfThICrCaXGja5OH8bWF4ghh7lBwJz0FzKz_zOvaiwHohU_'
  lat: 40.11945
  level: 5
  lon: -88.243175
  name:  '"Stride", Downtown Champaign'
- ap: 3848
  img:  'http://lh6.ggpht.com/BY965mN-IwRRa-jZ2gbLPDtjHyKpATG3VbP3LyHuDo6pU0R8wDi5gANnRox6DEA_ZgB0Xqi-p6k0SYPnSIs'
  lat: 40.115883
  level: 6
  lon: -88.232238
  name:  'Artwork at Fifth'
- ap: 3848
  img:  'http://lh6.ggpht.com/KD5w0ez9F7rd70ylNnKO8m3t3aROeGF5SZIUT23pb6WisqWmVYgW1SBL-jgNAPy1UKJPgoTlgGjEK9P1BCqJ'
  lat: 40.11243
  level: 6
  lon: -88.235749
  name:  'Fountain at Scott Park'
- ap: 3848
  img:  'http://lh3.ggpht.com/K-b9T4FjMxrtkS2Awkze3fELfwY2Va92gMQloHtHf4bfeKPPRzOUJxaSYYi6-OHHQbpDVY3ONWwPgIa78fBX'
  lat: 40.118332
  level: 5
  lon: -88.250276
  name:  'Mckinley Aquatics Center'
- ap: 3848
  img:  'http://lh5.ggpht.com/v26lJtVx6k_bS8UIv0cuwFV2H-bR_kPwjkydaZjqk7BOG1VyLpoQFvuFB7ZmKZpWB_uCHi70HLzZoI4xZgo1'
  lat: 40.116491
  level: 7
  lon: -88.246701
  name:  'Emmanuel Memorial Episcopal Church'
- ap: 3848
  img:  'http://lh3.ggpht.com/hBux3yLZOMWBK1dtc47OrhISfV3SPojGgtZOxqqf7-yoc82f280WMG1r2mi43iZQsqfwzmN53VJHHHEFVs0'
  lat: 40.116458
  level: 6
  lon: -88.247065
  name:  'West Side Park Entrance'
- ap: 3848
  img:  'http://lh4.ggpht.com/CZA6uXTYgSkrccw1vqf6XFlfkzl6I7Rj79GOKIYGvd1Zem8O1u-opoJu65ma2eHnKdfysF0mOVGzc_am2Ns'
  lat: 40.110623
  level: 6
  lon: -88.22799
  name:  'Eta Kappa Nu Plaque'
- ap: 3848
  img:  'http://lh6.ggpht.com/LxVyXEFJmvSZ271mlFfYmCwyb05Kz8cIRxzMt24ZVhRzsH09nxErJw4gKErktjKpCARWfVl4Mla70NoODK2bng'
  lat: 40.11187
  level: 2
  lon: -88.220692
  name:  'Atmospheric Sciences Building'
- ap: 3848
  img:  'http://lh3.ggpht.com/sEtB-WtZgmk9Bt0i07yNcTAXMhYB5KL6O1iQVnxq2V6mW6r89EY67NajUUF9c87CmLtzpwLsF_X2dYEcsDF4wA'
  lat: 40.112935
  level: 5
  lon: -88.220489
  name:  'The HUB Campus Church'
- ap: 3661
  img:  'http://lh4.ggpht.com/vUhKhmK0pteJi8_0n25xIa4EpgpVSS432OxXv1UQBDLjju5SEGcm_2WWl99OUPtDyNLlXirJu--KDbCoYjM'
  lat: 40.08956
  level: 5
  lon: -88.257733
  name:  'Good Shepherd Lutheran Church'
- ap: 3661
  img:  'http://lh5.ggpht.com/BiCieN-kLaA8XtzYGa1FowWTlW2QzWtnxSCf1y1ChY9WXw1kN0r1Co49FI5D_xcWRrgO-_wOvqfduWQ2o337'
  lat: 40.092411
  level: 6
  lon: -88.257688
  name:  'Champaign Fire Department'
- ap: 3661
  img:  'http://lh3.ggpht.com/ahylfFHnKd7tl8EDQopVPlqhdiJblx_p3TWsELUFACXM_9qS9N8agb-ypr7EOOemNFMUrRGaUQ23LY6F1ssb'
  lat: 40.095094
  level: 5
  lon: -88.257764
  name:  'Faith United Methodist Church'
- ap: 3661
  img:  'http://lh4.ggpht.com/dIZMnnUykBHkwUGA_tGi7tq4m0qCooVejZqueoqq9NjBXvZgz1QUEqS-vJhsYu3v7pW_0xejLfH9QeziW28I'
  lat: 40.097472
  level: 5
  lon: -88.259842
  name:  'Indian Acres Swim Club'
- ap: 3661
  img:  'http://lh6.ggpht.com/v2m1E6vVK4ZRaRPhGli7jCsG7xZQZ7I3vV_5AogdEpPU_A1vz9WEkH0vZ-vau2IAdmydYJcXrOA6SMr7vUfT'
  lat: 40.128726
  level: 6
  lon: -88.290287
  name:  'McMillen Ehler Homestead'
- ap: 3361
  img:  'http://lh3.ggpht.com/uMCsrCj0b8EWJ6Hinp58rZ4hjaPm9kBAK5q0aDNtkP3e1Zk6Gh_0COjtW2YYBNzPxGDjJLB4DIXmiyvmrCJkRA'
  lat: 40.128083
  level: 3
  lon: -88.290812
  name:  'In Memory Of James D. Pruitt'
- ap: 3661
  img:  'http://lh6.ggpht.com/WA_L9RXB_ZwCyxpgQ7Lyjp1-4xTl5O-BQohOBQcoEMnP7-wKp--MGUdnY_DPuCGZ78-x0LtEWc8FT2n9QMPS'
  lat: 40.148879
  level: 7
  lon: -88.258423
  name:  'War Veteran Memorial'
- ap: 3661
  img:  'http://lh5.ggpht.com/zdaFJ-aI4Re55DtEiADt-qd1MMBuWZqEByU3BbT-0eYI80maTD-8JB5vJgtwKPFsFk-V75s-itU-cBisa-W9'
  lat: 40.132819
  level: 7
  lon: -88.286151
  name:  'Dodds Park'
- ap: 3661
  img:  'http://lh3.ggpht.com/swF7asGHDD1L9hslewSBg2z-tocpd_HXkIYuOmz739SWxCj8KBqf-kcOPOFPoE8pLXKDxR6Z8jAJ8Kx7Fbnc'
  lat: 40.089334
  level: 6
  lon: -88.253652
  name:  'Mattis Park'
- ap: 3661
  img:  'http://lh3.ggpht.com/AHDNUFdh3BZdz0fTM2i6-q3ZAorThodRdyejOf02yBX0HQU19eKUNzJ5uunPZ8u40fNYCqYBKPxVRjGB4m5C'
  lat: 40.09287
  level: 6
  lon: -88.239616
  name:  'Praying Mantis'
- ap: 3661
  img:  'http://lh3.ggpht.com/STEfnDDHEff3fffoWiEjvWm4SETgCRyRIvPgf92kzrsxo3sdh1SNg1AmGiFqvspDfSx0OXri-AXVfOZRWRMe'
  lat: 40.13156
  level: 6
  lon: -88.239027
  name:  'Human Kinetics Park'
- ap: 3661
  img:  'http://lh5.ggpht.com/UTu16bRRNKyJj2cFsU4mRCMkGJbH7YCAm0gQdiJKjnnZtB00kMEb_-Lhf6AnAXRia4MH6FBrWQGkBCrMUz8'
  lat: 40.120135
  level: 7
  lon: -88.253121
  name:  'Rain Garden'
- ap: 3361
  img:  'http://lh5.ggpht.com/arF148UpHKIzlt5NezBSpFkItJk3gWq__xkPolNCeVTwHNpQNm1rzIwSdA2oAJBPtaLhpTHcVdAFFdHAXm8k'
  lat: 40.118383
  level: 3
  lon: -88.247003
  name:  'T E Berger Memorial Plaque'
- ap: 3511
  img:  'http://lh5.ggpht.com/QY3-GLhJdz61itX17DuQSrIrTixLDL5l-k33n2ZriKEspP8A7RooZfj3ocL-d6IC1S-Q81PABhuYHEkorzQ'
  lat: 40.121262
  level: 5
  lon: -88.244556
  name:  'Citizens Honor Tom Dodsworth'
- ap: 3661
  img:  'http://lh4.ggpht.com/ETgOsKlMmsv5wRT-aM33VVVEgFvp3ZoMxqXmYKxROpFAYnfPqjWhltqYBG7ajEuM8XKf3mVeSaF7r9grm2t8'
  lat: 40.113448
  level: 4
  lon: -88.237188
  name:  'Boneyard Creek Second Street  Basin'
- ap: 3661
  img:  'http://lh6.ggpht.com/nbUJivBo0zF8f8aBbk1GwakUpPbLUVOoEovTTETYwJvfNIHXwG9XUbwoV0x-ly4ZO5Hsyv5KPo3c9cE6Nh8'
  lat: 40.118832
  level: 6
  lon: -88.243643
  name:  'Tesla Ball'
- ap: 3661
  img:  'http://lh3.googleusercontent.com/L3lfMswaooWEA3nJNFGES354rtENCzxYkoWuVLXEXaTiXbqTNnsl34TRd8tbMwnGQHkAnr37-HLMutIe3_Uz'
  lat: 40.117254
  level: 4
  lon: -88.247074
  name:  'Westside Park Double Dutch-A Jump For Joy'
- ap: 3361
  img:  'http://lh6.ggpht.com/uAhsK1gCBrCPvIEZ8lZRhDGbO9Q75uu9su3qhSkktViExCuvIvXGCLwZXT-_riPd4rI3tTvsLqqn6XO3msF4'
  lat: 40.116558
  level: 2
  lon: -88.249136
  name:  'Babe and Gene Wilder Memorial Plaque'
- ap: 3661
  img:  'http://lh5.ggpht.com/2jocF-ooKfacyT7HSwrwNcZTSN02yFkcmXBkPx777CYuD5O6sHPHwyUabblNOl_37YOxba1Gjid-TOwLVBlJ8g'
  lat: 40.116448
  level: 6
  lon: -88.248459
  name:  'Uppercutted Sculpture'
- ap: 3661
  img:  'http://lh3.ggpht.com/GGBe9Hug3fUbRCRAMs_kO1fg2HHQ95ZDBdW0S2tAHakvhQbWxlttanjhGNJJcyVRruUlL7zjQnPGI2bu8Wc4'
  lat: 40.117905
  level: 6
  lon: -88.242149
  name:  'Read All About It'
- ap: 3661
  img:  'http://lh6.ggpht.com/_rfJReDlJdrYezXwl9C7a4r7ZMCEE2RZ9dek5gQwKkC4sFtmFVfYF7S04SQXmjcksfbCvLWlOEuqOjxWnX4'
  lat: 40.12284
  level: 7
  lon: -88.246749
  name:  'Queen Smith Memorial Garden'
- ap: 3661
  img:  'http://lh4.ggpht.com/ULEhKlvERD4aidwSKPhLFujl0N0mZWcHPxtcJ7hNJkyDjYek9yrB4UD_G8bU-O9-12L1LYpDkM068BiYmpm9weZeGJsz-K5whCvUYTfmDqaIp1Fp'
  lat: 40.117
  level: 4
  lon: -88.247111
  name:  'Wesley Robert Weedman Memorial'
- ap: 3661
  img:  'http://lh4.ggpht.com/aXG2XQNJXyPDBz0o8tyfv07VIfskZuFMOWW2ylZpZKkWMnFjoiBmBiWg2VedsjdIorpfX5mtUGnwVLFb7Ga6'
  lat: 40.091438
  level: 7
  lon: -88.25077
  name:  'Fox Development Corporation'
- ap: 3661
  img:  'http://lh4.ggpht.com/H1kV6JSczzSbcCblAHg5ZOgITW1mBAz0_oLbqbzxBlijGTBn7TP6KwA6UI0AAGrCN4VF0DAF79Vcj6_2R4dsB8LRTq6tud6v'
  lat: 40.107753
  level: 6
  lon: -88.228913
  name:  'Zipcar-Wright Street & Daniel Street'
- ap: 3661
  img:  'http://lh5.ggpht.com/Z2EWM4D6YQHuqnLwtuPBawyQBZxTzVe9E17MKc8jOZkO0ZzkuD5zSQslY2iuXkkUnztPteUeOSHrSTz3voHC'
  lat: 40.111166
  level: 6
  lon: -88.228747
  name:  'Boneyard Creek Mural'
- ap: 3474
  img: http://i.imgur.com/5j1qaiT.png
  lat: 41.891847
  level: '?'
  lon: -87.598637
  name:  '6aed96ebcdef49cb8010e64de9c918eb.12'
- ap: 3474
  img: http://i.imgur.com/5j1qaiT.png
  lat: 42.115875
  level: '?'
  lon: -86.487903
  name:  'afefdf768ede4cb4b1b6ffa7b9e7bdc7.16'
- ap: 3474
  img: http://i.imgur.com/5j1qaiT.png
  lat: 43.557528
  level: '?'
  lon: -87.79287
  name:  'ddc04c62daaa4363b1327dbacd27e3be.16'
- ap: 3474
  img:  'http://lh5.ggpht.com/auV57ljlnFqueFTLTeFUjp6iIJxsNFs7P_alBDZ2FNvEvUPvRMBhZCrgQOVfMPf7RIyYAHZLElyAiVoJXCFYkw'
  lat: 40.135716
  level: 5
  lon: -88.291946
  name:  'Campus Solar System - Jupiter'
- ap: 3474
  img:  'http://lh5.ggpht.com/5bCoRsqGBM0hx50ymfbZ8NhvyAyQDJWMnSg6qaDe-zxvwzVZW6O5IZWCDefH-pIsFZzvUaCcBBK9kqNDwXW3'
  lat: 40.128048
  level: 6
  lon: -88.290536
  name:  'In Memory of David Foster Wallace'
- ap: 3174
  img:  'http://lh4.ggpht.com/gDYX09ZFI6Jya_d8cBX7Kg8OgMkVexBWJLWt1ceC8s0aizrm_ehDYtMwFiwAqpetr9_VsiAJZLFkAYWm_oMt4Q'
  lat: 40.128229
  level: 3
  lon: -88.290607
  name:  'In Memory of Lou Henson Jr.'
- ap: 3474
  img:  'http://lh3.ggpht.com/7sJlWdBFFcLCXWnnfB6SVTzCCDM0Q7KyV5jALfrWG3ICtkw7HXrjzaRrnzSiv19wIswpZoTxKYudzYiZnT9Shg'
  lat: 40.112536
  level: 6
  lon: -88.256779
  name:  'Framer''s Market'
- ap: 3474
  img:  'http://lh5.ggpht.com/tuo_ByFTbwLitFP5cBseOibqRxENxbCwOJ30dCnja5ijBI_qBv5vqNP7ZuZXnxhYM6ms_GbExZEwwKVUtwV2'
  lat: 40.093712
  level: 5
  lon: -88.281583
  name:  'Brownfield Dedication'
- ap: 3474
  img:  'http://lh6.ggpht.com/p2F3xw4xL4UdiMM9aSy628ISSglrvjPexpF3j340tMAP9MX07yh_sJv7kHVkeud8lyFf2ZwDohw3zsRS2PSd'
  lat: 40.093914
  level: 5
  lon: -88.281531
  name:  'Terry M. Warmbier Memorial'
- ap: 3474
  img:  'http://lh6.ggpht.com/Jz3ahY5LQ13wKWLY9SEvexiinJa3GeO1eB_FynplikRpa77swLST6cUAJjPpqKDSq2KU4Dcyui-QBstz_Z3k'
  lat: 40.094624
  level: 5
  lon: -88.282953
  name:  'Greenbelt 2'
- ap: 3399
  img:  'http://lh4.ggpht.com/tLO2wjyCgyune3KDOlQMV_oiDRxVsHqO1gAG_0xs9TvKOiuWRVmJcO29WI7jELxoxncaXpy91kMa89Uj65JVNw'
  lat: 40.11784
  level: 4
  lon: -88.24286
  name:  'Kaufman Memorial'
- ap: 3474
  img:  'http://lh5.ggpht.com/KYppjeOoIlb4lbowRrrC5qRdYW7_KU8rzjtDMpvhh-Q_c6VZOTtVmOqmmxChJA2hjlpS5dJ1JnhUQcKUAXDWHA'
  lat: 40.117976
  level: 5
  lon: -88.242642
  name:  'Stevick Building'
- ap: 3474
  img:  'http://lh3.ggpht.com/Eeot2xjiHI3jS56J2sySBOH0hRVa-VNNF9JZx7nFzgh1-Y6lhbMuognHS-CcMuIuAHyJzWmLBtkQv49sUO2KOg'
  lat: 40.098321
  level: 5
  lon: -88.23191
  name:  'Clinton Craig Atkins Memorial'
- ap: 3474
  img:  'http://lh3.ggpht.com/9aQBG-poFARclK9XL7iFIvWePkawZwWhv4Sh0zQhQ0Sy9gdDD508d4gCtpcUP9UNoYM6uztea0aQ05RPd9rZLg'
  lat: 40.115412
  level: 7
  lon: -88.245046
  name:  'Eddie Thorpe''s Memorial Rock And Tree'
- ap: 3474
  img:  'http://lh4.ggpht.com/9dqmZPc9OI1ON-iEnfXAxSAMX2M07pEgKUsb47vLrTrW2BW61siFLquk1fXbldWXGPg69XGdSG4wKPGS5rI'
  lat: 40.113521
  level: 5
  lon: -88.244122
  name:  'Artistic Graffiti at MCS'
- ap: 3474
  img:  'http://lh3.googleusercontent.com/oYQaQpOQ2HICancOs0DcaCqX1KiTJEoAeKp6EUWBs5u-TjTKqJlzTSzA0QMldAg6HLWb3rX4m4_cwKwGCtpV'
  lat: 40.118684
  level: 6
  lon: -88.244894
  name:  'Farren''s Pub and Eatery'
- ap: 3474
  img:  'http://lh5.ggpht.com/93SMm7gYjGLu_6bFOqGL5MXKxKF_NsnHuxiDyywI_Jrhz-LaQoNlm0yw7lG0I9rhp5vnHkATk01A_CNYmYf-'
  lat: 40.128358
  level: 8
  lon: -88.243471
  name:  'Champaign Church of the Bretheren'
- ap: 3474
  img:  'http://lh5.ggpht.com/NUOCD82iNRGW1NGqEC4FKet1u5_cm4WRNc2c9_YABAjGf6-OSCLz7HgYkP1ZuVAbpMl6Qi10HRW16Oc9jNM2'
  lat: 40.106401
  level: 7
  lon: -88.236182
  name:  'Washington Park'
- ap: 3474
  img:  'http://lh6.ggpht.com/2NvBiEF5E3wBXJ0JKc8NUUbuZm1PhUhLId32Sc_hNjaonDtojWnGWZRYwJgz-UJwMgucV2NHBfCK_51gIyU'
  lat: 40.084725
  level: 5
  lon: -88.251794
  name:  'Masonic Temple of Champaign'
- ap: 3474
  img:  'http://lh6.ggpht.com/sASzuKZleVbY8UGdZnFzs0GXiOHosiNDf-GldJNSs-w2k410HzHcqBrjuvNoklKZ0G4mwuhXmvFPOMlrFXRZ'
  lat: 40.085468
  level: 5
  lon: -88.251369
  name:  'Mattis Park'
- ap: 3474
  img:  'http://lh3.ggpht.com/xN5qaZ1d4qIQE8TID35MPTmzahhM09EYDVLbu2aeCpRJz9XntEf7R0XswEdQDOmdMpZxIEyNyqsC5qll3vfv'
  lat: 40.082343
  level: 6
  lon: -88.247404
  name:  'Larry Kanfer Gallery'
- ap: 3474
  img:  'http://lh5.ggpht.com/jz0XvZSSYKqKSa4lJDK-rludOns_o36jZ8ZTzfEr42piZamiTjSASTLdII6pkxgjZgnCwKirjhEouS77BPB8Dg'
  lat: 40.094288
  level: 6
  lon: -88.248914
  name:  'Boulware Trail'
- ap: 3474
  img:  'http://lh3.ggpht.com/ugJXpaIWZ-wI1vpderJmQjM8r0T5_Li2j4hvvsu4fRM9k3MeBpETqj2LFNd1pEkcfH0I9bgZh--5g1AEJKkq'
  lat: 40.092745
  level: 6
  lon: -88.251235
  name:  'William C Fox Honorary Plaque'
- ap: 3474
  img:  'http://lh5.ggpht.com/NocB62Pnsk9rCOS8TWT0vfucrEDjwhiqaxl6SHRJjjHpHjSlG4IuSzbQb1B-SqYZVjQXekDUD0IZwmpMDycw'
  lat: 40.11108
  level: 2
  lon: -88.227392
  name:  'Stanley H. Pierce Memorial'
- ap: 3474
  img:  'http://lh5.ggpht.com/LPlCgoOAlClRaVCl_B1sHDkn38OgDbXat-l5Q1bDZLP7mOUMfU8pK-o3N8BEqh0vHJcZBHo3iz2AMQKAhot7Tw'
  lat: 40.110833
  level: 5
  lon: -88.227425
  name:  'Engineering Class of 1975 Monument'
- ap: 3474
  img:  'http://lh5.ggpht.com/LqyQMijwA_lYTV2EqLa9HoWNGh9YIVl8tE-65352cSjsJQ_XZYhixnzzoYuqTR31UzW060oLhJl0avgLPRpyZw'
  lat: 40.111
  level: 3
  lon: -88.22715
  name:  'Ross J. Martin Memorial'
- ap: 3474
  img:  'http://lh6.ggpht.com/RW34ntixvJkg7fD71TPYo_4KIsBzA0-a-6yXO0jKPbpGxX5gIGC7kBI-pXEF9OHhuolcAGW2fxyK3Pt42Iev'
  lat: 40.110489
  level: 7
  lon: -88.227412
  name:  'Bus Stop - Illini Union, Westbound'
- ap: 3474
  img:  'http://lh5.ggpht.com/VYMooLhz51W3fCgti3L9LEQNMJjmFeW30saxIYK34yGEReG1naEKEd3eW1uyFgSlzpu-P5KertNDe4Z6qu8'
  lat: 40.109913
  level: 5
  lon: -88.228393
  name:  'Alma Mater Statue'
- ap: 3474
  img:  'http://lh3.ggpht.com/x5fBw8MRogV8dm3kPO5zKNkUrQxn0dM7d1PIoASdX1_Rc8H5Duex4iZdOoIlqazCGll25TmptsWIRq1JFmj6'
  lat: 40.112135
  level: 5
  lon: -88.225762
  name:  'Computer Based Education Plaque'
- ap: 3474
  img:  'http://lh3.ggpht.com/aHqOXq4BX_XXhSNRFJn0768z_1bjWEniMumNJ4FMy9Nv5j3AefPsZDiAGCehCguZ1HFOBMBXxRI4mOXd077e'
  lat: 40.112957
  level: 4
  lon: -88.227127
  name:  'Early Computers Plaque'
- ap: 3324
  img:  'http://lh4.ggpht.com/6WTMH3liIIuH6pEvRGZOkUNNR84nR8frjFch6yn_4mbGIokY-MajBCG6jZHWU37a8TBI97rYTBlX-ks8m5XJTw'
  lat: 40.112843
  level: 4
  lon: -88.227657
  name:  'Class of 1904 Flagpole'
- ap: 3249
  img:  'http://lh4.ggpht.com/j8nn4oxG37YIXPvQKVP6CBbVkveyhoHNg8O8QFxZKgbKVegaP5OdjJl8L8HTjzdBoVKPJIFHmwN26NfE9n4'
  lat: 40.111897
  level: 1
  lon: -88.222485
  name:  'Engineering Student Project Laboratory'
- ap: 3474
  img:  'http://lh4.ggpht.com/twbc9Orzt8vZhGO-EB4zI9fLIkHjJyN7_sN6QnjsPUVf0W6hTbPtNhiDPejMdK6CalgOPTUXqK2iTtKIE2wK'
  lat: 40.127246
  level: 5
  lon: -88.210084
  name:  'Gateway Trail Information Kiosk'
- ap: 3474
  img:  'http://lh5.ggpht.com/sF7lKjQa6S3nhaNE0eY9h2BozLXUrtnucsZvqAKKD_ZrLPFTVf8thR2l28H7-R4sxheNrwB3hEujhIk1_4E'
  lat: 40.126699
  level: 5
  lon: -88.209995
  name:  'Fly Fishing Sculpture'
- ap: 3474
  img:  'http://lh4.ggpht.com/n7S7CjMfxfFwYHpq5HrRc6lFaFZYFVb4vYJAcTAc8MZgOgDNYI7QBChMeKIY-OSJkDSdwCf5KsJYmDesbHhq'
  lat: 40.127017
  level: 5
  lon: -88.209948
  name:  'Busey Woods Gateway Trail'
- ap: 3474
  img:  'http://lh6.ggpht.com/t9_eydZD2uZIBwEmrNcPR2FWXjyVKK06CTbNoZQ682AuvHAsWKBewlbzTqH7yqOjuPMBBkqOGwETeqt6hoU'
  lat: 40.194618
  level: 5
  lon: -88.401509
  name:  'Mahomet Area Community Center'
- ap: 3474
  img:  'http://lh5.ggpht.com/PnX0W4nb5AYgeh3aSV1f6L1M6SXT5EDNNj-HZLlIrqeFoeMlVOlqnsY-fMyXYgvKn-Ac3RDPKf_iJCtYRmek'
  lat: 40.194805
  level: 5
  lon: -88.401996
  name:  'Leland Dollahan Memorial'
- ap: 3472
  img:  'http://lh6.ggpht.com/DumXNsG-1ULiWogpcQw-VzQVxr3f1Rb57MKc3GWEGzCwoIfDc8ErqGSPeDPGDyg_6fYtNnLQpFMP0zbDGTE'
  lat: 40.141598
  level: 6
  lon: -88.238817
  name:  'Red Shield Center'
- ap: 3098
  img:  'http://lh6.ggpht.com/NXptd9bdifQT6cVxz-SPGUsryPaznp8rV3omDk0J50MnN5Mmu6oiYNa0FXIgG8FnFreUVsSPzRvQNZXYcO6G'
  lat: 40.11817
  level: 3
  lon: -88.249381
  name:  'Bicentennial Tree'
- ap: 2911
  img:  'http://lh3.ggpht.com/rgh_2qJQUPC1OrARUkiQqPKoNReiqZYOimm5Nszb77pDh72OszuyiJBKn-vDxHUuyjO2XTeKU9GBHc3oHIYr'
  lat: 40.115283
  level: 5
  lon: -88.287899
  name:  'Greenbelt Bikeway'
- ap: 2911
  img:  'http://lh3.ggpht.com/xAJIzhGMpnqEYisIgB5-btiULPi6cL4uLys9fqf8_smF-6qAXP9rUsCbWIgPVIIHfGINQNF2Ypx58YvDo1hh'
  lat: 40.127093
  level: 7
  lon: -88.23927
  name:  'Bridgewater Park'
- ap: 2911
  img:  'http://lh6.ggpht.com/RR0i4QdfoY8NkTQtssdOtDLhAEaCR7e-R4ipk5NzdKe9lTGDq2nyKI_7sF2BCXrgCZAZ2zEEtIzS7vg6Pu0hzA'
  lat: 40.126458
  level: 5
  lon: -88.218544
  name:  'The Vineyard Church'
- ap: 2724
  img: http://i.imgur.com/5j1qaiT.png
  lat: 39.987482
  level: '?'
  lon: -88.269801
  name:  'df77244c1c974712aa97b436f767a677.16'
- ap: 2724
  img: http://i.imgur.com/5j1qaiT.png
  lat: 41.903642
  level: '?'
  lon: -89.541496
  name:  'f25f227ef17f42ad9f756fa783ef2f53.12'
- ap: 2724
  img:  'http://lh5.ggpht.com/M2qxWsTwaMcr-AB3UJByAcCokQ0ptyf7KOh8-SmB1Rsu9ZR9D_hI6lWNZF3oGtoU6FzZVeT08h3IEn-e-_8'
  lat: 40.1279
  level: 7
  lon: -88.289974
  name:  'In Memory Of Charles Eddy Shumate'
- ap: 2724
  img:  'http://lh6.ggpht.com/y9bxecO9Wm4VrE6p2LRWA8XIIUlHlYWbTSZJ6GrJrTpeVtxB7wI7cWjdLkM6gjq_eOk7n-nJOlSJ9WzGjgfG'
  lat: 40.137123
  level: 5
  lon: -88.277784
  name:  'US Post Office'
- ap: 2649
  img:  'http://lh5.ggpht.com/ZfmaOk3UM4PNzP-z0AvBPFqYLc6wAEDSPhL1cSVjXMAFSv4Jadm-hV--eP3OaJuaksphYKN5s6bhWhluTGs'
  lat: 40.133327
  level: 4
  lon: -88.280335
  name:  'Prairie Grid'
- ap: 2724
  img:  'http://lh6.ggpht.com/fhMd686ql-IYC_DqSfUdbHHl3jAaBKjkykuSJ_Lx5nPI46OaE-pA_penftiqIC_r-xDmrFhRZU5vmcweUncZ'
  lat: 40.127665
  level: 7
  lon: -88.284336
  name:  'Dodds Park'
- ap: 2724
  img:  'http://lh5.ggpht.com/B8Rn2SSli9Gp6boevvgCFQmdAqu5SZyleVSIDEBfrAA-2kYvtvM5aI756gykEkV4Ycy7BQvvS-3_O-nAMllfhg'
  lat: 40.113028
  level: 7
  lon: -88.276537
  name:  'The New Fellowship Corner'
- ap: 2724
  img:  'http://lh3.ggpht.com/tWkX3XHLpAuapetLdnd8UYjpBeSYbR89poy4fpll1Rfdn2Tp-7KMqHHkFtvKl8rlcd3bngVxc9wc3K0Cnlvd'
  lat: 40.136033
  level: 2
  lon: -88.238373
  name:  'John "Skip" Pickering Dedication'
- ap: 2724
  img:  'http://lh6.ggpht.com/QKHOcl5WKE1EB7Y8PfPqhuJQN7SxpWIvLb13vJp2KJC61ToSi1evTEpgeOtPjAfKuIlQnBq1tApVM5TwJHI'
  lat: 40.118042
  level: 5
  lon: -88.248912
  name:  'Indian War Memorial'
- ap: 2724
  img:  'http://lh4.ggpht.com/Iz-O9-kJLlEdRO9osaqkCvLRsSNF24c95jHG0lhtE95b99-cC2bKuCEiznIs1-ytpoCITEwQ7s5VuyURgrpM'
  lat: 40.117288
  level: 4
  lon: -88.248506
  name:  'Prayer for Rain  Fountain'
- ap: 2724
  img:  'http://lh4.ggpht.com/-MJc8fCVxpxV7prlhkP3sXPWZ7jsr8Behc29zUJqdz_V57jSg7SzyMUUv7B9Frzu36mJhM2PQkr_LJk-zyM'
  lat: 40.117729
  level: 4
  lon: -88.243645
  name:  'Boltini Lounge'
- ap: 2724
  img:  'http://lh3.ggpht.com/wkPcdDupubV3THJo6r2OpMtshziiIkqBISPTCPe8boa-8nH33u83Mznkr1yYWNR_l60RCy8HO_obqrdNGUI'
  lat: 40.093633
  level: 6
  lon: -88.246611
  name:  'Fountain at Illini Plaza'
- ap: 2724
  img:  'http://lh6.ggpht.com/tenpgw5pr4OCsrdIgmmHP_sx4RHH2ywHdbNxw556d5JpHC4u64HFYqCdRSeAJgfTN_7BcUv11v8NtBdlaUV8'
  lat: 40.100717
  level: 8
  lon: -88.243989
  name:  'Rainbow Garden'
- ap: 2724
  img:  'http://lh5.ggpht.com/uP38yDCg4dPRI1F0r0ALGArEc8Q9eoRuaxkfxZTafZZr9tMcbLUZek1hZRbLUxHJVGPcLSf_JKbotbTBeR7nfA'
  lat: 40.107226
  level: 6
  lon: -88.22858
  name:  'Class of 1897 Tree'
- ap: 2724
  img:  'http://lh3.googleusercontent.com/hvoLMUc9UoNVVPttxWTc8PzOWdu5MBmPETnBexH7Alyl20WGCrNa0G_j7DwvD3qbhqpTaeThFhGDV2rCtp8'
  lat: 40.107629
  level: 7
  lon: -88.224484
  name:  'Bucky Balls'
- ap: 2724
  img:  'http://lh3.ggpht.com/xEgJrsYzA7NN_7_-gz58wAtq82PJpylsKMOKP_AAyghUVm5dGsY07eDHCPC3B_cfRUiaqmA7-DNrIDWPtLw'
  lat: 40.09657
  level: 5
  lon: -88.194695
  name:  'Crestview Park'
- ap: 2424
  img:  'http://lh3.ggpht.com/oPrvFZ3gD0XRjj0phJeY8--GLSiBG-yC_IInA7t6TgEljFJSM3TRuUeNksbZIyvSIenZ0GgHa1ey2OzZWkQ7'
  lat: 40.109466
  level: 1
  lon: -88.195427
  name:  'The Happy Robot'
- ap: 2724
  img:  'http://lh3.ggpht.com/3rw0YLp6-Ui3LAecadtTtTgoMRU7Q6vPRiNiSCod3Qb-bGjOJxf34EEnZP89KvnrTILkQM3PIE9-CIdmasz-'
  lat: 40.112897
  level: 7
  lon: -88.219672
  name:  'Mennonite Church'
- ap: 2537
  img: http://i.imgur.com/5j1qaiT.png
  lat: 44.545601
  level: '?'
  lon: -87.754642
  name:  '1c1e9ccf724d43cea8ea4fe5f054073c.16'
- ap: 2537
  img: http://i.imgur.com/5j1qaiT.png
  lat: 42.40685
  level: '?'
  lon: -86.274386
  name:  'a5d8695d273541a6b1ce072ad7720f42.16'
- ap: 2537
  img: http://i.imgur.com/5j1qaiT.png
  lat: 39.789101
  level: '?'
  lon: -88.269694
  name:  'abe975a0621e484493d088242128d168.16'
- ap: 2537
  img: http://i.imgur.com/5j1qaiT.png
  lat: 42.350296
  level: '?'
  lon: -90.004605
  name:  'a13ab65c57864521bfe81931f0c49f21.16'
- ap: 2537
  img: http://i.imgur.com/5j1qaiT.png
  lat: 42.350935
  level: '?'
  lon: -90.00568
  name:  '2a75475e7c1c4982b81efd2f88504042.16'
- ap: 2537
  img: http://i.imgur.com/5j1qaiT.png
  lat: 39.966649
  level: '?'
  lon: -88.345263
  name:  'f91d12c0ef074e13a5978fa658722945.16'
- ap: 2537
  img:  'http://lh3.ggpht.com/4b6ZQuP0tb_xLUTbymIlLrHiMm8NTxgLY021uO-WQ4Z42V3CMXR_2S_aEZOb929B0D30IddZrRKGigpHQqP2'
  lat: 40.113738
  level: 5
  lon: -88.296023
  name:  'Turtle Rock Sculpture'
- ap: 2537
  img:  'http://lh6.ggpht.com/5R8z1wwducaGMkvLFryu9HzC91eX02E3KDY04s9Il7Qrdw8efQiRGZ_vbgqW0Fuvp4-I_d9ugFC6lPc7lxia'
  lat: 40.113465
  level: 4
  lon: -88.291684
  name:  'Anna Jean Russell Memorial Tree'
- ap: 2537
  img:  'http://lh4.ggpht.com/5txoAy04NNtnz6QSex0YGvE4fib5tN9AelUxKSPreLTzkNO9Qbn9E1-AEPqCWm-PFDk16_WEe4H9CoGt-e_NOg'
  lat: 40.128294
  level: 3
  lon: -88.289948
  name:  'In Memory Of Jessica Cawvey'
- ap: 2537
  img:  'http://lh3.ggpht.com/Uce4t5Ws7-KzD_MUqPDowXTtAg4burxyAm5ez3FhjTqU4ctVVDwec8NkSjzcauhAUbdqgYCAPNIeQ7dolo4t'
  lat: 40.128012
  level: 6
  lon: -88.289763
  name:  'In Memory Of Marian Rodemer'
- ap: 2537
  img:  'http://lh3.ggpht.com/ZOALJqKi7gNpN7e2IXnkcpGhKdME-MIGNVz09KJfsruk0ix30Xa_lWaNAMj06IpkfgGbmbNvDXRdDkLgGGA9'
  lat: 40.090629
  level: 7
  lon: -88.29504
  name:  'Roby Recreation Trail'
- ap: 2537
  img:  'http://lh4.ggpht.com/Oy0NzvODUpd5270gnNUQqxf4w1YUNzMwDdncW6PvKUb3y_ptImObTW3rbbHp_OYEUKTR37L61q3yuYr1GRSV'
  lat: 40.090259
  level: 7
  lon: -88.295024
  name:  'Robeson Park'
- ap: 2537
  img:  'http://lh4.ggpht.com/T-65fHAmnGmht8xdcXCF8weDy3uDecS4uOASIFtQBn7v84jrUpS3m9_rbJ1MNz5Syzjr8g_zO6YPklMYjlZQ'
  lat: 40.13695
  level: 6
  lon: -88.259966
  name:  'Goodwill Donation Center'
- ap: 2537
  img:  'http://lh5.ggpht.com/Ubq0MuIsu5MU-I8JiOC7oX_aheDNBNsG-UlSMPqA5BRkHJX9BDDUPWGQxXllzVgaxFeo23u3zu_hlJesprpNJg'
  lat: 40.133421
  level: 4
  lon: -88.280893
  name:  'Greenbelt Bikeway'
- ap: 2537
  img:  'http://lh5.ggpht.com/XSTOU98iZoBFcDNR_YYJQfmQaiD_vXAP5Z7R79nVC7k06VMhH8tHSb9Yb9Pe8OnV1svwvlvy6iyz6vMjg3_EzA'
  lat: 40.132804
  level: 6
  lon: -88.285013
  name:  'W Glenn Karr Memorial Plaque'
- ap: 2162
  img:  'http://lh4.ggpht.com/HuvshlWthM50za1mc2WfWSCI8Lw1ExcCABPQ73kYwv_LJ0bx4gs0WgpHgX5KDNhypmHCVdiPvxnIXRIsYr_TkA'
  lat: 40.113728
  level: 2
  lon: -88.276582
  name:  'Seventh-Day Adventist Church'
- ap: 2537
  img:  'http://lh5.ggpht.com/j6Gqd19ib1ziWv7UKoq4_fMXeXtxxdV85TchQ49_mIgeJYs7oUWOj860aB2Ok8NGNY5wNfMqDn7zeSKOgpxEzQ'
  lat: 40.108781
  level: 5
  lon: -88.271694
  name:  'Champaign Church of Christ'
- ap: 2387
  img:  'http://lh5.ggpht.com/IgNzl1mq8OGLo32nCph_TZvtqlPh79vEYYvHZb2F6YXW1jx9_ESV5dv13U9k7CRftyKHGoW2RtSSUFzPKbU'
  lat: 40.113072
  level: 4
  lon: -88.289765
  name:  'Kaufman Park'
- ap: 2537
  img:  'http://lh5.ggpht.com/7MD3uqic9NvHKG2s5NBkAL6kdsBT10BzFJ6jTSaOfZS8mbyTlRDRYtizrxfH8ZvyqpRWXJHgmC5bk9imHqQf'
  lat: 40.114042
  level: 6
  lon: -88.289889
  name:  'Optimist Club Dedication 1991'
- ap: 2537
  img:  'http://lh4.ggpht.com/Ww9lgcscjGtB0ieiqyf2qK2ZzV0y3mZVpoi5ZZdPpArkbOa2B5aNli_k7t86GjD7eAeEFOw8W0oZvfr61S6Kxg'
  lat: 40.139196
  level: 5
  lon: -88.257755
  name:  'Market View Fountain'
- ap: 2537
  img: http://i.imgur.com/5j1qaiT.png
  lat: 40.152342
  level: '?'
  lon: -88.252345
  name:  'Toalson Park Basketball Hoop'
- ap: 2537
  img: http://i.imgur.com/5j1qaiT.png
  lat: 40.152192
  level: '?'
  lon: -88.252279
  name:  'Toalson Park South Entrance'
- ap: 2312
  img:  'http://lh5.ggpht.com/nWEtxuKQdy0teBBue1DYmG7P3SF5-3A6zlB7GwVHBWlolAZYGq6Br78lWcF9ltFy-KeSlozXie2RmU6JfCUX'
  lat: 40.142673
  level: 4
  lon: -88.244603
  name:  'Italian Statue'
- ap: 2537
  img:  'http://lh3.googleusercontent.com/hJZWoErzM-MuXulq4FlhlZwMbJX1Isd81GBUBVKayd57jVIVxUle3itd-1DRKo2VaNXznWr1X639fa44Etk'
  lat: 40.141919
  level: 7
  lon: -88.244611
  name:  'Marketplace Mall Carousel'
- ap: 2537
  img:  'http://lh6.ggpht.com/xQx5BUJcAI_QUroJGe77pPkgV7s_ACVui8PXvCyvmehuDvenmRIvKBGeevOacNR6W3pLMMSh4sVrvXm87QeN2eylsZEtz7pxB-CMvzLmH1WyVZ16uw'
  lat: 40.11786
  level: 4
  lon: -88.248031
  name:  'Lincoln Megalith'
- ap: 2537
  img:  'http://lh6.ggpht.com/rGhR45ZFbHtxmrZSSy9V19eFoyHIDB42c6MK188isPJFWpUsW9ywNHayKt3acNvKNC8DAV6mDkUloj3aiS4'
  lat: 40.118422
  level: 6
  lon: -88.24346
  name:  'Entrance'
- ap: 2537
  img:  'http://lh4.ggpht.com/kZm6lbk07IpQebQBqqCODikSi-pOMHQhQ7-c0xNGM6vqUskWUftXV4L3ymEbT0T5IELGgfJ2vrxTZvmgP9D_'
  lat: 40.117118
  level: 6
  lon: -88.248618
  name:  'Lieut. E.G. Stillwell Memorial Tree'
- ap: 2537
  img:  'http://lh3.ggpht.com/HW1b8GEkWmutU8Hsv_zX2TXNh-iirGoXN5HmxCJd5nc3o1VeCkahkCZ_vbSxOB_ffrBlWW3M-LLMSo97tg-c'
  lat: 40.123709
  level: 5
  lon: -88.250518
  name:  'Spalding Skate Park'
- ap: 2537
  img:  'http://lh3.ggpht.com/WDQ55kRMYCIrw9Pm69IuV6cBTI2nx7Z1gU9yxX2oE2oH9EdPnO1ltxSROAjUmHmBu84SEtHmLKregkDqlLYzUg'
  lat: 40.117126
  level: 6
  lon: -88.240623
  name:  'Depot Barber Shop'
- ap: 2537
  img:  'http://lh6.ggpht.com/HvC073U-qgv-Zdd0zHS5_UQsybUORqZiuhnRY5V1bWxlRPwBG9564LEVab8tUebtP8OzNkBVp3K39WZkahjw'
  lat: 40.118119
  level: 2
  lon: -88.24714
  name:  'Police and Firefighters Memorial'
- ap: 2312
  img:  'http://lh4.ggpht.com/4rZUtsKLzttseF-bliT_X7wEGP_joarKKLt8DNtp99fViYcqD4TAWTfZ_Ur6oEdBJdT-1JeZl4tnk_sTtgN0'
  lat: 40.116361
  level: 4
  lon: -88.247369
  name:  'Gerry Schriefer Plaque'
- ap: 2537
  img:  'http://lh5.ggpht.com/Jp7IxKww4URJW7CuBmWK-wgnCfMK0iUJrKL_UoRhWCyoVY0_cHasH1WH_nYzDpInelHY0uL_3K-u3czrBCY'
  lat: 40.11949
  level: 5
  lon: -88.242871
  name:  'Orpheum Children''s Science Museum'
- ap: 2537
  img:  'http://lh5.ggpht.com/c-upLAoA6V12_Enn5doC2Hqtp3W9dLMIb34VHt0aVni2lW2OF5Lddn2c-1XcxmmaN7um9eyxqOF5c3c0hs4'
  lat: 40.118139
  level: 4
  lon: -88.248407
  name:  'The Americans Creed'
- ap: 2537
  img:  'http://lh4.ggpht.com/MvwoDsxwfyNLHzfGkFJl-4VFeX7OvqB0hsMCrZ2D9Olh8GSghAJDfFfDh7a7cOtMIGwEDMyesZoKvKCXAGj4'
  lat: 40.116553
  level: 6
  lon: -88.242268
  name:  'Esquire Lounge'
- ap: 2537
  img:  'http://lh5.ggpht.com/D9O580D9hlBOqeMvt2V4nL-eHP62h4vG4YFgk-WTw7GunusU9AOffFuHZ9XYWoB8YrGxpCMu2Y77-LCAgcdT'
  lat: 40.119328
  level: 6
  lon: -88.243755
  name:  'Birthplace of Champaign / Beautiful Beardsley Hotel'
- ap: 2537
  img:  'http://lh6.ggpht.com/eeOtj4-6PU8Dt6QXk_TJjgkoEGRW9L8YzUqZE8QV5ZMCHnqA5CzoQoxKpnjCvXwaIflUUvPJmO_S7BdvMhcuzw'
  lat: 40.117588
  level: 6
  lon: -88.241787
  name:  'Adam & Eve Mourning Over the Soul of Abel'
- ap: 2537
  img:  'http://lh4.ggpht.com/_jAAuDi8SO5uupi8JlB3HZaFG40S15izNv_3vqOt7ro2rRHuXrfdEKfEFvRESdAjCEz3RVDpyrxJGSIrju5d'
  lat: 40.117916
  level: 7
  lon: -88.243087
  name:  'Sholem Building'
- ap: 2537
  img:  'http://lh6.ggpht.com/_k_xJSt6mwst9haWnz5tw__yVrH9BLFSKnCMCEw9V271FMTnmEoDA4E6HprjvPTSiaBeKZmxdG3waPIapBMa'
  lat: 40.125369
  level: 6
  lon: -88.250074
  name:  'Mini Park VIII'
- ap: 2537
  img:  'http://lh6.ggpht.com/ka79B_ahK9kHLiOCOnKsp3SooZlPGgMuIOO25OaqPU7eoUALOBzaa40ZCStdo4v6rCYW0VS_pNgW3PJyUDKxpXI-n55zohIxJwRJEq5gslJKwS5ykQ'
  lat: 40.11794
  level: 2
  lon: -88.248679
  name:  'Fonderia'
- ap: 2462
  img:  'http://lh3.ggpht.com/JM911OdVKmQnAXjY3hLL0qd5NnPCgPAmJ9aMYF-_9aptS_7NkLgtsMyPBHibRhomXqfXCtcHURyAdGxRVMBhXT2_HvtezfKyLBCQf_idvcHp6RfTkA'
  lat: 40.117427
  level: 5
  lon: -88.243235
  name:  'Cowboy Monkey'
- ap: 2387
  img:  'http://lh6.ggpht.com/cnBQN3RYcZFSdxYB52bvMYRD2aTSlDG0_cqBQ8coo0ueKTtGxldE0xGjNPF6xlYJtnba8oUyEKwBeYbO8CY5'
  lat: 40.116631
  level: 5
  lon: -88.246951
  name:  'Lyle Blue Memorial'
- ap: 2537
  img:  'http://lh3.ggpht.com/by946OhJ5ooOkbG4f662qjbXqvrQAd98E36mSJLgTsLgL_tb8GDpNxTOEhtgsjEhY-OzKmRxAmLFbYPscSH6'
  lat: 40.101619
  level: 5
  lon: -88.233644
  name:  'Taft-Van Doren Hall'
- ap: 2537
  img:  'http://lh4.ggpht.com/uAYfykn0e2h2UqP-anbYfkJNa38P0L1WY8FpF-CwRCPklg5wL1xYFkpGOCMt7SJ37qO8PGVE42nYX9Ba_-jG'
  lat: 40.105025
  level: 7
  lon: -88.243919
  name:  'Mural on Good Fellas'
- ap: 2537
  img:  'http://lh5.ggpht.com/R4YsY7oUfZDrMJ3QJtIKwNvcX7K4vxIpwfLebL2U4x5m1UibakO0KUZJXqdfYe-W9IUNBmlCu5LlSy6jtKGM'
  lat: 40.105323
  level: 5
  lon: -88.239595
  name:  'Campus Post Office Services'
- ap: 2462
  img:  'http://lh6.ggpht.com/Sz4BABPqyoIyZVGpSBEM1QNIxPngQLl7hopqjyVJi_fak1xgpFAX_X7TbK6tICEaYnLrvC1hV2jv-AwPofQX'
  lat: 40.090038
  level: 4
  lon: -88.249379
  name:  'Three Hierarchs Orthodox Church'
- ap: 2537
  img:  'http://lh4.ggpht.com/Hh8nntyxb361BGSJYy1ZxuMtkf5y1GXg3rEVqwI-1uwEH4MdL3b4JBnHLsxsMX1rCbbIWWVPDeDEsK6nvnyBGQ'
  lat: 40.124947
  level: 5
  lon: -88.210509
  name:  'Trail Marker in Busey Woods'
- ap: 2537
  img:  'http://lh4.ggpht.com/u_MtizNv_keIXM4ITgtjqC8nr5JvB8UpDBg_5_08uQDTsQr44mwr6ZlkhTp0iKbvcV9xCJqXDeN66xYWaI0'
  lat: 40.116227
  level: 5
  lon: -88.233833
  name:  'Haley-Walker-Ginza Building'
- ap: 2537
  img:  'http://lh5.ggpht.com/1fPvqpqXG5PDCkmegoWb9Tv9N5_MZh9XjmZpbyNEs5yPDsCscbrPB1cO_Pf8GT35HYrTF01FZ6s5VPIpjJ_20A'
  lat: 40.107098
  level: 5
  lon: -88.228984
  name:  'Saint Andrew''s Church'
- ap: 2537
  img:  'http://lh5.ggpht.com/llyW63Gnxl-lT-L_MhXsl4mdbmv29RvYTWcLt1R7JxibVPORq5Wd_UHIdT-vQ0XaUqZVQiN2mXkV4KJpp5sm'
  lat: 40.1159
  level: 6
  lon: -88.238508
  name:  'Dallas & Co: Costumes and Magic'
- ap: 2537
  img:  'http://lh5.ggpht.com/gkIcCbfmQWyJ7s9ryhzfOOn1K-oa8huqzZN80X2psVjx_6Iur5egjGncbUIAMLiAJAf9qG1Ac8lX2MomHYY'
  lat: 40.108185
  level: 6
  lon: -88.225203
  name:  'Statue at Medical Sciences'
- ap: 2537
  img:  'http://lh6.ggpht.com/MzDfG6eMMwVr56zIpVxRJKU2aoUq-95CLeBhoiEQQKzpC2zulq5jFDLv1IK0JcRy5Q0PhRAreZ1p2ElsdnNu'
  lat: 40.108048
  level: 5
  lon: -88.226279
  name:  'Nuclear Magnetic Resonance II Plaque'
- ap: 2537
  img:  'http://lh4.ggpht.com/2tHD_AHYQu0kWuwLX2HMYWBG4txVkuWsBEfzWLL39npWp8kMSHiUKxSJM1E7yhimuMVUJ-RIlSSKsgjETvtr'
  lat: 40.110524
  level: 6
  lon: -88.228706
  name:  'Leo Roy Tehon Memorial'
- ap: 2537
  img:  'http://lh3.ggpht.com/HX3mWBGofQk08Qdp7A6KMK1AnSXlLEPJR-n6oeX69Efiiss29GHsLiDsHhRS5K8DrXh-QXP1T0AMaOsJmx_w'
  lat: 40.106921
  level: 7
  lon: -88.230145
  name:  'University Lutheran Church'
- ap: 2537
  img:  'http://lh4.ggpht.com/S734i_6SihPtJW8WdegLb3gEuKeNx8e1qDm6CXjREzYHohw7XqL82m4EF2K5nS2TixHweLn3EuJ4YoQnrsw'
  lat: 40.107751
  level: 8
  lon: -88.231532
  name:  'Graduate School of Library and Information Science'
- ap: 2537
  img:  'http://lh3.ggpht.com/pVUYGCf7vsAndVd4vhK_pC9p6e9OvGa4ZiWuZg0ELOFDWptBba4H2N4PNZPjQdHXnV1GQyLTpCXQWDMKDUqn'
  lat: 40.108875
  level: 7
  lon: -88.227835
  name:  'Lion''s Head Planter'
- ap: 2537
  img:  'http://lh6.ggpht.com/rDThTbD9GU2Wvv8ZnUbLlUM5N0lb2OAYi3qDkxwfYALO2O0t_O9u19aQ4EQbxGlRScGdQ94AjAeqlc2WpNGZ'
  lat: 40.107379
  level: 6
  lon: -88.228355
  name:  'Carolyn Smith Ainsworth Memorial'
- ap: 2537
  img:  'http://lh4.ggpht.com/RF7EbCh1YRbFHfis_PEc88NF1v4Ndhj-Rm7rrlY7F8s-Mrv1EMEFnajFbYiNffZ_3kMNL80Zv-_jtaMYMtLA'
  lat: 40.110655
  level: 6
  lon: -88.22725
  name:  'Gothic Brass'
- ap: 2537
  img:  'http://lh5.ggpht.com/k_9eqZVvGcr3ZNyeeSNDM1-Y7od35KmnQQptB9usrdpTdpGW2c_5-12rYy9hGazdx7qhlYrEXxaJ_ZIVFywlcA'
  lat: 40.106706
  level: 7
  lon: -88.232116
  name:  'Illini Tower'
- ap: 2537
  img:  'http://lh4.ggpht.com/ZwDzLvPP0KTL_mUj9ta-0DRkbA4q3X7b-r02bm3rTibFkPbu00GKehClddYfSkXbwVuJ4pjt4T7yo7ou54ov'
  lat: 40.111869
  level: 4
  lon: -88.227932
  name:  'Talbot Lab Mural'
- ap: 2537
  img:  'http://lh5.ggpht.com/WZc539Zuz4CnOeahoDxnw7bXfoXbAW8PlbPdBvZNK5s1q7hQoFcVebhZRoTQV6uPovHywWaXUsleNvoQP2wE'
  lat: 40.113647
  level: 5
  lon: -88.227628
  name:  'Micro and Nanotechnology Laboratory'
- ap: 2387
  img:  'http://lh3.ggpht.com/I8Cra-oBAq7td_84j0G8l8DIMXhxPP-O8A8xPb1WZb8O2s9DBapV_osKefRuzzDGDhcPRA9WT7yaPBvkGE4g'
  lat: 40.112836
  level: 4
  lon: -88.22802
  name:  '1909 Senior Memorial'
- ap: 2537
  img:  'http://lh6.ggpht.com/_wokSDHEvYXLFDe4QysimxK0wSeVmyKpCQrh_xMUi7qX74lQQgzD3K_2GWrgvEh6mYh2rS2m8A0OiWtJUos'
  lat: 40.09305
  level: 6
  lon: -88.239909
  name:  'IL Geological Survey Library'
- ap: 2537
  img:  'http://lh6.ggpht.com/ZSVCsC7hXcoC2GI20Sq8deYNu_RXKDePVyLUpFRUSNdceVY9OBExZbgX-tuJK4pHEVYXT9YbN7DF9kicgt25'
  lat: 40.088197
  level: 6
  lon: -88.190413
  name:  'St Matthew Lutheran Church'
- ap: 2537
  img:  'http://lh6.ggpht.com/yyeYUYh4CQUjDkChdMYxhBGtyVNFeOxie-Qo2rFmwnp6dxmIx6wYlfyU88vIxtwULKprz84mi2fmqu2vMOo'
  lat: 40.114764
  level: 5
  lon: -88.20772
  name:  'Station Theatre Memory Bench  '
- ap: 2537
  img:  'http://lh3.ggpht.com/Mq79WbQ1w5yLCoU_4h7uMnsGDj7g46MAzSE-sfiiMY6H3h21xj3qNtuvBBWvMMUEmkBuZC_gI90YQhbAMSGU'
  lat: 40.115386
  level: 5
  lon: -88.207887
  name:  'Broadway Ave Mural'
- ap: 2537
  img:  'http://lh6.ggpht.com/VUiJw2p9vjgP0F_q_V_AeIeL6ZgjRVgXYCi1RfATkyViyTqwz2d5-dFq5rtfxMMufqEfVcxf5WUjHbr6J20'
  lat: 40.096039
  level: 5
  lon: -88.194729
  name:  'Koishikawa Rotary Garden'
- ap: 2237
  img:  'http://lh3.ggpht.com/aMIl1mI8_WB4p7_0eaIH37KdyZy8nOkQ1RAOzpiksix0-kzmGW1_61945dVUlJ_J1dlocqrg5opjNFupptA7'
  lat: 40.109274
  level: 1
  lon: -88.196373
  name:  'Apostolic Christian Truth Sanctuary'
