- ap: 7222
  img:  'http://lh4.ggpht.com/MvwoDsxwfyNLHzfGkFJl-4VFeX7OvqB0hsMCrZ2D9Olh8GSghAJDfFfDh7a7cOtMIGwEDMyesZoKvKCXAGj4'
  lat: 40.116553
  level: 6
  lon: -88.242268
  name:  'Esquire Lounge'
- ap: 6846
  img:  'http://lh4.ggpht.com/dIZMnnUykBHkwUGA_tGi7tq4m0qCooVejZqueoqq9NjBXvZgz1QUEqS-vJhsYu3v7pW_0xejLfH9QeziW28I'
  lat: 40.097472
  level: 6
  lon: -88.259842
  name:  'Indian Acres Swim Club'
- ap: 5722
  img:  'http://lh5.ggpht.com/BUGNnLReyCBJJj9_zpqgwv5_CAyiW8fWBpyVs0ip1hT5NEE6YKCYzlc8ahldKzk_xv-4uckNJNb6NrJd6r33qg'
  lat: 40.116989
  level: 7
  lon: -88.242255
  name:  'Blind Pig'
- ap: 5348
  img:  'http://lh4.ggpht.com/-P9_K1M8m41FpGEgfyih0JNuexcc1mtm7Hq3LOuozksba15MIQWefDgfBs20Uuf61Txiy9-ALeKCMVWuBi4'
  lat: 40.083514
  level: 5
  lon: -88.276579
  name:  'Christie Clinic Hospital '
- ap: 4785
  img:  'http://lh5.ggpht.com/KmcyHZbW-2yJsvLDA_XQCx9aOF3P9itxKi_I4fScJaaRqqojBriUII3Fp8SHNgup2Ab6_7r9jDEo_AzWSfI'
  lat: 40.097028
  level: 6
  lon: -88.276646
  name:  'Roby Recreation Trail'
- ap: 4785
  img:  'http://lh6.ggpht.com/wNRP75KigUqlahXLbqAEKGIz2n2kFEiPnl8N9wYTLbnMdYASRbhsFYo33DyVRETf0fgmad8RuO3z7j3tV50'
  lat: 40.097001
  level: 6
  lon: -88.276242
  name:  'Robert P. Simon Trail'
- ap: 4785
  img:  'http://lh4.ggpht.com/3gTAX6rKgNjLmBOYvAVTgSPQej5yRF_38uRllp9H4n5N6pvwWo5kDMDwlIkFVPPl30BXPSGAlZ9pO9B4DMk'
  lat: 40.116218
  level: 6
  lon: -88.242141
  name:  'Live Action Games'
- ap: 4785
  img:  'http://lh6.ggpht.com/SCYK-XeMmOyfRrTt1-aQNoDA-2Sib4m5Ch26mTwo6XNdVeVnfi7W74Ik6IRLAPSoKzSS97pgwt50Jl9oSgGfP029USxZzQWKNJo3rbs-6YHBPBif'
  lat: 40.116792
  level: 6
  lon: -88.241752
  name:  'WEFT 90.1 FM Community Radio'
- ap: 4598
  img:  'http://lh3.googleusercontent.com/hJZWoErzM-MuXulq4FlhlZwMbJX1Isd81GBUBVKayd57jVIVxUle3itd-1DRKo2VaNXznWr1X639fa44Etk'
  lat: 40.141919
  level: 7
  lon: -88.244611
  name:  'Marketplace Mall Carousel'
- ap: 4598
  img:  'http://lh5.ggpht.com/dRrlHXlT2nMNgZNHiYo52ha9L-Xay9DyOJR2Cpqs74hgAJ09abn9OTAtMzRVedt1_R9ObZllLO98vRhNMfgTgVsJCk1S-HJwX_XgiGpG4lz3a328'
  lat: 40.11671
  level: 6
  lon: -88.24263
  name:  'Cafe Kopi'
- ap: 4411
  img:  'http://lh3.ggpht.com/07XrBN-er6Ecleor0n9RJ4DfGO6B2yn-ZxjI-Uy8Ba46Jtb6cXNVmATPiPiGyk-1jZ4wxa7-EeIWbWUqArCG'
  lat: 40.142554
  level: 7
  lon: -88.243468
  name:  'Dog Heart'
- ap: 4411
  img:  'http://lh3.googleusercontent.com/5FkLhIMVmAJJSslAXVxY1RNxi-4q5mNAVPK2XgU5LwRM8qcB8BGXOK0GmF6Y_xfgPOhwF_CrbcgVZlJx-Pza'
  lat: 40.11652
  level: 6
  lon: -88.241845
  name:  'Mike ''N Molly''s'
- ap: 3661
  img:  'http://lh3.ggpht.com/ahylfFHnKd7tl8EDQopVPlqhdiJblx_p3TWsELUFACXM_9qS9N8agb-ypr7EOOemNFMUrRGaUQ23LY6F1ssb'
  lat: 40.095094
  level: 6
  lon: -88.257764
  name:  'Faith United Methodist Church'
- ap: 3661
  img:  'http://lh6.ggpht.com/duOeXcOSQLWosdD0JJXg3pWWQp4t5sL0x9qDHoTIBFNOzEW0t53Lt2cnwgV2E_Su0l1ajIQxPtVbbK_sDRaS'
  lat: 40.141775
  level: 5
  lon: -88.242671
  name:  'Marketplace Mall Fountain'
- ap: 3474
  img:  'http://lh5.ggpht.com/tuo_ByFTbwLitFP5cBseOibqRxENxbCwOJ30dCnja5ijBI_qBv5vqNP7ZuZXnxhYM6ms_GbExZEwwKVUtwV2'
  lat: 40.093712
  level: 5
  lon: -88.281583
  name:  'Brownfield Dedication'
- ap: 3474
  img:  'http://lh6.ggpht.com/p2F3xw4xL4UdiMM9aSy628ISSglrvjPexpF3j340tMAP9MX07yh_sJv7kHVkeud8lyFf2ZwDohw3zsRS2PSd'
  lat: 40.093914
  level: 5
  lon: -88.281531
  name:  'Terry M. Warmbier Memorial'
- ap: 3474
  img:  'http://lh6.ggpht.com/Jz3ahY5LQ13wKWLY9SEvexiinJa3GeO1eB_FynplikRpa77swLST6cUAJjPpqKDSq2KU4Dcyui-QBstz_Z3k'
  lat: 40.094624
  level: 5
  lon: -88.282953
  name:  'Greenbelt 2'
- ap: 3474
  img:  'http://lh5.ggpht.com/nWEtxuKQdy0teBBue1DYmG7P3SF5-3A6zlB7GwVHBWlolAZYGq6Br78lWcF9ltFy-KeSlozXie2RmU6JfCUX'
  lat: 40.142673
  level: 7
  lon: -88.244603
  name:  'Italian Statue'
- ap: 3474
  img:  'http://lh4.ggpht.com/ryDcZUJK2aQ_fI0-hY850_t4ZmG2hNmtCx7cxbX83w3cnUWdI-ywpTuQrUVQNxGl3_DcxxNr6bupfDTsagRa'
  lat: 40.117107
  level: 7
  lon: -88.242467
  name:  'Radio Maria'
- ap: 3399
  img:  'http://lh6.ggpht.com/2lDM_Uj6QcUJmWkmPhNWg-vfkJbBQAo6zb7eXC5qDTaJ5xAsoU7jPPqYmLo7zztC2Za1oH3QVrHQ78-XabqR'
  lat: 40.116398
  level: 6
  lon: -88.242485
  name:  'Champaign Servicemen and Women Memorial'
- ap: 3474
  img:  'http://lh3.ggpht.com/bz4oo3jSLlJ5qqBYGa0PxySc94PdeXA_iAJpXuHQpMh_nxxmIIINM6cZeB6L9wkzZVFu9NkM5j2wSTSqPUs'
  lat: 40.114803
  level: 1
  lon: -88.207948
  name:  'The Station Theater'
- ap: 3474
  img:  'http://lh6.ggpht.com/FsUBggh0M3sjncoth6JaamkCglQtDsuiR89k30B2sMp7srgh0Hz6trgv7BhNRSJA6qI7OvipV8B3XEhzHmaNxA'
  lat: 40.113513
  level: 2
  lon: -88.207559
  name:  'Black Dog Smoke & Ale House'
- ap: 3474
  img:  'http://lh6.ggpht.com/yyeYUYh4CQUjDkChdMYxhBGtyVNFeOxie-Qo2rFmwnp6dxmIx6wYlfyU88vIxtwULKprz84mi2fmqu2vMOo'
  lat: 40.114764
  level: 1
  lon: -88.20772
  name:  'Station Theatre Memory Bench  '
- ap: 3285
  img: http://i.imgur.com/5j1qaiT.png
  lat: 40.691376
  level: '?'
  lon: -89.788056
  name:  '2007b2e2d7f743be8f6f9ce5945b4f08.16'
- ap: 2911
  img:  'http://lh4.ggpht.com/S734i_6SihPtJW8WdegLb3gEuKeNx8e1qDm6CXjREzYHohw7XqL82m4EF2K5nS2TixHweLn3EuJ4YoQnrsw'
  lat: 40.107751
  level: 6
  lon: -88.231532
  name:  'Graduate School of Library and Information Science'
- ap: 2911
  img:  'http://lh6.ggpht.com/BzDhCANV_iNTHhKFBGLuaUqOvChRZtPWnJ2Xk4h7NsKJHmTGgCWtFHWv2PpDA2fCsHHKSCRTrUNK8AKrLRnS'
  lat: 40.108066
  level: 6
  lon: -88.230687
  name:  'Community United Church of Christ'
- ap: 2724
  img:  'http://lh3.ggpht.com/Grxyg_zomjoDZLoj8DA7B5ihU9z_yv5o34_Co7-Hc3S48ewgPkfdEPyerhdYVMscKiE2ilRDMH2aGOJQrB1V'
  lat: 40.127758
  level: 6
  lon: -88.330704
  name:  'Champaign SDA School'
- ap: 2724
  img:  'http://lh3.ggpht.com/xN5qaZ1d4qIQE8TID35MPTmzahhM09EYDVLbu2aeCpRJz9XntEf7R0XswEdQDOmdMpZxIEyNyqsC5qll3vfv'
  lat: 40.082343
  level: 4
  lon: -88.247404
  name:  'Larry Kanfer Gallery'
- ap: 2724
  img:  'http://lh4.ggpht.com/W2chhQwPqSJEkl57NVoIL-OE4KFvJfp7Bsrrxza1apCYltcT3npz95LJxqHxvT9ZZu7wxF2gQy-5bpKal2p2'
  lat: 40.115838
  level: 5
  lon: -88.241338
  name:  'Illinois Terminal'
- ap: 2724
  img:  'http://lh5.ggpht.com/T0WLAJf0s4nu2Phxax31eu6pO6zNoA4JpvHMLyfMKttzJALEWB8EAWOziQwgjdWE3YjBbG1XjGYsgihqCSX9'
  lat: 40.100414
  level: 6
  lon: -88.249061
  name:  'Randy William Auteberry Memorial'
- ap: 2724
  img:  'http://lh5.ggpht.com/k_9eqZVvGcr3ZNyeeSNDM1-Y7od35KmnQQptB9usrdpTdpGW2c_5-12rYy9hGazdx7qhlYrEXxaJ_ZIVFywlcA'
  lat: 40.106706
  level: 5
  lon: -88.232116
  name:  'Illini Tower'
- ap: 2649
  img:  'http://lh3.ggpht.com/5jYVsmaWJU0f8zVo2s_GfQ8mtVZTRQdgkF6Lz4nZKshBOXkqOj2I-34881x1ViUkWSd5_DHAtnoHpOzyGkMwnw'
  lat: 40.100785
  level: 5
  lon: -88.219477
  name:  'Weaver Memorial Plaque'
- ap: 2537
  img: http://i.imgur.com/5j1qaiT.png
  lat: 40.106513
  level: '?'
  lon: -88.5585
  name:  'Lodge Christian Church'
- ap: 2537
  img: http://i.imgur.com/5j1qaiT.png
  lat: 40.279711
  level: '?'
  lon: -88.346869
  name:  'Sangamon River Forest Preserve'
- ap: 2537
  img: http://i.imgur.com/5j1qaiT.png
  lat: 41.010913
  level: '?'
  lon: -90.382649
  name:  '1d0f9709e7c749ae89c41688882c62dd.16'
- ap: 2537
  img: http://i.imgur.com/5j1qaiT.png
  lat: 41.013323
  level: '?'
  lon: -90.384371
  name:  '913fd3c10199419dba943ed7a486d8e9.16'
- ap: 2537
  img: http://i.imgur.com/5j1qaiT.png
  lat: 41.454072
  level: '?'
  lon: -90.330661
  name:  '989fcb6380dd4613820891328bddd442.16'
- ap: 2537
  img: http://i.imgur.com/5j1qaiT.png
  lat: 41.233571
  level: '?'
  lon: -90.332896
  name:  'aa2eda41c1fc43e1a6ff180825dc92d7.16'
- ap: 2537
  img: http://i.imgur.com/5j1qaiT.png
  lat: 39.789101
  level: '?'
  lon: -88.269694
  name:  'abe975a0621e484493d088242128d168.16'
- ap: 2537
  img: http://i.imgur.com/5j1qaiT.png
  lat: 39.984616
  level: '?'
  lon: -88.263266
  name:  '6fc2b246c1ea47d0ba7c8aaacc073f38.12'
- ap: 2537
  img: http://i.imgur.com/5j1qaiT.png
  lat: 41.431873
  level: '?'
  lon: -90.456163
  name:  '4df62c8760954952a6d42df32e7f6330.16'
- ap: 2537
  img: http://i.imgur.com/5j1qaiT.png
  lat: 41.479227
  level: '?'
  lon: -90.158093
  name:  'e9e70afc8d7e4055bb72819efe48d42c.16'
- ap: 2537
  img: http://i.imgur.com/5j1qaiT.png
  lat: 41.570778
  level: '?'
  lon: -89.127801
  name:  '4bf70cbe46bb41489e8108e397ed5b30.16'
- ap: 2537
  img: http://i.imgur.com/5j1qaiT.png
  lat: 40.026343
  level: '?'
  lon: -88.568932
  name:  '21bbda8f25294fe4b842e21fbb01f079.16'
- ap: 2537
  img: http://i.imgur.com/5j1qaiT.png
  lat: 40.014857
  level: '?'
  lon: -88.331924
  name:  'd3747863b62e4161b818c8b5e75c79fc.16'
- ap: 2537
  img: http://i.imgur.com/5j1qaiT.png
  lat: 39.040935
  level: '?'
  lon: -88.747465
  name:  '5788bec846e74b3faf82ab1a76c2a7e3.16'
- ap: 2537
  img: http://i.imgur.com/5j1qaiT.png
  lat: 40.466102
  level: '?'
  lon: -88.942775
  name:  '7e2e59a57c7644dabb1a6538711b7bde.16'
- ap: 2537
  img:  'http://lh3.ggpht.com/xSCQSCRT6pHyQi9LDI3OamMdZnhLQ06OSlHRHnJC0FkDo93VgOcr3gyAV0aPAKagwq9V5iViSSCgIr6_fWCB'
  lat: 40.134441
  level: 4
  lon: -88.314067
  name:  'Seasons Within the Wetland Environmental Sign'
- ap: 2537
  img:  'http://lh6.ggpht.com/ocpQF23CdY7CXPOYMbPL3wLLV7Rc0VayvSyooA07il2lG0oiiQDbDCnsKqO1ysXJAVlzGikCKS-kVOLb6rog'
  lat: 40.135079
  level: 4
  lon: -88.314559
  name:  'Sunset Ridge Decorative Gate'
- ap: 2537
  img:  'http://lh6.ggpht.com/ln9YjSvHRoySzMRZ4pI_25YyxE2lmJHlRhf7egen6R6cXykH55ZTPJB0kByohkG8cZ0mn4EVSlQ9zrEj5cRa'
  lat: 40.088796
  level: 5
  lon: -88.321301
  name:  'Mullikin Park'
- ap: 2537
  img:  'http://lh5.ggpht.com/bxjTJmHRd1_7x6zw7y1Eir0opWUqtbJOdAC4FxDOfOBVdUI1zEVV9wo5FiHzTxqR7hajj-4tQrnSyAe2b8Y'
  lat: 40.113974
  level: 4
  lon: -88.311234
  name:  'WBGL Radio Station Headquarters Plaque'
- ap: 2537
  img:  'http://lh3.ggpht.com/KzADjdPRAvwycpfTBdAeDwFJ0AxZJG2dPmbPWkXq55QLV9PfpJ_-DsXWIlVgsISUApRdJ5cAxRWx0k0W2hI'
  lat: 40.09979
  level: 6
  lon: -88.249107
  name:  'Jerome Cook Memorial'
- ap: 2537
  img:  'http://lh5.ggpht.com/tZ1lEGRzdFJ7k1jwj0PTGd3tWVTGqCHIb1LcRdjc2pF5IJjsuYFFPQgwEWSBaPapa89oOEPXO_g2XWQxQl2h'
  lat: 40.110212
  level: 5
  lon: -88.276899
  name:  'St John Lutheran Church'
- ap: 2537
  img:  'http://lh5.ggpht.com/n8MFM2pb-tE5i9EziJdygPPUK8VqEZ4BHGQaywz4lwe3WjwdgO0ohBCPZmiMoL00r3mVPmYnbCunJDeFbyk'
  lat: 40.118593
  level: 5
  lon: -88.240416
  name:  'Champaign Rail Water Tower'
- ap: 2537
  img:  'http://lh6.ggpht.com/BANSBFfuZ3_0ya-JodV7jEB1a-DwSOyegBwPKAODSUFHLmvI7b8zwSiLUAvvqIAYjpU6S_Lm8XRBJ30KDGCIEg'
  lat: 40.116917
  level: 6
  lon: -88.24078
  name:  'North Star Sculpture'
- ap: 2387
  img:  'http://lh4.ggpht.com/4rZUtsKLzttseF-bliT_X7wEGP_joarKKLt8DNtp99fViYcqD4TAWTfZ_Ur6oEdBJdT-1JeZl4tnk_sTtgN0'
  lat: 40.116361
  level: 4
  lon: -88.247369
  name:  'Gerry Schriefer Plaque'
- ap: 2237
  img:  'http://lh6.ggpht.com/tEtHQ3gjXHp940OLn9txVBSOCdT8UfYUs3C29Cgx6HiCLrS3KBboU3Wms2rEVMQWEf7lf67xfK7MIUmimDw'
  lat: 40.116631
  level: 1
  lon: -88.247334
  name:  'Jack C. Richmond Lion''s Club Bench'
- ap: 2537
  img:  'http://lh5.ggpht.com/Tn5ARN-X6VTc2q6atZ2WYq3c2g3gbSGXu6_vXf1MDwHfLpdTtnQ-CilBAVGvL6R-SHhq3fJ4WZI-yiJKmIId'
  lat: 40.110398
  level: 5
  lon: -88.235143
  name:  'US Post Office, E Green St, Champaign'
- ap: 2537
  img:  'http://lh3.ggpht.com/KxQsev6i7POmNh1IadCWwWQSMdCuLIYpPwIdenSlVtzum523D1R-1kfeTbuOGTkt_jDwn4jswCu1edkumm2-'
  lat: 40.110037
  level: 5
  lon: -88.23549
  name:  'Red Lion'
- ap: 2537
  img:  'http://lh4.ggpht.com/lQtf71rwzXt5zHafbKPm8Czz3n2KwBWlEaNUh3-2JKrXTDueZ_JerHOPeSecqLaxLBWC09dTlPizrDMTafpT'
  lat: 40.105618
  level: 5
  lon: -88.230986
  name:  'Alpha Phi Sorority'
- ap: 2537
  img:  'http://lh4.ggpht.com/0j8eeTKJgjnYhHpf4qH_70CZHLbujC5v-XP_ndcqh1xIR-5V2K_CGdjIe1ZfMbwvSyISxxYKoZynw1DaQcj8'
  lat: 40.105874
  level: 6
  lon: -88.230562
  name:  'St. John''s Rectory'
- ap: 2537
  img:  'http://lh5.ggpht.com/kElaGOaV9aI8SrnM1D65gx9J0Ky1AKrN9Yo-pXVmDhELt2pee4MwVRiCqCmlqWzUWj5pS33GnEzAiXmiWKsw'
  lat: 40.108111
  level: 6
  lon: -88.229625
  name:  'Illini Sports Mural'
- ap: 2537
  img:  'http://lh6.ggpht.com/yYW6Egg1lWn6UqqLzlgqwCQhtbuxiZSW4TmvI1XBPs33OTTJ0oh51XZXOIILxGI2juoO-E_YfG5UHmeb34rSOw'
  lat: 40.109165
  level: 4
  lon: -88.230269
  name:  'John Street Plaque'
- ap: 2537
  img:  'http://lh4.ggpht.com/3_LELG2r-A5s2d-x2dWyz6h7HzfjVR_KZn9AG0vhih9EalQIG43iL6LdKqKNpnGdGwguP9ZfnGF0KMq_KDE'
  lat: 40.105799
  level: 5
  lon: -88.230188
  name:  'Color Glass Windows at the Newman Center'
- ap: 2537
  img:  'http://lh6.ggpht.com/pxaCt7clhIXc1RVGMMJZsmnbEWNWjFYJiUrQMev_SeOmXBothvOzmfnirQ5_W8CMa7hpigqydQhKMa4XFCAi'
  lat: 40.108173
  level: 4
  lon: -88.230209
  name:  'Mural on South Sixth Street'
- ap: 2237
  img:  'http://lh6.ggpht.com/uuDZEurp-UqLKU1BShf2vQxSG1vwpk-MDBizyO6dIijDD3nTavBfEGfQ4lPiXtDc-2867s28mDJ0ko7kvC3sxQ'
  lat: 40.100485
  level: 3
  lon: -88.219408
  name:  'Pennsylvania Avenue Residence Halls'
- ap: 2537
  img:  'http://lh3.ggpht.com/gSjoDo9KYu-lgQFkD5uUnj4HXGc1BOihKfh-rNeZu_Q3hHyEkaBoalqYiV46QcvH9y4o8cPkHP_cmo_LxCyo4Q'
  lat: 40.10214
  level: 5
  lon: -88.218932
  name:  'Twin City Bible Church'
