- ap: 5909
  img:  'http://lh6.ggpht.com/duOeXcOSQLWosdD0JJXg3pWWQp4t5sL0x9qDHoTIBFNOzEW0t53Lt2cnwgV2E_Su0l1ajIQxPtVbbK_sDRaS'
  lat: 40.141775
  level: 5
  lon: -88.242671
  name:  'Marketplace Mall Fountain'
- ap: 4598
  img:  'http://lh3.ggpht.com/07XrBN-er6Ecleor0n9RJ4DfGO6B2yn-ZxjI-Uy8Ba46Jtb6cXNVmATPiPiGyk-1jZ4wxa7-EeIWbWUqArCG'
  lat: 40.142554
  level: 6
  lon: -88.243468
  name:  'Dog Heart'
- ap: 4411
  img:  'http://lh5.ggpht.com/nWEtxuKQdy0teBBue1DYmG7P3SF5-3A6zlB7GwVHBWlolAZYGq6Br78lWcF9ltFy-KeSlozXie2RmU6JfCUX'
  lat: 40.142673
  level: 5
  lon: -88.244603
  name:  'Italian Statue'
- ap: 3661
  img:  'http://lh3.googleusercontent.com/3nkY0B9PDqzlWJ_EKh5GnTZ8z0U6X9-2dI5dapKA5Q3F4iKrE99AJZoy6NSvh2nU1WTG2hL70276yJjJ0G8'
  lat: 40.141598
  level: 5
  lon: -88.238817
  name:  'Red Shield Center'
- ap: 3661
  img:  'http://lh4.ggpht.com/CYtXDlK6MB-Yl-FmKw6yaRt-LGUdQqAdRp3LsWV1JUYwC8qrVWWJaGEaqMtMtRpANFpNeD4z82iGL54nIARL'
  lat: 40.141919
  level: 5
  lon: -88.244611
  name:  'Marketplace Mall Carousel'
- ap: 3474
  img: http://i.imgur.com/5j1qaiT.png
  lat: 39.738831
  level: '?'
  lon: -90.228582
  name:  '0a5e4abebcbf42fdad4267387e575247.16'
- ap: 3474
  img: http://i.imgur.com/5j1qaiT.png
  lat: 40.530733
  level: '?'
  lon: -89.632712
  name:  '2449c11788024e6c9818e19c63b176dc.16'
- ap: 3474
  img: http://i.imgur.com/5j1qaiT.png
  lat: 40.541395
  level: '?'
  lon: -89.630645
  name:  '255b38cd8b5040b7b3321725ab3a7dd7.16'
- ap: 3474
  img: http://i.imgur.com/5j1qaiT.png
  lat: 40.778321
  level: '?'
  lon: -89.67447
  name:  '649a82519808467ba90055d73673616e.16'
- ap: 3474
  img: http://i.imgur.com/5j1qaiT.png
  lat: 40.778755
  level: '?'
  lon: -89.674026
  name:  '6b83342c4fde4298bdb186836bb418c2.16'
- ap: 3474
  img: http://i.imgur.com/5j1qaiT.png
  lat: 41.302375
  level: '?'
  lon: -90.19526
  name:  '8af4452cb459425d982b7bb24dd90914.16'
- ap: 2724
  img:  'http://lh5.ggpht.com/Lup2et0i5h8oHqtBffIdoyX5uclC2MBn9ZnnKnYPr4RIFSflf9bi78zBHK7QqycA0qgEev9qOk0zU-1o1hg'
  lat: 40.108451
  level: 5
  lon: -88.228733
  name:  'The Centennial Colophon'
- ap: 2537
  img: http://i.imgur.com/5j1qaiT.png
  lat: 40.779221
  level: '?'
  lon: -89.673801
  name:  '684444e63a55494fa0ed03c633d231dd.16'
- ap: 2537
  img: http://i.imgur.com/5j1qaiT.png
  lat: 41.303135
  level: '?'
  lon: -90.19288
  name:  '0583d678e29c42389aa92f8982096fc1.12'
- ap: 2537
  img: http://i.imgur.com/5j1qaiT.png
  lat: 44.607633
  level: '?'
  lon: -87.43205
  name:  '8e6a8255e7c342e8806313a728bf9918.12'
- ap: 2537
  img: http://i.imgur.com/5j1qaiT.png
  lat: 42.781389
  level: '?'
  lon: -87.757824
  name:  'f1b338e3321c46a3b934d916b9212aa6.16'
- ap: 2537
  img: http://i.imgur.com/5j1qaiT.png
  lat: 39.809612
  level: '?'
  lon: -89.398152
  name:  '389b2d3460584fb58c24cb38556cbddc.16'
- ap: 2537
  img: http://i.imgur.com/5j1qaiT.png
  lat: 40.026078
  level: '?'
  lon: -88.783718
  name:  'edce8f4594c948e790402f25987eea45.16'
- ap: 2537
  img: http://i.imgur.com/5j1qaiT.png
  lat: 42.558317
  level: '?'
  lon: -88.865354
  name:  'e7bdabae03ae4837811f37e199bef5ae.16'
- ap: 2537
  img: http://i.imgur.com/5j1qaiT.png
  lat: 41.727564
  level: '?'
  lon: -89.011305
  name:  '62382e7a341444acb31e95a9c09219d9.16'
- ap: 2537
  img:  'http://lh3.googleusercontent.com/FMrsRGg4e1AuMu6m4uCIpM5nawtelx8reIfMtog4nuxXU9C7--UKQnUEAm9s4Vc7OfMjfIDX5loNOw4Agz2HAw'
  lat: 40.118715
  level: 5
  lon: -88.242373
  name:  'Richard D James Mural'
- ap: 2537
  img:  'http://lh4.ggpht.com/BEyFLhgqk0ySf2zElnARv5eyaQggj_zbHSagW3_DGt9BieScmU4jGPvJCjezTjbiCP-DOJPLPfJ3HhnYAiQLEQ'
  lat: 40.119288
  level: 6
  lon: -88.248086
  name:  'The Hartford'
- ap: 2537
  img:  'http://lh6.ggpht.com/LxVyXEFJmvSZ271mlFfYmCwyb05Kz8cIRxzMt24ZVhRzsH09nxErJw4gKErktjKpCARWfVl4Mla70NoODK2bng'
  lat: 40.11187
  level: 5
  lon: -88.220692
  name:  'Atmospheric Sciences Building'
- ap: 2537
  img:  'http://lh6.ggpht.com/BsXdEO7HLxNLSdztPo_4GNNcbxZCxswiDT4pmmcfDQ8YO2SFVW-VnwyEZBvkuhf1rxKAtoKNLvV4rDJ-YVCYUK1qiX-dId_R8P-JskyFYAK9ruM-'
  lat: 40.110234
  level: 4
  lon: -88.224055
  name:  'The Etc'
