- ap: 13594
  img:  'http://lh5.ggpht.com/HhVreJipNvxPRVFpmsh2BPo9PcpPO2Q2l3jCpDjIKgfKGycoTNPXR4DKiYccBXW4X-4dJf_vV0ESsWAWHcChsg'
  lat: 40.100936
  level: 8
  lon: -88.250855
  name:  'Donald F. Bresnan Memorial'
- ap: 13594
  img:  'http://lh5.ggpht.com/I3HJjY6jOYl6ivwUaejRmReBjka9NyCW1ufaILf7cfo4VGwjX6kNB9J6PlIZCBIuTfI1jb9arxjssMTa_hisxr2ObqDCJ55lCxXFccxme5erNEY2_g'
  lat: 40.116859
  level: 1
  lon: -88.249043
  name:  'Bilbrey Bandstand'
- ap: 11157
  img:  'http://lh6.ggpht.com/9IW6Hm5bd65CbdAqPB8OgjAYQoF7CaPE37U44dbXIYzTWE7ulgSEzfxqVTOGVqCglU_0W2iHo9ZjRqRefq27'
  lat: 40.116904
  level: 2
  lon: -88.249558
  name:  'Gerald Guest Memorial Tree'
- ap: 10783
  img:  'http://lh4.ggpht.com/Iz-O9-kJLlEdRO9osaqkCvLRsSNF24c95jHG0lhtE95b99-cC2bKuCEiznIs1-ytpoCITEwQ7s5VuyURgrpM'
  lat: 40.117288
  level: 1
  lon: -88.248506
  name:  'Prayer for Rain  Fountain'
- ap: 10783
  img:  'http://lh5.ggpht.com/KYppjeOoIlb4lbowRrrC5qRdYW7_KU8rzjtDMpvhh-Q_c6VZOTtVmOqmmxChJA2hjlpS5dJ1JnhUQcKUAXDWHA'
  lat: 40.117976
  level: 7
  lon: -88.242642
  name:  'Stevick Building'
- ap: 10407
  img:  'http://lh5.ggpht.com/KadNuhjGK6FUXezGHW1W1kfPOQV5l7gJP594EQm5nPZFLTgcTsjl4ixa-j7XitgtyJyou3q0pTfMr4i2E_avIA'
  lat: 40.118013
  level: 5
  lon: -88.243445
  name:  'Clock at Neil and Main'
- ap: 10220
  img:  'http://lh3.ggpht.com/8Nxm7sw1mIfTkxKb-GsE_e5DuPgup8SmX1SJRLGZmvopdsQsPx8E9eDzuISKXBjwveamwn6H26EmIJZzVwkr'
  lat: 40.117449
  level: 1
  lon: -88.246902
  name:  'Champaign Park District Flower Island'
- ap: 9470
  img:  'http://lh4.ggpht.com/4rZUtsKLzttseF-bliT_X7wEGP_joarKKLt8DNtp99fViYcqD4TAWTfZ_Ur6oEdBJdT-1JeZl4tnk_sTtgN0'
  lat: 40.116361
  level: 1
  lon: -88.247369
  name:  'Gerry Schriefer Plaque'
- ap: 9096
  img:  'http://lh3.ggpht.com/rm0mJKw5ksUEH6_YQLi-f3uo56Wv-4h1P-Q_Ws61holRtnLG9Qt0NObbSBzDxPm3tvIhWgzHLvftIMBC_5dZ'
  lat: 40.118435
  level: 1
  lon: -88.247677
  name:  'Burnham Athenaeum'
- ap: 9096
  img:  'http://lh5.ggpht.com/dRrlHXlT2nMNgZNHiYo52ha9L-Xay9DyOJR2Cpqs74hgAJ09abn9OTAtMzRVedt1_R9ObZllLO98vRhNMfgTgVsJCk1S-HJwX_XgiGpG4lz3a328'
  lat: 40.11671
  level: 7
  lon: -88.24263
  name:  'Cafe Kopi'
- ap: 9096
  img:  'http://lh3.ggpht.com/rUgM7jkTqL0VHxvsSW0yWuNJF5UrU62ITflghfn4PfKjn6L4WGz0ALkv98fc_q9dmK9SSpU1PXIawGvcRwE'
  lat: 40.098246
  level: 8
  lon: -88.251974
  name:  'Hessel Park'
- ap: 8909
  img:  'http://lh4.ggpht.com/6iTxW6HC8WFx3nf6xEGhZryWVxW9NNijqTsEKvcBCBkmkmLZdUjaDHKReKT58cl8RUaCwDCL7pMFmBEyj3Fc'
  lat: 40.117602
  level: 1
  lon: -88.249943
  name:  'Megan Schneider Patel Honorary Plaque'
- ap: 8909
  img:  'http://lh5.ggpht.com/c-upLAoA6V12_Enn5doC2Hqtp3W9dLMIb34VHt0aVni2lW2OF5Lddn2c-1XcxmmaN7um9eyxqOF5c3c0hs4'
  lat: 40.118139
  level: 2
  lon: -88.248407
  name:  'The Americans Creed'
- ap: 8909
  img:  'http://lh3.ggpht.com/lzCSS0_tjwUV7JQ2fgLI0e05IrzPxlVUs-6aEPOwUv67IanQJSTi71gkw0SGm8asmoE_r3Xoh048Fd9xRpE'
  lat: 40.099169
  level: 8
  lon: -88.251419
  name:  'Lyman Larson Memorial'
- ap: 8909
  img:  'http://lh6.ggpht.com/qSCp5fQMlyCQ-GOAgiSFy5gaHJei705Pa3eOlJiYO5wGjZTYtjA8q7QWWfAWcLKjxZSaFiMfXOPR8SO7rWU'
  lat: 40.099353
  level: 8
  lon: -88.251876
  name:  'Raymond B. Cattell Memorial'
- ap: 8909
  img:  'http://lh6.ggpht.com/5CDidk0pqfUtSW_Yqouuf3diX8drdMu9DoT728QpSz8q6A-WxNhT0yLcgM_7gGpyIAeXrHiTkIzzaVJFgnN9WA'
  lat: 40.099852
  level: 8
  lon: -88.251947
  name:  'Our Friend Tim Palmer'
- ap: 8907
  img:  'http://lh6.ggpht.com/2lDM_Uj6QcUJmWkmPhNWg-vfkJbBQAo6zb7eXC5qDTaJ5xAsoU7jPPqYmLo7zztC2Za1oH3QVrHQ78-XabqR'
  lat: 40.116398
  level: 6
  lon: -88.242485
  name:  'Champaign Servicemen and Women Memorial'
- ap: 8722
  img:  'http://lh3.ggpht.com/5iH9kzVECg-dsKRPYTzLzAT5eoYnDhGrcJB1N-hLShal9eEun1_Ml0oFX2c42cGNjKj8-yvsEnUn2j4C_90'
  lat: 40.11792
  level: 1
  lon: -88.249845
  name:  'Thomas R. Sandrock'
- ap: 8722
  img:  'http://lh6.ggpht.com/yjfa0jJLjsfLRf9Zn9iafMp3MuIhgCi0WiOCF8GqTGiGvzEnsPGrFa0H1n-uzWhVehLbt44ShthsA32VzHd5iQ'
  lat: 40.099737
  level: 8
  lon: -88.251157
  name:  'Tyler Van Atkins Memorial'
- ap: 8720
  img:  'http://lh5.ggpht.com/arF148UpHKIzlt5NezBSpFkItJk3gWq__xkPolNCeVTwHNpQNm1rzIwSdA2oAJBPtaLhpTHcVdAFFdHAXm8k'
  lat: 40.118383
  level: 1
  lon: -88.247003
  name:  'T E Berger Memorial Plaque'
- ap: 8533
  img:  'http://lh4.ggpht.com/ULEhKlvERD4aidwSKPhLFujl0N0mZWcHPxtcJ7hNJkyDjYek9yrB4UD_G8bU-O9-12L1LYpDkM068BiYmpm9weZeGJsz-K5whCvUYTfmDqaIp1Fp'
  lat: 40.117
  level: 1
  lon: -88.247111
  name:  'Wesley Robert Weedman Memorial'
- ap: 8346
  img:  'http://lh6.ggpht.com/rjO65LTfxlehqnFITx_AAA2JKpsmpj8hWVQifyHaji2E1suLvQntKGeHtT8TjDg7CZ94W3wDKW2MrfGY45k'
  lat: 40.11699
  level: 1
  lon: -88.247796
  name:  'Feathergill Honorary Plaque'
- ap: 8346
  img:  'http://lh3.ggpht.com/bltQwmnzp2vSKYhLpzNLqB4iddy6ie0kWk9G7Wce4U9qmW3CABxbXAhF7v0oG9QLFD2q57UZuVqZCMgN3MHZfA'
  lat: 40.118335
  level: 5
  lon: -88.243408
  name:  'Downtown Fountain'
- ap: 8346
  img:  'http://lh6.ggpht.com/ZQaguxPyiC-6DeFDFa2niVKJz3ySxwxYaFCv8PRdNuoMYUfP-Xtirg-8pXCTdBCyH1BruprOVmqf3D1kdp7o'
  lat: 40.115225
  level: 2
  lon: -88.248866
  name:  'Holy Cross Catholic Church'
- ap: 8346
  img:  'http://lh4.ggpht.com/kZm6lbk07IpQebQBqqCODikSi-pOMHQhQ7-c0xNGM6vqUskWUftXV4L3ymEbT0T5IELGgfJ2vrxTZvmgP9D_'
  lat: 40.117118
  level: 1
  lon: -88.248618
  name:  'Lieut. E.G. Stillwell Memorial Tree'
- ap: 7972
  img:  'http://lh6.ggpht.com/xQx5BUJcAI_QUroJGe77pPkgV7s_ACVui8PXvCyvmehuDvenmRIvKBGeevOacNR6W3pLMMSh4sVrvXm87QeN2eylsZEtz7pxB-CMvzLmH1WyVZ16uw'
  lat: 40.11786
  level: 2
  lon: -88.248031
  name:  'Lincoln Megalith'
- ap: 7972
  img:  'http://lh6.ggpht.com/ka79B_ahK9kHLiOCOnKsp3SooZlPGgMuIOO25OaqPU7eoUALOBzaa40ZCStdo4v6rCYW0VS_pNgW3PJyUDKxpXI-n55zohIxJwRJEq5gslJKwS5ykQ'
  lat: 40.11794
  level: 3
  lon: -88.248679
  name:  'Fonderia'
- ap: 7785
  img:  'http://lh4.ggpht.com/ryDcZUJK2aQ_fI0-hY850_t4ZmG2hNmtCx7cxbX83w3cnUWdI-ywpTuQrUVQNxGl3_DcxxNr6bupfDTsagRa'
  lat: 40.117107
  level: 7
  lon: -88.242467
  name:  'Radio Maria'
- ap: 7596
  img:  'http://lh3.googleusercontent.com/FMrsRGg4e1AuMu6m4uCIpM5nawtelx8reIfMtog4nuxXU9C7--UKQnUEAm9s4Vc7OfMjfIDX5loNOw4Agz2HAw'
  lat: 40.118715
  level: 5
  lon: -88.242373
  name:  'Richard D James Mural'
- ap: 7409
  img:  'http://lh5.ggpht.com/ONr7OWgjlaWwJELaKTJEC1ZVpkIkuN-2c01D2AligYZC9Zbt8lH0SMkirhrWfHdjmVDmCtzhJWoVxoZM-NM'
  lat: 40.116766
  level: 2
  lon: -88.247614
  name:  'Mary Shaw Memorial Tree'
- ap: 7409
  img:  'http://lh4.ggpht.com/DXAAQEV-pW-laeGTPphalYn5MoUFYMOyKbjs7rL1bBgkOlCxtaEH7bLcuvNbiQTWzFZK1ZPcNbwuEjw20-od'
  lat: 40.116869
  level: 2
  lon: -88.249849
  name:  'Don and Ruth Dobbins Memorial'
- ap: 7409
  img:  'http://lh6.ggpht.com/SCYK-XeMmOyfRrTt1-aQNoDA-2Sib4m5Ch26mTwo6XNdVeVnfi7W74Ik6IRLAPSoKzSS97pgwt50Jl9oSgGfP029USxZzQWKNJo3rbs-6YHBPBif'
  lat: 40.116792
  level: 7
  lon: -88.241752
  name:  'WEFT 90.1 FM Community Radio'
- ap: 7222
  img:  'http://lh3.ggpht.com/I2Up882o0nHzQof3uWaDFK7KQHkYOu1XgKoXUgQotITYJDh--80GzLnOSI8TxKF3RxsF32zcsYmRF8Fiugpt'
  lat: 40.116413
  level: 1
  lon: -88.249814
  name:  'West Side Park'
- ap: 7222
  img:  'http://lh5.ggpht.com/tfAfnmo6mSMc6U0P533NMFJRGwn6lasmx-MLR2JJg1QOizMKkghFU8E7hb2zgYgdQEbgnCJUlvZIMdrrJe4'
  lat: 40.100822
  level: 8
  lon: -88.25193
  name:  'Seeds of Kindness Bench'
- ap: 7220
  img:  'http://lh5.ggpht.com/77v6DfPMOKjAUzTfAuqZzYtMmpFMJV7lPr7FgQb_Fa46w1xmepHb0h-0CpG5WZy1b9vd5_DZ0uLxxZw9-DhJ'
  lat: 40.117163
  level: 1
  lon: -88.246602
  name:  'Garden for the Gardener Plaque'
- ap: 7035
  img:  'http://lh3.ggpht.com/l6drxc16dn91XarTz8Tkkeerjhu28Hf3x7nh-pHe05BLyOA6fuV75A5gB8UdUNt3cRN_eXIHmTE8c5Ypvcw'
  lat: 40.117248
  level: 1
  lon: -88.249929
  name:  '"Tootsie" at West Side Park'
- ap: 7035
  img:  'http://lh4.ggpht.com/7jfpHo9VtrONulGtzUfsP3lI3AsKBnUxCQaLU9xAMpVCQbWD24db4z9Otn0Sfz_OnEXSbdwKUGm3MZBV6QZrhQ'
  lat: 40.117194
  level: 1
  lon: -88.247472
  name:  'Rebecca Mabry Memorial Tree'
- ap: 7035
  img:  'http://lh6.ggpht.com/uAhsK1gCBrCPvIEZ8lZRhDGbO9Q75uu9su3qhSkktViExCuvIvXGCLwZXT-_riPd4rI3tTvsLqqn6XO3msF4'
  lat: 40.116558
  level: 1
  lon: -88.249136
  name:  'Babe and Gene Wilder Memorial Plaque'
- ap: 7035
  img:  'http://lh4.ggpht.com/GO8F5d9Gz5q0tize1_1NxJ51SfmjJESFilw1OhfyI3I0RcdLFN2uKHr8prPX1KAdmabYL8PNJNjyqlgn7r9o'
  lat: 40.117537
  level: 1
  lon: -88.249445
  name:  'Buerkett Family Memorial'
- ap: 7035
  img:  'http://lh6.ggpht.com/ZB8W5NNUt_ghaLF4gE_7_e_uguOocj1k6qCQvq2eAsayVQyZFUsUA3H5SFkHOwg20GluChbe2MSO_xWoB0bk8g'
  lat: 40.11813
  level: 1
  lon: -88.247413
  name:  'West Side Park'
- ap: 7035
  img:  'http://lh4.ggpht.com/Ow-wdEqY3uMRz8f_iGkOY7s4f79TTfxQK15aQu3wgtzRssq6mUqmxZcJDjfC4fO2y4Qt69U2jdahRt-Ald53'
  lat: 40.118119
  level: 2
  lon: -88.24714
  name:  'Police and Firefighters Memorial'
- ap: 6472
  img:  'http://lh4.ggpht.com/vKgqIecJshMQxrhO-ZhMjcIyARuJdyU63wKfzAG0wouZex6LVzO46Qi5zM1N3Jx8xyantDFk9sQGsSEBhb-y'
  lat: 40.101327
  level: 8
  lon: -88.251412
  name:  'Zeus Memorial'
- ap: 6472
  img:  'http://lh3.ggpht.com/NuEE1yevEulYAFm9UHYKLrX8fVNrXyLgFXbQ8kTjAKuT9w-Fkj18Pop2B2wikf21LHDU24uSUkIvXbfKyvy2'
  lat: 40.11738
  level: 1
  lon: -88.250259
  name:  'Heath & Vaughn Funeral Home'
- ap: 6472
  img:  'http://lh6.ggpht.com/1El0oK6CWDh7rAQeFmPEW_dA252pdq7piTtjtuQCkZvwRa689NLjEafLqQ35TI5qCW3Lmhja9PLQqKxFs9Ha'
  lat: 40.110627
  level: 4
  lon: -88.227584
  name:  'Tau Beta Pi Statue'
- ap: 6472
  img:  'http://lh5.ggpht.com/LPlCgoOAlClRaVCl_B1sHDkn38OgDbXat-l5Q1bDZLP7mOUMfU8pK-o3N8BEqh0vHJcZBHo3iz2AMQKAhot7Tw'
  lat: 40.110833
  level: 4
  lon: -88.227425
  name:  'Engineering Class of 1975 Monument'
- ap: 6285
  img:  'http://lh4.ggpht.com/LukOnZPQdxTvyW2kKwpCrzH9PWuOtO6LZyu0jeZSt8ijAhlA0l-3oYZ_m0HbPoF316Mhgbh-SaZNKtmX82c'
  lat: 40.11814
  level: 1
  lon: -88.249887
  name:  'Silver Cloud Oakley Washburn, Jr.'
- ap: 6285
  img:  'http://lh4.ggpht.com/PHV-1ZpFzCAl_ViCKwBY_x2pIDbVyaT7wJH1sTvFJCxrSdRrO1x7NaXq9OdRGwz_Mls4iwk6wuGHMBArfV54'
  lat: 40.098688
  level: 8
  lon: -88.25063
  name:  '"New Holland Yellow Dinosaurs" at Hessel Park'
- ap: 6098
  img:  'http://lh6.ggpht.com/EiNXerTyRNFVC9pti48SExCtqR9p6t3-Xne_jw2YB90-VjUeJ3KGX8Se436SNVkFb5wOw0N7CKCz9brOeVg6WQ'
  lat: 40.117802
  level: 1
  lon: -88.249547
  name:  'Warren and Mary Filer Memorial'
- ap: 6098
  img:  'http://lh6.ggpht.com/QKHOcl5WKE1EB7Y8PfPqhuJQN7SxpWIvLb13vJp2KJC61ToSi1evTEpgeOtPjAfKuIlQnBq1tApVM5TwJHI'
  lat: 40.118042
  level: 3
  lon: -88.248912
  name:  'Indian War Memorial'
- ap: 6098
  img:  'http://lh4.ggpht.com/EN7YTfA2hkKHBgucyx2FudbTwod0dGUfuekb2VFLAjuj-emNpWEKKgAPi1SN_vsdkbJblYOm5aYiA7MF8CA13A'
  lat: 40.116655
  level: 1
  lon: -88.24954
  name:  'John Patrick Sherlock Memorial Plaque'
- ap: 6098
  img:  'http://lh3.googleusercontent.com/L3lfMswaooWEA3nJNFGES354rtENCzxYkoWuVLXEXaTiXbqTNnsl34TRd8tbMwnGQHkAnr37-HLMutIe3_Uz'
  lat: 40.117254
  level: 1
  lon: -88.247074
  name:  'Westside Park Double Dutch-A Jump For Joy'
- ap: 6098
  img:  'http://lh5.ggpht.com/2jocF-ooKfacyT7HSwrwNcZTSN02yFkcmXBkPx777CYuD5O6sHPHwyUabblNOl_37YOxba1Gjid-TOwLVBlJ8g'
  lat: 40.116448
  level: 1
  lon: -88.248459
  name:  'Uppercutted Sculpture'
- ap: 6098
  img:  'http://lh5.ggpht.com/BUGNnLReyCBJJj9_zpqgwv5_CAyiW8fWBpyVs0ip1hT5NEE6YKCYzlc8ahldKzk_xv-4uckNJNb6NrJd6r33qg'
  lat: 40.116989
  level: 7
  lon: -88.242255
  name:  'Blind Pig'
- ap: 6098
  img:  'http://lh4.ggpht.com/kikXgFanbehTzblqLlN2WzEcVgfnP2HD4JE7GI1GOKTu44g13lknkSsdu9prj71y0zKIBFJv_0RIkFW3vXY'
  lat: 40.117574
  level: 6
  lon: -88.247603
  name:  'Travis Marmion Memorial Tree'
- ap: 6098
  img:  'http://lh4.ggpht.com/B_I1b0Jy3vW41RX8jjCNPP68AULplU0Pf8ddolyKmpEWCfBVShQkmjF1HfTPzDjmBBQGgOs0jHW-rUR0mv8BkA'
  lat: 40.098789
  level: 8
  lon: -88.251685
  name:  'Curtis William McKinney Memorial'
- ap: 6098
  img:  'http://lh4.ggpht.com/4LxsGZZMk3DnpJXUvqzrL54CHSP5TDXjUnDJyHmCCTtCJIjGEI7kxT9g4uxfSPh0X6yGLgQo1jfqbu7B8VEr'
  lat: 40.099084
  level: 8
  lon: -88.251826
  name:  'Irina P. Stewart Memorial Plaque'
- ap: 6098
  img:  'http://lh6.ggpht.com/S7Utf4_59vQkAP5JhC3mdbzVLKBTt-0zoJ2UjfxUnN10VBbixO-_VwvssWd1LbFSx_yafaijd_U0wTGo870'
  lat: 40.100941
  level: 8
  lon: -88.251314
  name:  'Gabriel Patrick Maxeiner Memorial Plaque'
- ap: 6098
  img:  'http://lh3.ggpht.com/8FqlniFErK7cq59awiT84u8KyV4FIRd5krZzfYa58zJToFps7whdBnriPqvO_kFKeLUE3SWbJhCOPuvUQzaGFA'
  lat: 40.100691
  level: 8
  lon: -88.251337
  name:  'In Loving Memory of Zeus'
- ap: 6098
  img:  'http://lh5.ggpht.com/-UWK84I78Sftf7yg-E2pg6xEAWTvyiThgJBJlxbqOZPYKNmzQ8uGgEEMetzplrG1HpXG5kQqNItUeXKxOHDsGA'
  lat: 40.100286
  level: 8
  lon: -88.251747
  name:  'Tennis Anyone'
- ap: 6098
  img:  'http://lh5.ggpht.com/4DJAFPeZ_w65Km7VDnsbOqouQaeBuPuxA0KHPQToT_B6o1hBxzdu3kn89UhHgv22Ygj52Fx9QqcbzOytuw'
  lat: 40.100078
  level: 8
  lon: -88.250683
  name:  'Brian Clark Memorial Plaque'
- ap: 6098
  img:  'http://lh3.ggpht.com/VrbXGwlUosNLEkVdshWUFoVa3KtlJQoEU4yLYygvftYbPCmxo644Uvar_v8Kb9RS53hB0tXgvV44GotrxZyu'
  lat: 40.098592
  level: 8
  lon: -88.251676
  name:  'Ruth and Fred Steigmann Plaque'
- ap: 6098
  img:  'http://lh3.ggpht.com/G1CvGhpethi5UmprDWxZN9rTblHa3anSsQz1UPgJtkREkfN7lDFoxFObst0609Cg5mofuZxJKr0ddNKhY4VL'
  lat: 40.098464
  level: 8
  lon: -88.251426
  name:  'Ruth Haasis Memorial'
- ap: 5722
  img:  'http://lh4.ggpht.com/DKqCX7ekIzT953BiW_t-Oe0jBg-GV5rCptYhvQqlLpQdaRpMxnNfMXekcxHT3XIhqCgskbqRwa-YofxMh71Q'
  lat: 40.090655
  level: 2
  lon: -88.289418
  name:  'Peter Taylor Lewis Baseball Field'
- ap: 5535
  img:  'http://lh6.ggpht.com/tEtHQ3gjXHp940OLn9txVBSOCdT8UfYUs3C29Cgx6HiCLrS3KBboU3Wms2rEVMQWEf7lf67xfK7MIUmimDw'
  lat: 40.116631
  level: 1
  lon: -88.247334
  name:  'Jack C. Richmond Lion''s Club Bench'
- ap: 5348
  img:  'http://lh4.ggpht.com/5E71LpfYxV2zsihdsTCShjy9NN6ksITFjXz6GSYwP8EKVJEuhrWOJKGGr6nfCT99QLgs4K6HHrqQn6ta1Vw'
  lat: 40.117349
  level: 3
  lon: -88.24917
  name:  'Ruth Whitney Memorial Plaque'
- ap: 5161
  img:  'http://lh4.ggpht.com/_jAAuDi8SO5uupi8JlB3HZaFG40S15izNv_3vqOt7ro2rRHuXrfdEKfEFvRESdAjCEz3RVDpyrxJGSIrju5d'
  lat: 40.117916
  level: 7
  lon: -88.243087
  name:  'Sholem Building'
- ap: 5161
  img:  'http://lh5.ggpht.com/C6wRSaEWO1NYGY5luyYZKHG3Z3aib4aflaPdV7B9G6N6adE890g3QuPRSvCUhsdFHqjoVUjo27mfz9WsjXyuhQ'
  lat: 40.100521
  level: 8
  lon: -88.250864
  name:  'Gabriel Patrick Maxeiner Memorial'
- ap: 5159
  img:  'http://lh3.ggpht.com/x5fBw8MRogV8dm3kPO5zKNkUrQxn0dM7d1PIoASdX1_Rc8H5Duex4iZdOoIlqazCGll25TmptsWIRq1JFmj6'
  lat: 40.112135
  level: 6
  lon: -88.225762
  name:  'Computer Based Education Plaque'
- ap: 4972
  img:  'http://lh3.ggpht.com/ROImDYnOqzAZ2JsC6d1BbHEDHBXtQwcT1EblsUkMVTN5M_E6B0WeKd76CdFWHsT-I6vOqYd46_0mo3qWslBI'
  lat: 40.09118
  level: 4
  lon: -88.29329
  name:  'Prayer for Peace'
- ap: 4972
  img:  'http://lh5.ggpht.com/dEeT4acpLu-WQFlZWd3psap5qAqqPTSVzm8Qt1QtpqtwZ0j1V9eKFcmpgN9K_x1PL4XVchuevw25rxHekz3tvQ'
  lat: 40.111968
  level: 5
  lon: -88.226793
  name:  'Bardeen Quad Structure'
- ap: 4785
  img:  'http://lh6.ggpht.com/hDt2TaWr_3Rxg4Ot6z4G0vCecWeK9M0gY7k4xNvazhxurVNbzjJQyYJcGFV025KR_YQ7X9F_9jS0q1-I_dtH'
  lat: 40.091552
  level: 3
  lon: -88.2924
  name:  'Samuel and Edith Alper Memorial'
- ap: 4785
  img:  'http://lh4.ggpht.com/W2chhQwPqSJEkl57NVoIL-OE4KFvJfp7Bsrrxza1apCYltcT3npz95LJxqHxvT9ZZu7wxF2gQy-5bpKal2p2'
  lat: 40.115838
  level: 5
  lon: -88.241338
  name:  'Illinois Terminal'
- ap: 4785
  img:  'http://lh6.ggpht.com/OWQz-aJYDevguvgr_HtCYk7ccylYLM1bFU42TK9OJxuZWDA87pAsmcMf1amsxh5EagspcAj7Gf4_ZFeTJSf2'
  lat: 40.117754
  level: 6
  lon: -88.241676
  name:  'Jos. Kuhn and Co. Building'
- ap: 4598
  img:  'http://lh6.ggpht.com/duOeXcOSQLWosdD0JJXg3pWWQp4t5sL0x9qDHoTIBFNOzEW0t53Lt2cnwgV2E_Su0l1ajIQxPtVbbK_sDRaS'
  lat: 40.141775
  level: 5
  lon: -88.242671
  name:  'Marketplace Mall Fountain'
- ap: 4598
  img:  'http://lh6.ggpht.com/POBAhJlStu1uLv82RPSkd8lKQyojPByrKqAwgiZPyXTHQcNTCN7rkJM376YcVpMmZZVMgiXz9J1BXanexyA643e-FR9M70tksLdb1akPUe2Ra_xCyw'
  lat: 40.112411
  level: 6
  lon: -88.226875
  name:  'Grainger Engineering Library - William W. Grainger Medallion'
- ap: 4598
  img:  'http://lh6.ggpht.com/RW34ntixvJkg7fD71TPYo_4KIsBzA0-a-6yXO0jKPbpGxX5gIGC7kBI-pXEF9OHhuolcAGW2fxyK3Pt42Iev'
  lat: 40.110489
  level: 5
  lon: -88.227412
  name:  'Bus Stop - Illini Union, Westbound'
- ap: 4411
  img:  'http://lh5.ggpht.com/nWEtxuKQdy0teBBue1DYmG7P3SF5-3A6zlB7GwVHBWlolAZYGq6Br78lWcF9ltFy-KeSlozXie2RmU6JfCUX'
  lat: 40.142673
  level: 6
  lon: -88.244603
  name:  'Italian Statue'
- ap: 4411
  img:  'http://lh6.ggpht.com/cZVUlNaHjfsB6Lu5hnj8JjUk4lvsgOV7DFz4Nl47-RaQObW1VPRpos6hTDD6WgYrNxCh9UKfn5DFU-K7lRe9pQ'
  lat: 40.1164
  level: 7
  lon: -88.242747
  name:  'Sidewalk Art'
- ap: 4411
  img:  'http://lh6.ggpht.com/cnBQN3RYcZFSdxYB52bvMYRD2aTSlDG0_cqBQ8coo0ueKTtGxldE0xGjNPF6xlYJtnba8oUyEKwBeYbO8CY5'
  lat: 40.116631
  level: 1
  lon: -88.246951
  name:  'Lyle Blue Memorial'
- ap: 4411
  img:  'http://lh6.ggpht.com/NXptd9bdifQT6cVxz-SPGUsryPaznp8rV3omDk0J50MnN5Mmu6oiYNa0FXIgG8FnFreUVsSPzRvQNZXYcO6G'
  lat: 40.11817
  level: 1
  lon: -88.249381
  name:  'Bicentennial Tree'
- ap: 4411
  img:  'http://lh4.ggpht.com/MvwoDsxwfyNLHzfGkFJl-4VFeX7OvqB0hsMCrZ2D9Olh8GSghAJDfFfDh7a7cOtMIGwEDMyesZoKvKCXAGj4'
  lat: 40.116553
  level: 7
  lon: -88.242268
  name:  'Esquire Lounge'
- ap: 4411
  img:  'http://lh3.ggpht.com/hBux3yLZOMWBK1dtc47OrhISfV3SPojGgtZOxqqf7-yoc82f280WMG1r2mi43iZQsqfwzmN53VJHHHEFVs0'
  lat: 40.116458
  level: 1
  lon: -88.247065
  name:  'West Side Park Entrance'
- ap: 4411
  img:  'http://lh6.ggpht.com/5NJ7qgqdGdq2TNgKDadFhTo4SudsgsHoSbhrgyc2axnUeV_4VOo4bzyr40gIwc1T_AvyH47lClwrz_V8Mtg'
  lat: 40.117008
  level: 3
  lon: -88.249287
  name:  'Terry R Bilbrey Memorial Bench'
- ap: 4411
  img:  'http://lh4.ggpht.com/mlUN5QXAR7rKFvUg7yhxcae3udkR7zCJVaWt5sq_YA47piV6tRi42RNN9fEtT_FafT7lhqg26WM1VETbz5E'
  lat: 40.098239
  level: 5
  lon: -88.25376
  name:  'Hessel Park Christian Reformed Church'
- ap: 4411
  img:  'http://lh5.ggpht.com/ENeQgqydWbi9-Oyf7vizunoRqJdsZV4o0RA_956wjGI8hqpTCHBPyWMpbTrrkwYpj5tgzDRvevGmvH4eFRU'
  lat: 40.099593
  level: 8
  lon: -88.251724
  name:  'Blessings from Devon Elaine Cattell'
- ap: 4411
  img:  'http://lh4.ggpht.com/RF7EbCh1YRbFHfis_PEc88NF1v4Ndhj-Rm7rrlY7F8s-Mrv1EMEFnajFbYiNffZ_3kMNL80Zv-_jtaMYMtLA'
  lat: 40.110655
  level: 4
  lon: -88.22725
  name:  'Gothic Brass'
- ap: 3848
  img:  'http://lh6.ggpht.com/_k_xJSt6mwst9haWnz5tw__yVrH9BLFSKnCMCEw9V271FMTnmEoDA4E6HprjvPTSiaBeKZmxdG3waPIapBMa'
  lat: 40.125369
  level: 2
  lon: -88.250074
  name:  'Mini Park VIII'
- ap: 3848
  img:  'http://lh5.ggpht.com/v26lJtVx6k_bS8UIv0cuwFV2H-bR_kPwjkydaZjqk7BOG1VyLpoQFvuFB7ZmKZpWB_uCHi70HLzZoI4xZgo1'
  lat: 40.116491
  level: 1
  lon: -88.246701
  name:  'Emmanuel Memorial Episcopal Church'
- ap: 3848
  img:  'http://lh3.googleusercontent.com/NRpdP-ebGuykq3sH1NZBQVjhmSdVJW3F4MTCRdXrWKQf3Z5dBgo0Phhyqnel5IrJmriQRmJNFR12lRDrjxJ9'
  lat: 40.114911
  level: 6
  lon: -88.227781
  name:  'Electrical & Computer Engineering Building'
- ap: 3848
  img:  'http://lh5.ggpht.com/f710C9AvOEB7ieCI4f382wWUP4OgDxiqPzbxqxct6Ugf2PWBfyXyDpG_JcRQ6PaZ_jS0jpXXBhNSt_u9rFA'
  lat: 40.113864
  level: 7
  lon: -88.224839
  name:  'Plato: A Social Networking Revolution Begins'
- ap: 3848
  img:  'http://lh5.ggpht.com/NUOCD82iNRGW1NGqEC4FKet1u5_cm4WRNc2c9_YABAjGf6-OSCLz7HgYkP1ZuVAbpMl6Qi10HRW16Oc9jNM2'
  lat: 40.106401
  level: 5
  lon: -88.236182
  name:  'Washington Park'
- ap: 3661
  img: http://i.imgur.com/5j1qaiT.png
  lat: 40.360306
  level: '?'
  lon: -88.431268
  name:  '26ffbb1778974e99a93bb874fcb6c57c.12'
- ap: 3661
  img:  'http://lh4.ggpht.com/Oy0NzvODUpd5270gnNUQqxf4w1YUNzMwDdncW6PvKUb3y_ptImObTW3rbbHp_OYEUKTR37L61q3yuYr1GRSV'
  lat: 40.090259
  level: 3
  lon: -88.295024
  name:  'Robeson Park'
- ap: 3661
  img:  'http://lh3.googleusercontent.com/hJZWoErzM-MuXulq4FlhlZwMbJX1Isd81GBUBVKayd57jVIVxUle3itd-1DRKo2VaNXznWr1X639fa44Etk'
  lat: 40.141919
  level: 6
  lon: -88.244611
  name:  'Marketplace Mall Carousel'
- ap: 3661
  img:  'http://lh4.ggpht.com/xS51--rXA9M_IHpXWgFQxKZU-YbD-1zk-nug6k7RyKl8rYeam_YFwMmLNWRRHHzI-rOTGyhTJQQ314WudSQJ'
  lat: 40.117132
  level: 6
  lon: -88.243009
  name:  'Fountain in the Alley'
- ap: 3474
  img: http://i.imgur.com/5j1qaiT.png
  lat: 40.273821
  level: '?'
  lon: -88.676394
  name:  'Blue Star Highway Memorial'
- ap: 3474
  img: http://i.imgur.com/5j1qaiT.png
  lat: 40.272743
  level: '?'
  lon: -88.675349
  name:  'Adams Leaning Wheel Grader'
- ap: 3474
  img:  'http://lh6.ggpht.com/y8bCBS3MGLa3XKiu6GIpVpygQ-RMlVpx9JsDGQx9PFP_EnpG9-XdSln0ZWMphq6YLmE6DSL0VsWnN9PpaHCYrA'
  lat: 40.091003
  level: 2
  lon: -88.290142
  name:  'Jim Harry Memorial Plaque'
- ap: 3474
  img:  'http://lh3.ggpht.com/07XrBN-er6Ecleor0n9RJ4DfGO6B2yn-ZxjI-Uy8Ba46Jtb6cXNVmATPiPiGyk-1jZ4wxa7-EeIWbWUqArCG'
  lat: 40.142554
  level: 6
  lon: -88.243468
  name:  'Dog Heart'
- ap: 3474
  img:  'http://lh4.ggpht.com/IAi2A1ukQunZaoCY1OUJnvZC_MAEjnYzlg7vcsIuPQyLIB710_5ueVQ3El8Pok0aNvlB18-Tdo1euhYbaf0'
  lat: 40.115224
  level: 1
  lon: -88.24957
  name:  'Linda M. Wesolowski Memorial Sign'
- ap: 3474
  img:  'http://lh6.ggpht.com/rGhR45ZFbHtxmrZSSy9V19eFoyHIDB42c6MK188isPJFWpUsW9ywNHayKt3acNvKNC8DAV6mDkUloj3aiS4'
  lat: 40.118422
  level: 5
  lon: -88.24346
  name:  'Entrance'
- ap: 3249
  img:  'http://lh4.ggpht.com/CZA6uXTYgSkrccw1vqf6XFlfkzl6I7Rj79GOKIYGvd1Zem8O1u-opoJu65ma2eHnKdfysF0mOVGzc_am2Ns'
  lat: 40.110623
  level: 3
  lon: -88.22799
  name:  'Eta Kappa Nu Plaque'
- ap: 3474
  img:  'http://lh4.ggpht.com/hJDi8J7CZU-933hT0Culp2nhslv6p8rDRPdTFz6FwNaAjB5CmfkaQzj9sM--E-QBvI8yvIJn1F2jxy7ZKWlh'
  lat: 40.10816
  level: 4
  lon: -88.234245
  name:  'Stratford House'
- ap: 3474
  img:  'http://lh4.ggpht.com/OFVPvdgB3GVpaQknHdnt2okgP3xcQksAH3wvOGYVuP85MMlxo3bQ2SRpBb0hzNfjQoC_5LlRqaE6jLB-h9Gr'
  lat: 40.108092
  level: 4
  lon: -88.234589
  name:  'Koinonia Plaque'
- ap: 2911
  img: http://i.imgur.com/5j1qaiT.png
  lat: 42.767852
  level: '?'
  lon: -86.202976
  name:  '008ad68521fa4a23bf7a536bf812ed37.16'
- ap: 2911
  img:  'http://lh3.ggpht.com/swF7asGHDD1L9hslewSBg2z-tocpd_HXkIYuOmz739SWxCj8KBqf-kcOPOFPoE8pLXKDxR6Z8jAJ8Kx7Fbnc'
  lat: 40.089334
  level: 6
  lon: -88.253652
  name:  'Mattis Park'
- ap: 2724
  img: http://i.imgur.com/5j1qaiT.png
  lat: 40.451766
  level: '?'
  lon: -88.117878
  name:  'd6cfe09ebcf44ee09b8cbc7b26c3a6c5.16'
- ap: 2724
  img: http://i.imgur.com/5j1qaiT.png
  lat: 40.33555
  level: '?'
  lon: -88.998923
  name:  '4c96398791b2462a8252b7bdba0ab9a2.16'
- ap: 2724
  img:  'http://lh5.ggpht.com/TwKxvDv1ImbH5RTs7GHqqK_rPohVtqtgToH7YuDkkwa5BRFiMEcY1vWcFrJLkhaXW6cd2YVL0_Vro2JaA3K1'
  lat: 40.131575
  level: 3
  lon: -88.314062
  name:  'Mark L. Rambow Memorial'
- ap: 2724
  img:  'http://lh3.ggpht.com/dBN6P2wGkcXj-MNbPjAJzN-RxmK93xRIhp29sZ6-ZmsbFoey4dGO51tP1FIFCzHjs4CIhHd-xGmflcW43R0w'
  lat: 40.10604
  level: 5
  lon: -88.224625
  name:  'Asian American Culture Center'
- ap: 2537
  img: http://i.imgur.com/5j1qaiT.png
  lat: 41.891383
  level: '?'
  lon: -87.610138
  name:  '8490a15bbc6d40e68d80c7d9626f193c.16'
- ap: 2537
  img: http://i.imgur.com/5j1qaiT.png
  lat: 40.249798
  level: '?'
  lon: -88.647432
  name:  'cc8cbfe6a5f84788b724eeb75535077b.16'
- ap: 2537
  img: http://i.imgur.com/5j1qaiT.png
  lat: 40.211585
  level: '?'
  lon: -88.506353
  name:  'Mansfield Post Office'
- ap: 2537
  img: http://i.imgur.com/5j1qaiT.png
  lat: 44.607633
  level: '?'
  lon: -87.43205
  name:  '8e6a8255e7c342e8806313a728bf9918.12'
- ap: 2537
  img: http://i.imgur.com/5j1qaiT.png
  lat: 42.769142
  level: '?'
  lon: -86.197611
  name:  '2b382313227b40238d957e6440d07902.12'
- ap: 2537
  img: http://i.imgur.com/5j1qaiT.png
  lat: 40.361766
  level: '?'
  lon: -88.429109
  name:  'Foosland Village Park'
- ap: 2537
  img: http://i.imgur.com/5j1qaiT.png
  lat: 41.89196
  level: '?'
  lon: -87.609818
  name:  '9751404135d14a20835126ddf4d017dc.16'
- ap: 2537
  img:  'http://lh3.ggpht.com/4NvHbplhArQJrKIkJMw4Ia0q_OtktXP-jC6FtPlgn6V49hv8LJbu0RC2ff0eTy3bF3ihXL12v5CPGwvlRNBF'
  lat: 40.127538
  level: 5
  lon: -88.199119
  name:  'Perkins Historical Site'
- ap: 2537
  img:  'http://lh3.googleusercontent.com/GDPeCcTdJQAFt7LgbquPo-YOAp7bq5HCFbElMBeXztI4hraTGO-j1GcNOwKaaSRRLcEHG13Gu-VDboEG4a7-'
  lat: 40.149097
  level: 5
  lon: -88.276148
  name:  'Illinois Heartland Library System'
- ap: 2537
  img: http://i.imgur.com/5j1qaiT.png
  lat: 41.892269
  level: '?'
  lon: -87.609873
  name:  '93a1b13c02d04db99ebaf46f118bef83.16'
- ap: 2537
  img:  'http://lh3.ggpht.com/j0Yx7yuvUTJbnHtY38VFaty8xpyZMMDS_bSmvbHQx_2nQBiLqF4PGpLNdTGXkRgA3-OANQgASvn1mPGcuJi6HA'
  lat: 40.131715
  level: 4
  lon: -88.31369
  name:  'Mark L. Rambow Tree'
- ap: 2537
  img:  'http://lh5.ggpht.com/ek0AuIkZd5CWKmIdjFjq5gOvptOzC8VJUnyatNG8ZyUoT8-mvkd4seW8Gpbl4kkgiatIbr57h5kK_5z6NSGD'
  lat: 40.131581
  level: 4
  lon: -88.312816
  name:  'Sunset Ridge Park'
- ap: 2537
  img:  'http://lh3.ggpht.com/NgusMNa_MQJauBXm1lCWXnmzNqo5-TB-ihUlPa_vaI83WESAp8ChhEVR7KuBr_Na2-hzlLU7AB_STTq1gu7cwQ'
  lat: 40.112585
  level: 6
  lon: -88.271575
  name:  'Bobo''s Barbecue'
- ap: 2537
  img:  'http://lh3.googleusercontent.com/ryRMzj5c3ls-s5Gocd2-IM_oonInNzjPIbCGJVps6JmZxYcG165NabHKNZW7wAepNc8rtLf3A3E0U1mbq-I'
  lat: 40.11251
  level: 6
  lon: -88.272358
  name:  'Circle K 1601 W. Springfield Ave.'
- ap: 2537
  img:  'http://lh4.ggpht.com/xre1t2f9ZP_FkCsL4RhaTps0qWFo56BMvVamDTfFXffFNzsjinSlYX2dUWrt--btr9chdUOA2-IhLNAUoGrF'
  lat: 40.121085
  level: 4
  lon: -88.281892
  name:  'Fluid Event Center'
- ap: 2537
  img:  'http://lh3.ggpht.com/dsNN93gNM_ydYYk-e1TxgiR0TsjQBuvo8xGw4fM7AhM-Ly-9fW4bho-pqTQCVZ5laYhSI1EsLgj7lM7nEK99'
  lat: 40.121656
  level: 4
  lon: -88.281868
  name:  'Greenbelt Connector Trail'
- ap: 2537
  img:  'http://lh4.ggpht.com/rQD_MUFUx5IX5GhvurUrhiG2rCDy2Aiq_hvzN0YySpYA9cIb_aEAyBhyeFhFL7B0LdpEAAIDkqGcOv4wsVM2'
  lat: 40.077891
  level: 6
  lon: -88.259583
  name:  'Noel Park'
- ap: 2537
  img:  'http://lh5.ggpht.com/tuo_ByFTbwLitFP5cBseOibqRxENxbCwOJ30dCnja5ijBI_qBv5vqNP7ZuZXnxhYM6ms_GbExZEwwKVUtwV2'
  lat: 40.093712
  level: 6
  lon: -88.281583
  name:  'Brownfield Dedication'
- ap: 2537
  img:  'http://lh6.ggpht.com/p2F3xw4xL4UdiMM9aSy628ISSglrvjPexpF3j340tMAP9MX07yh_sJv7kHVkeud8lyFf2ZwDohw3zsRS2PSd'
  lat: 40.093914
  level: 6
  lon: -88.281531
  name:  'Terry M. Warmbier Memorial'
- ap: 2537
  img:  'http://lh4.ggpht.com/tLO2wjyCgyune3KDOlQMV_oiDRxVsHqO1gAG_0xs9TvKOiuWRVmJcO29WI7jELxoxncaXpy91kMa89Uj65JVNw'
  lat: 40.11784
  level: 6
  lon: -88.24286
  name:  'Kaufman Memorial'
- ap: 2537
  img:  'http://lh3.googleusercontent.com/zcTaX3OHcGZu7CzBV1HvsKtB5RiAW7oMwxS_7phps0tjr70eNr8xbxrJ_P6agi_uXJtMNdHPnks9rZcrR6mG'
  lat: 40.127267
  level: 4
  lon: -88.253451
  name:  'Champaign Fire Department'
- ap: 2537
  img:  'http://lh6.ggpht.com/eeOtj4-6PU8Dt6QXk_TJjgkoEGRW9L8YzUqZE8QV5ZMCHnqA5CzoQoxKpnjCvXwaIflUUvPJmO_S7BdvMhcuzw'
  lat: 40.117588
  level: 5
  lon: -88.241787
  name:  'Adam & Eve Mourning Over the Soul of Abel'
- ap: 2537
  img:  'http://lh3.ggpht.com/qWqDj3Ws5ffRyIXG8XxFM41dBDTOBhjCkDgKebjiDFo-5Fyj_ssgLQ_wLM82uWwB2jVkNIYN4nc5U2E3wZoBNQ'
  lat: 40.111037
  level: 6
  lon: -88.245813
  name:  'Champaign Public Library'
- ap: 2537
  img:  'http://lh3.googleusercontent.com/tWUxy7KQ-q_qBBIgLzTjjezrBpWPSJ_z3FWnvbB8Y5wIiYZW1I5ioL0Tzq60VyalCaIwOk4UI3agM8tFaykY'
  lat: 40.117427
  level: 6
  lon: -88.243235
  name:  'Cowboy Monkey'
- ap: 2537
  img:  'http://lh3.ggpht.com/ahylfFHnKd7tl8EDQopVPlqhdiJblx_p3TWsELUFACXM_9qS9N8agb-ypr7EOOemNFMUrRGaUQ23LY6F1ssb'
  lat: 40.095094
  level: 6
  lon: -88.257764
  name:  'Faith United Methodist Church'
- ap: 2537
  img:  'http://lh4.ggpht.com/vUhKhmK0pteJi8_0n25xIa4EpgpVSS432OxXv1UQBDLjju5SEGcm_2WWl99OUPtDyNLlXirJu--KDbCoYjM'
  lat: 40.08956
  level: 6
  lon: -88.257733
  name:  'Good Shepherd Lutheran Church'
- ap: 2312
  img:  'http://lh4.ggpht.com/DTGKMEvXrKSLJVBZP6bN7EF-DMHt5l_x3o-C-Ln0FjrGCQcTdcLNaZDI2_OCwEzuqgh8HyyqJwyQkc4-0H8g'
  lat: 40.106037
  level: 3
  lon: -88.226237
  name:  'Triplets'
- ap: 2537
  img:  'http://lh4.ggpht.com/CuRKYla63wCvLaTdKqGMMAd1Mr0_HK3v2iQjltrJwmsOownFtry6TsHMkAeHmOP6ULUYA53u4MUP61rgLzs6'
  lat: 40.1097
  level: 5
  lon: -88.228059
  name:  'Liza Kotz Memorial Plaque'
- ap: 2537
  img:  'http://lh4.ggpht.com/zZ2YpVpDiI1KdIQ9iI7mGJD_VtwFztJ4ZF1vRehD9OSnQ2K3433SIg22svwcqDJVfeO2fjE3fdT4eHAJWGpi'
  lat: 40.104339
  level: 6
  lon: -88.234788
  name:  'Pi Kappa Phi Fraternity'
- ap: 2462
  img:  'http://lh6.ggpht.com/cUV2o6ZPyJSFnHYl7jePeUIS7BrVr1H5D8Zbf7B3B8ALrTq7pTI3e271i1DHztqUGXITpiA399P3vNP83fk0'
  lat: 40.105767
  level: 5
  lon: -88.223378
  name:  'Busey Hall'
- ap: 2537
  img:  'http://lh5.ggpht.com/k_9eqZVvGcr3ZNyeeSNDM1-Y7od35KmnQQptB9usrdpTdpGW2c_5-12rYy9hGazdx7qhlYrEXxaJ_ZIVFywlcA'
  lat: 40.106706
  level: 5
  lon: -88.232116
  name:  'Illini Tower'
- ap: 2162
  img:  'http://lh3.ggpht.com/LR76HrJqriPFUoc2XSs7jb2SotnStZv20kI7rgUx8B5HqhmetnTW4MA1tCp1ws4g5gw0sf9g7M3Lwq4VwfpD'
  lat: 40.111687
  level: 2
  lon: -88.225353
  name:  'Transportation Building - University Of Illinois'
