- ap: 12470
  img:  'http://lh6.ggpht.com/yjfa0jJLjsfLRf9Zn9iafMp3MuIhgCi0WiOCF8GqTGiGvzEnsPGrFa0H1n-uzWhVehLbt44ShthsA32VzHd5iQ'
  lat: 40.099737
  level: 8
  lon: -88.251157
  name:  'Tyler Van Atkins Memorial'
- ap: 12468
  img:  'http://lh3.ggpht.com/lSr_gDGX9o1BHZX9FUPCKAO2VVQjZ_NwTBaSNhNgjVyJ2p6BnLDByC_vIkhu637-W5nKMW2SShi0gXOlXNqY7A'
  lat: 40.097979
  level: 8
  lon: -88.247785
  name:  'Jarling''s Custard Cup'
- ap: 11718
  img:  'http://lh6.ggpht.com/f3cOUn1gqLkJZQzs4-Y9j6j2ZXbb1Kmzf3klCFzF8zmFSlZZ-B6O4-5t1KIX95jbYUjeqMgOohEf1ilF75Uqyw'
  lat: 40.132777
  level: 7
  lon: -88.287351
  name:  'Parkland College Prairie Restoration Reserve'
- ap: 11342
  img:  'http://lh4.ggpht.com/mlUN5QXAR7rKFvUg7yhxcae3udkR7zCJVaWt5sq_YA47piV6tRi42RNN9fEtT_FafT7lhqg26WM1VETbz5E'
  lat: 40.098239
  level: 7
  lon: -88.25376
  name:  'Hessel Park Christian Reformed Church'
- ap: 10968
  img:  'http://lh3.googleusercontent.com/enpZZ8JRREFPTvYd3jbeUlpS-mmcwKe5fsvoWRPkfMUj6PijyI-5tbR55UItBoNJAFSl9fAAOvXb6BpWCJT4'
  lat: 40.102495
  level: 8
  lon: -88.242132
  name:  'Nuclear Physics Lab'
- ap: 10781
  img:  'http://lh5.ggpht.com/Q32BPmFRIQYqXI5gLOV9ifHvFlGdyD_yws2172-sHnSZ-StunhCM0Abqd9rBWSaKBWN7RPpa1h-nok4Mc23i'
  lat: 40.101062
  level: 8
  lon: -88.249275
  name:  'Narayan & Shanti Achanta Memorial Plaque'
- ap: 10407
  img:  'http://lh6.ggpht.com/ea6HxAw7m0OhhPqJJkZR9u60pR1sab_JdxaOyEltqmQd-63FFJzPY72jEnu08g9Gcjjj5cf3jyyS_M1E7OIbfg'
  lat: 40.11616
  level: 6
  lon: -88.241422
  name:  'It''s A Mistree'
- ap: 10031
  img:  'http://lh5.ggpht.com/oCw3ZC6UKF3aiK6dkbz72dhzUsJNhOmfVjVsXJET_YP5e1p53pLTa8Dep24gLqeY9FghWE0kaAB64vvn7nq0'
  lat: 40.105008
  level: 8
  lon: -88.243265
  name:  'McCollum Park Peacock'
- ap: 10031
  img:  'http://lh3.googleusercontent.com/vJ_iyOb44eFzOJUNpRouOPDI8rKgOESn7TWw9U9BR3OcWsb6Oak-SSfVH4iPPmtXJdk30rqet1D0KxVohiBC'
  lat: 40.114712
  level: 7
  lon: -88.238392
  name:  'Mexico Mural'
- ap: 9846
  img:  'http://lh3.ggpht.com/rUgM7jkTqL0VHxvsSW0yWuNJF5UrU62ITflghfn4PfKjn6L4WGz0ALkv98fc_q9dmK9SSpU1PXIawGvcRwE'
  lat: 40.098246
  level: 8
  lon: -88.251974
  name:  'Hessel Park'
- ap: 9846
  img:  'http://lh5.ggpht.com/aeGh3iXJqJ7skg-2JHEpngMSfcp1qDIEPoLMxzQNqbS5Y7HcxN7oE789bXiVFoFIcdCn7-3AhLPtxT_WE2E'
  lat: 40.0985
  level: 8
  lon: -88.248681
  name:  'Siti Sculpture'
- ap: 9659
  img:  'http://lh6.ggpht.com/5CDidk0pqfUtSW_Yqouuf3diX8drdMu9DoT728QpSz8q6A-WxNhT0yLcgM_7gGpyIAeXrHiTkIzzaVJFgnN9WA'
  lat: 40.099852
  level: 8
  lon: -88.251947
  name:  'Our Friend Tim Palmer'
- ap: 9470
  img:  'http://lh5.ggpht.com/hjAc940kWyt9QT4G_BJyJKaTef3jL_Njnm8ubUtQD7u6qVsD9_7TiJbgZpKeqAv60kNw8FYspVxkn-Bt1cxYBw'
  lat: 40.109959
  level: 8
  lon: -88.24318
  name:  'Mini Park II Sculpture'
- ap: 9283
  img:  'http://lh4.ggpht.com/HEEvU2OlgWiV5huAu3cvNKaI-C8YKYTO3qB8WMTO7EbsjTO84KS6jLjbGCq7THZq6l63UiUKCSEqY2IADYns'
  lat: 40.091766
  level: 6
  lon: -88.250003
  name:  '"The Cranes" at Fox Corporate Center'
- ap: 8909
  img:  'http://lh6.ggpht.com/YdeB0EKlsopL39a9YXWj4JBZgXNNLWHgfe4PQzdpWCNWc0fR1YTj8WjARDHnmrusvKWTqKLcGg8U9frhtsw'
  lat: 40.09821
  level: 8
  lon: -88.249879
  name:  'Hessel Park'
- ap: 8909
  img:  'http://lh3.ggpht.com/VLipBehsKPCp8ewQnBV1ZCz7uE75zcY46iGDyFfFHgX1o55t3DONb3wcBcL5RMYSqABRK0TgIW3DluNy8y6WaA'
  lat: 40.101131
  level: 8
  lon: -88.250539
  name:  'Hessel Park'
- ap: 8909
  img:  'http://lh5.ggpht.com/q-mJ2EvrjGn2PfbBh3Pl3XIGUyzTqxGjZmTMhn3k9_2Qi0S2hs3k2ZvpKb4kvt60AXHiyQdxqft5ZecPcg7x'
  lat: 40.098959
  level: 8
  lon: -88.250141
  name:  'Bob and Wilma Tinkham'
- ap: 8909
  img:  'http://lh3.ggpht.com/KzADjdPRAvwycpfTBdAeDwFJ0AxZJG2dPmbPWkXq55QLV9PfpJ_-DsXWIlVgsISUApRdJ5cAxRWx0k0W2hI'
  lat: 40.09979
  level: 8
  lon: -88.249107
  name:  'Jerome Cook Memorial'
- ap: 8909
  img:  'http://lh3.ggpht.com/GXyi2ghi2DR3h7uIHNYiEZPYixRhDo7LO0WHQ0PyEzb-150r7ar7JGeVjUoPuObC-GFWf22UWqnYCMtED0M-'
  lat: 40.100341
  level: 8
  lon: -88.249937
  name:  'Alice Marie Weber Plaque'
- ap: 8722
  img:  'http://lh6.ggpht.com/qSCp5fQMlyCQ-GOAgiSFy5gaHJei705Pa3eOlJiYO5wGjZTYtjA8q7QWWfAWcLKjxZSaFiMfXOPR8SO7rWU'
  lat: 40.099353
  level: 8
  lon: -88.251876
  name:  'Raymond B. Cattell Memorial'
- ap: 8720
  img:  'http://lh5.ggpht.com/THzk1iE4eBFdHkEgW_OGBWS54BbJw46faUZQS1Ad_IROHGgmVaXrphXJuL1O8N9k4G8_jaDT4P9tmLxMNi0W'
  lat: 40.131713
  level: 7
  lon: -88.29276
  name:  'Campus Solar System - Sun'
- ap: 8346
  img:  'http://lh5.ggpht.com/Sgu5qG2Ltp9axQc8nEr3fJ_qvNo6-gwd5TuKMrk2LM9d5P7DDy0oCoWiGnr6Ybp84FGMh9DQYLnFtBTZtBIm'
  lat: 40.113606
  level: 8
  lon: -88.243766
  name:  'Mural on South Neil St.'
- ap: 8346
  img:  'http://lh5.ggpht.com/tfAfnmo6mSMc6U0P533NMFJRGwn6lasmx-MLR2JJg1QOizMKkghFU8E7hb2zgYgdQEbgnCJUlvZIMdrrJe4'
  lat: 40.100822
  level: 7
  lon: -88.25193
  name:  'Seeds of Kindness Bench'
- ap: 8159
  img:  'http://lh4.ggpht.com/Gyz7BDhWdUinBQfD8duByX5-aBgPmB9oSesH20dH8uGJnTiaIHkeRJARtH6YQUUD5A5X2IjPTlT989AfutNc'
  lat: 40.092773
  level: 6
  lon: -88.250951
  name:  'William C. Fox Waterway'
- ap: 7972
  img:  'http://lh3.ggpht.com/NfRR7PyM2-UNoQGKgRsf6sUZdUTMp0sWqha9caVs49hYb0AnT9OznQX0dQGxKJNP6KiHWJ0WRUMSQh1m4-rwvg'
  lat: 40.117976
  level: 8
  lon: -88.245082
  name:  'Robeson Building '
- ap: 7972
  img:  'http://lh5.ggpht.com/fDRifvVcFT_dKhPuNBN4rR9lNHL0Q6NvbMnGr2-ZdiirR2rJrBcWRi4vyM3-DYNHymUs7bWchaWRaUtBpg'
  lat: 40.098541
  level: 8
  lon: -88.250389
  name:  'Dennis Robert Costello Memorial'
- ap: 7972
  img:  'http://lh3.ggpht.com/lzCSS0_tjwUV7JQ2fgLI0e05IrzPxlVUs-6aEPOwUv67IanQJSTi71gkw0SGm8asmoE_r3Xoh048Fd9xRpE'
  lat: 40.099169
  level: 8
  lon: -88.251419
  name:  'Lyman Larson Memorial'
- ap: 7972
  img:  'http://lh3.ggpht.com/G1CvGhpethi5UmprDWxZN9rTblHa3anSsQz1UPgJtkREkfN7lDFoxFObst0609Cg5mofuZxJKr0ddNKhY4VL'
  lat: 40.098464
  level: 8
  lon: -88.251426
  name:  'Ruth Haasis Memorial'
- ap: 7972
  img:  'http://lh3.ggpht.com/sisvfsphxy7AK_2qrrqb7lNJk3_7ciHSVJyodINYITBc-UqugyNOooCxKupgJKEg5m_x95eZwouSO2WCmN60ew'
  lat: 40.098579
  level: 8
  lon: -88.249603
  name:  'Chef Ra Memorial Plaque'
- ap: 7972
  img:  'http://lh4.ggpht.com/PHV-1ZpFzCAl_ViCKwBY_x2pIDbVyaT7wJH1sTvFJCxrSdRrO1x7NaXq9OdRGwz_Mls4iwk6wuGHMBArfV54'
  lat: 40.098688
  level: 8
  lon: -88.25063
  name:  '"New Holland Yellow Dinosaurs" at Hessel Park'
- ap: 7972
  img:  'http://lh5.ggpht.com/T0WLAJf0s4nu2Phxax31eu6pO6zNoA4JpvHMLyfMKttzJALEWB8EAWOziQwgjdWE3YjBbG1XjGYsgihqCSX9'
  lat: 40.100414
  level: 8
  lon: -88.249061
  name:  'Randy William Auteberry Memorial'
- ap: 7972
  img:  'http://lh5.ggpht.com/4DJAFPeZ_w65Km7VDnsbOqouQaeBuPuxA0KHPQToT_B6o1hBxzdu3kn89UhHgv22Ygj52Fx9QqcbzOytuw'
  lat: 40.100078
  level: 8
  lon: -88.250683
  name:  'Brian Clark Memorial Plaque'
- ap: 7972
  img:  'http://lh6.ggpht.com/BKeORacgeVrG8XzxTuXmpq5UxomWpK-I2n7Xy0PVbdSciNx9MJl869TcibnFIiV5PJHGv5R3QOpX6ZgLUwU'
  lat: 40.099706
  level: 8
  lon: -88.250065
  name:  'Lois Barham Memorial Tree'
- ap: 7972
  img:  'http://lh5.ggpht.com/yEiiHAgbSW12_Cpdb0_ksVrjWt6yb6BFtEwm3wjzPJN68wl0QhkI_oaTXxM__Dud8x9jZitaHmpZHZNxDHrD'
  lat: 40.099056
  level: 8
  lon: -88.249136
  name:  '"Cricket" and Bob Barger Memorial'
- ap: 7970
  img:  'http://lh5.ggpht.com/BoAN9OSCH5u7G1sestzZaXjjik82i-SteF6-r5KTTyl530q9H5G3ibjJdqpGGY-nL8MypRXn2twwvn_y5nMmug'
  lat: 40.133159
  level: 7
  lon: -88.28778
  name:  'Campus Solar System - Saturn'
- ap: 7970
  img:  'http://lh5.ggpht.com/wX6-mbTE7nT00T6ildapKbI5ZrnhPIt4l91DhMseyo3GYFrgQIuqbjh8ntZY6NxGZ-qa6fKWlyoBOPdIdNIt'
  lat: 40.114653
  level: 6
  lon: -88.243729
  name:  'The Phoenix'
- ap: 7968
  img:  'http://lh5.ggpht.com/9XV46K2cUd84oc6HPyqlj53LKJS8lVs0f0gPHSCBkkTwiHaxivu36dlAj5M38EzK-2U4xhvZJ7AiVvGM5yk'
  lat: 40.118175
  level: 8
  lon: -88.244562
  name:  'The Russell Building'
- ap: 7596
  img:  'http://lh6.ggpht.com/NMgUdPOdhvhvKZh7ugwXgybshZBZ2mkaEWMNKYdFPX6cfIYENSCqE9YpAXSNVuq_9VVWXJB-ShCBAPfF2Yvs'
  lat: 40.102513
  level: 8
  lon: -88.243679
  name:  'Robert Hosier Memorial Garden'
- ap: 7596
  img: http://i.imgur.com/5j1qaiT.png
  lat: 40.203752
  level: '?'
  lon: -88.38859
  name:  'Covered Bridge Bike Trail Entrance'
- ap: 7594
  img:  'http://lh3.ggpht.com/AflEYleLSbb1ODQvIdBOrTrq1Zkk-rgHU4WaHjaZ6Md2zDSaqq8cERAJWcwG1QFkrzGf6gp3oC-DZuLOCDb4'
  lat: 40.112779
  level: 8
  lon: -88.239045
  name:  'Layalina Mediterranean Grill'
- ap: 7594
  img:  'http://lh3.ggpht.com/A87H2Ev-nSq_HCpnUCxDLdRG04MKhj9Uap_0Ii4kdUx_db5SwcKhAAOey5ls43XiDLYaw7uYymdNMcsAXfNo'
  lat: 40.106182
  level: 6
  lon: -88.235521
  name:  'Evans Scholars'
- ap: 7409
  img:  'http://lh5.ggpht.com/dRrlHXlT2nMNgZNHiYo52ha9L-Xay9DyOJR2Cpqs74hgAJ09abn9OTAtMzRVedt1_R9ObZllLO98vRhNMfgTgVsJCk1S-HJwX_XgiGpG4lz3a328'
  lat: 40.11671
  level: 7
  lon: -88.24263
  name:  'Cafe Kopi'
- ap: 7409
  img:  'http://lh4.ggpht.com/vKgqIecJshMQxrhO-ZhMjcIyARuJdyU63wKfzAG0wouZex6LVzO46Qi5zM1N3Jx8xyantDFk9sQGsSEBhb-y'
  lat: 40.101327
  level: 8
  lon: -88.251412
  name:  'Zeus Memorial'
- ap: 7407
  img:  'http://lh3.googleusercontent.com/DJEd6b3-MwXXA5oX_rKCuAtk2dlQ1yS2p9nG8oDmc86DmbzFvhKsP-KR9nKAzn84UUf_K5LjjTMgrt7AjCoU'
  lat: 40.110853
  level: 5
  lon: -88.238339
  name:  'Boneyard Greenway'
- ap: 7222
  img:  'http://lh4.ggpht.com/3gTAX6rKgNjLmBOYvAVTgSPQej5yRF_38uRllp9H4n5N6pvwWo5kDMDwlIkFVPPl30BXPSGAlZ9pO9B4DMk'
  lat: 40.116218
  level: 7
  lon: -88.242141
  name:  'Live Action Games'
- ap: 7222
  img:  'http://lh4.ggpht.com/XlTZ26_29c4-74t23p1lgghqNfLI7aS3_kradmcl7vVQzV9jJRu78D1HdzJf-sWibnak644kxCBJDnA594PVaw'
  lat: 40.092849
  level: 6
  lon: -88.251586
  name:  'Boulware Trail'
- ap: 7220
  img: http://i.imgur.com/5j1qaiT.png
  lat: 40.312242
  level: '?'
  lon: -88.201368
  name:  '2012 Employee Dedication Bench'
- ap: 7035
  img:  'http://lh5.ggpht.com/HhVreJipNvxPRVFpmsh2BPo9PcpPO2Q2l3jCpDjIKgfKGycoTNPXR4DKiYccBXW4X-4dJf_vV0ESsWAWHcChsg'
  lat: 40.100936
  level: 8
  lon: -88.250855
  name:  'Donald F. Bresnan Memorial'
- ap: 7035
  img:  'http://lh5.ggpht.com/C6wRSaEWO1NYGY5luyYZKHG3Z3aib4aflaPdV7B9G6N6adE890g3QuPRSvCUhsdFHqjoVUjo27mfz9WsjXyuhQ'
  lat: 40.100521
  level: 8
  lon: -88.250864
  name:  'Gabriel Patrick Maxeiner Memorial'
- ap: 7035
  img:  'http://lh3.ggpht.com/8FqlniFErK7cq59awiT84u8KyV4FIRd5krZzfYa58zJToFps7whdBnriPqvO_kFKeLUE3SWbJhCOPuvUQzaGFA'
  lat: 40.100691
  level: 7
  lon: -88.251337
  name:  'In Loving Memory of Zeus'
- ap: 7035
  img:  'http://lh6.ggpht.com/3o0ObAARFV_8mBVCC_QD0iLOPVzNkakXybhLnSVEuXIJfDLKMxeYj-EkWIw9NPoZIVRf5Dkrid2yf_NEQ-iE'
  lat: 40.100347
  level: 8
  lon: -88.249385
  name:  'Travis Marmion Memorial'
- ap: 7035
  img:  'http://lh5.ggpht.com/CRkkFx_9jq2hCt1HtflqZDqCdmSG5MN88FV0rLXk1PZm7maZWzLTKZhjqlSKUx1Tg0tSB62l75w2VFsyUZI'
  lat: 40.09991
  level: 8
  lon: -88.249899
  name:  'Benjamin Biddle Memorial Plaque'
- ap: 7035
  img:  'http://lh3.ggpht.com/J_h4tdb4wqy8bmmQfDuy5yqTR2IlkzKojfvsMOvlD-3tf1pKxbDlhA6W9Q8RX-JaSxhItMr4bmCxiUQXTLbz'
  lat: 40.10064
  level: 8
  lon: -88.24958
  name:  'Edward A. Cousins Plaque'
- ap: 7035
  img:  'http://lh5.ggpht.com/N1cFx79JwZqPlYPDW3HkNwRX8N4Auriii45qzYkAx9l-cKeK81qgZ6nuBpTBEIOyLzy4aIIhQKt2E7ZiysSjkg'
  lat: 40.10036
  level: 8
  lon: -88.250515
  name:  'Mark Foutch Pavilion'
- ap: 7035
  img:  'http://lh6.ggpht.com/S7Utf4_59vQkAP5JhC3mdbzVLKBTt-0zoJ2UjfxUnN10VBbixO-_VwvssWd1LbFSx_yafaijd_U0wTGo870'
  lat: 40.100941
  level: 8
  lon: -88.251314
  name:  'Gabriel Patrick Maxeiner Memorial Plaque'
- ap: 7035
  img:  'http://lh4.ggpht.com/4LxsGZZMk3DnpJXUvqzrL54CHSP5TDXjUnDJyHmCCTtCJIjGEI7kxT9g4uxfSPh0X6yGLgQo1jfqbu7B8VEr'
  lat: 40.099084
  level: 8
  lon: -88.251826
  name:  'Irina P. Stewart Memorial Plaque'
- ap: 7035
  img:  'http://lh5.ggpht.com/3t7XZHqwxLZ8Lc9YomR8FInm74U2PAA-DBk8kmdxXIrcXbKa1CoBDTlgdDJeO-_yVT3qNKRnNLzbdil1eH41iA'
  lat: 40.09935
  level: 8
  lon: -88.249766
  name:  'Jim Bickel Honorary Plaque'
- ap: 7035
  img:  'http://lh5.ggpht.com/-UWK84I78Sftf7yg-E2pg6xEAWTvyiThgJBJlxbqOZPYKNmzQ8uGgEEMetzplrG1HpXG5kQqNItUeXKxOHDsGA'
  lat: 40.100286
  level: 7
  lon: -88.251747
  name:  'Tennis Anyone'
- ap: 6846
  img:  'http://lh4.ggpht.com/h3t9nwbrudSHJ4Ll-zBceLi_U0iwpgbsVd8Wjzy_JgqMiXIqIu4CILUiFnKdayIi0htMXQ5CNowcXO7XUqI'
  lat: 40.13401
  level: 7
  lon: -88.28239
  name:  'Eddie Albert Gardens'
- ap: 6846
  img:  'http://lh6.ggpht.com/JgD9-vk2pVIQENqssLAn_4Smd4aFydCLSHsQWVF4D4gn8xxgO5PTgDfjr0DKtVdau2_ZQc7RR-gYrOaMwStSRg'
  lat: 40.143345
  level: 5
  lon: -88.256693
  name:  'Captain Morgan Statue'
- ap: 6846
  img:  'http://lh4.ggpht.com/uAYfykn0e2h2UqP-anbYfkJNa38P0L1WY8FpF-CwRCPklg5wL1xYFkpGOCMt7SJ37qO8PGVE42nYX9Ba_-jG'
  lat: 40.105025
  level: 7
  lon: -88.243919
  name:  'Mural on Good Fellas'
- ap: 6846
  img:  'http://lh6.ggpht.com/tenpgw5pr4OCsrdIgmmHP_sx4RHH2ywHdbNxw556d5JpHC4u64HFYqCdRSeAJgfTN_7BcUv11v8NtBdlaUV8'
  lat: 40.100717
  level: 7
  lon: -88.243989
  name:  'Rainbow Garden'
- ap: 6659
  img:  'http://lh4.ggpht.com/0UzQDuaKLiiPhEgEmKghfkzvXj6lROhxPIDJuI4nWLJFvdxJwGNcJZ1va0K_9cy4L2u0Zyeqv_qlIAwch5o'
  lat: 40.133475
  level: 5
  lon: -88.293988
  name:  'Parkhill Applied Technology Center'
- ap: 6659
  img:  'http://lh4.ggpht.com/W2chhQwPqSJEkl57NVoIL-OE4KFvJfp7Bsrrxza1apCYltcT3npz95LJxqHxvT9ZZu7wxF2gQy-5bpKal2p2'
  lat: 40.115838
  level: 7
  lon: -88.241338
  name:  'Illinois Terminal'
- ap: 6472
  img:  'http://lh5.ggpht.com/auV57ljlnFqueFTLTeFUjp6iIJxsNFs7P_alBDZ2FNvEvUPvRMBhZCrgQOVfMPf7RIyYAHZLElyAiVoJXCFYkw'
  lat: 40.135716
  level: 7
  lon: -88.291946
  name:  'Campus Solar System - Jupiter'
- ap: 6098
  img:  'http://lh6.ggpht.com/n0f7lyo15OzZn5IJHsohIGAA58iioentPZGEY4zeMZCCoX4GjEEkqfaTCIbrx9OnezriThnbFV14kYcwKTgL1g'
  lat: 40.098444
  level: 7
  lon: -88.248167
  name:  'Healthcare Not War Mural'
- ap: 6098
  img:  'http://lh4.ggpht.com/B_I1b0Jy3vW41RX8jjCNPP68AULplU0Pf8ddolyKmpEWCfBVShQkmjF1HfTPzDjmBBQGgOs0jHW-rUR0mv8BkA'
  lat: 40.098789
  level: 8
  lon: -88.251685
  name:  'Curtis William McKinney Memorial'
- ap: 6098
  img:  'http://lh6.ggpht.com/YVbqGVTjJuDMDdj71CP2mWvnUIdgO25PgoDdJwEGnEE_M9I1aDgKyjSr9JOZVU6UQTZQtfUo9RAWyz92n3jtCQ'
  lat: 40.098475
  level: 8
  lon: -88.249208
  name:  'In Fond Memory of William Moore Jr'
- ap: 6098
  img:  'http://lh3.googleusercontent.com/Tixp17uCaP682s77UzvCwWCOE6vg7iB2qEFLjACq7xtVJdHE0K3yKYsl3_SwKbiUfQWwgTQRbvfka3U0NvNc'
  lat: 40.098819
  level: 8
  lon: -88.249214
  name:  'Bette McKown Honorary'
- ap: 6098
  img:  'http://lh5.ggpht.com/8zq5tMevCiipZK8N9-8SZw3vdsA2HwH0E02ormQshGxHVZrB2WPK7OPC8zt6pjLlgpXVuEYHVA_08_Q8fPw-'
  lat: 40.099647
  level: 8
  lon: -88.249648
  name:  'Max Overmyer Memorial Playground'
- ap: 6098
  img:  'http://lh3.ggpht.com/VrbXGwlUosNLEkVdshWUFoVa3KtlJQoEU4yLYygvftYbPCmxo644Uvar_v8Kb9RS53hB0tXgvV44GotrxZyu'
  lat: 40.098592
  level: 8
  lon: -88.251676
  name:  'Ruth and Fred Steigmann Plaque'
- ap: 6096
  img:  'http://lh6.ggpht.com/6pMlM7pPsp-5PTNYZ8AJgo5ODURCPJO-_LigeHL2TMhjfK9MS17iEcpQqc89n5gyUdEO8seZrlThTGbKEqg'
  lat: 40.132999
  level: 6
  lon: -88.292808
  name:  'Campus Solar System - Mars'
- ap: 6096
  img:  'http://lh6.ggpht.com/uaO1clC1eOzxRVRPPU6mVM4lEPV2U6uxh64a8kJNRglHSObClWlHGEcfJTknzwB_7Wli3doxQJbZKiBHIXI'
  lat: 40.102834
  level: 8
  lon: -88.241672
  name:  'Rehabilitation Education Center'
- ap: 6096
  img:  'http://lh3.ggpht.com/pVUYGCf7vsAndVd4vhK_pC9p6e9OvGa4ZiWuZg0ELOFDWptBba4H2N4PNZPjQdHXnV1GQyLTpCXQWDMKDUqn'
  lat: 40.108875
  level: 4
  lon: -88.227835
  name:  'Lion''s Head Planter'
- ap: 5909
  img:  'http://lh6.ggpht.com/yQPHFh4brRKGyXx9PtGN3hQza65T2PIyjArUf9NgW5fqFvx9m22oY2acMcEwFcVRNh0MTfGqc0WfMJFOt1io'
  lat: 40.10725
  level: 7
  lon: -88.244219
  name:  'Titan Games'
- ap: 5909
  img:  'http://lh3.ggpht.com/GGBe9Hug3fUbRCRAMs_kO1fg2HHQ95ZDBdW0S2tAHakvhQbWxlttanjhGNJJcyVRruUlL7zjQnPGI2bu8Wc4'
  lat: 40.117905
  level: 7
  lon: -88.242149
  name:  'Read All About It'
- ap: 5909
  img:  'http://lh4.ggpht.com/4_MOw_NKr2wZ2lzAzG2FlLtA3tfOfWqBZpNVP43LfN6ilD6qHRfZ-_wA1Xk8BnCqHKqKdqodC70X09pqtNXXqmNtK-uqo-fC9SZyOjT6ERfJorzg'
  lat: 40.118388
  level: 7
  lon: -88.245358
  name:  'Springer Cultural Center'
- ap: 5909
  img:  'http://lh6.ggpht.com/0IsQORyEW-bPA7sEbGspygtoI7ixEshm_2fUw5oeh9AeXg6JN5w0ypYIshpuKm-C0nG4Vm2XmpLvtWTZzWzd'
  lat: 40.111607
  level: 6
  lon: -88.233753
  name:  'Chabad Menorah'
- ap: 5722
  img:  'http://lh4.ggpht.com/dzQSyJummIX5lEBsPg0bjVUKgWuducW6OgwYfPUATs_OtoqhXsCvhVFuC98ULi8Gvi0ywyeTUACotvmS32A'
  lat: 40.130306
  level: 5
  lon: -88.253037
  name:  'Fagen Truck Accessories'
- ap: 5722
  img:  'http://lh3.googleusercontent.com/vw4Js8jf11Ok889K1stO5ujNjIO9Ah9DEbsg1xBTrVbaeyBetcG75B8YS8CkQA0KVC8NA5Z02n220SI1UzdB'
  lat: 40.10985
  level: 6
  lon: -88.227236
  name:  'Illini Union'
- ap: 5535
  img:  'http://lh6.ggpht.com/v2m1E6vVK4ZRaRPhGli7jCsG7xZQZ7I3vV_5AogdEpPU_A1vz9WEkH0vZ-vau2IAdmydYJcXrOA6SMr7vUfT'
  lat: 40.128726
  level: 5
  lon: -88.290287
  name:  'McMillen Ehler Homestead'
- ap: 5535
  img:  'http://lh5.ggpht.com/uym8nSsevMrrg8UM6iXqTAyUjRlW1TdnBVLbaPVy4PxonceIo1yyp71x4TChEETc7UVpRVdg6-Gy0WfbV2c7'
  lat: 40.128024
  level: 7
  lon: -88.290239
  name:  'In Memory Of Craig Kieffer'
- ap: 5535
  img:  'http://lh6.ggpht.com/YEHyAsx3ysK3IxTTbSx5dLEcHRtRVKQ4XTvE0Kvkd3iIW3mA6lplwojkVOpWCemyQS6G3JESxZnMFQtVf7V3'
  lat: 40.11652
  level: 7
  lon: -88.241845
  name:  'Mike ''N Molly''s'
- ap: 5535
  img:  'http://lh3.googleusercontent.com/oYQaQpOQ2HICancOs0DcaCqX1KiTJEoAeKp6EUWBs5u-TjTKqJlzTSzA0QMldAg6HLWb3rX4m4_cwKwGCtpV'
  lat: 40.118684
  level: 7
  lon: -88.244894
  name:  'Farren''s Pub and Eatery'
- ap: 5535
  img:  'http://lh5.ggpht.com/KuDVZqnpBQnne0a_UqpN4wpsQFlw3nVXAWtRKP_AdZ3CjQ0MHUBgU_2hE8hb71h31FTQbduYmB6DNuVKA0s'
  lat: 40.116822
  level: 7
  lon: -88.243445
  name:  'Remembering Horeb'
- ap: 5535
  img:  'http://lh3.ggpht.com/oHMQr2Z5LayQFbZOwOZK4ZbYQ1OVxs85-qNTvSj8epsP72vQiOdrzVmkuMPFQtCSf9Rr0oqcnSLFjLn-sPw'
  lat: 40.116592
  level: 7
  lon: -88.243236
  name:  'Champaign City Bldg. Landmark Plaque'
- ap: 5535
  img:  'http://lh4.ggpht.com/PfcTU4XsA06ThtmCWydIWhTsN3gR4jrqnrKxu0O5lhyibhRdKMEaf3jM8VNhViF8qLf13b01E71wr_ajxn0'
  lat: 40.118465
  level: 7
  lon: -88.245077
  name:  'Mural at Nitaya'
- ap: 5533
  img:  'http://lh3.ggpht.com/gS3gT_deXzbDvejCL-5ygs31dw9bLQqYr2nDcLPZiv6nQzahJl12awG1a2pwKbFuoTlsHQYxQ2O7HDXL4-8'
  lat: 40.110358
  level: 6
  lon: -88.230181
  name:  'Murphy''s Pub '
- ap: 5348
  img:  'http://lh3.googleusercontent.com/W5PjcRhelt3420IFjpSdOXtmIiv0M99Qv9Xupe6lckHDJDW4zHE9GyACkz8wXBF0_OIO2Jex9d7S8UQ4FJLa'
  lat: 40.118361
  level: 8
  lon: -88.244573
  name:  'Art Theater'
- ap: 5348
  img:  'http://lh3.ggpht.com/aiChar0HYKb_3M9or6hd38rkSeuoh1TUUL4LtW726Z-JKNYpIttW_3dFH4DHDYGBAkxkwBiz5Ye8_zqttsgs1A'
  lat: 40.092797
  level: 6
  lon: -88.217182
  name:  'The Ponds at UI Arboretum'
- ap: 5161
  img:  'http://lh5.ggpht.com/ENeQgqydWbi9-Oyf7vizunoRqJdsZV4o0RA_956wjGI8hqpTCHBPyWMpbTrrkwYpj5tgzDRvevGmvH4eFRU'
  lat: 40.099593
  level: 8
  lon: -88.251724
  name:  'Blessings from Devon Elaine Cattell'
- ap: 5161
  img:  'http://lh3.ggpht.com/ugJXpaIWZ-wI1vpderJmQjM8r0T5_Li2j4hvvsu4fRM9k3MeBpETqj2LFNd1pEkcfH0I9bgZh--5g1AEJKkq'
  lat: 40.092745
  level: 6
  lon: -88.251235
  name:  'William C Fox Honorary Plaque'
- ap: 5159
  img:  'http://lh6.ggpht.com/duOeXcOSQLWosdD0JJXg3pWWQp4t5sL0x9qDHoTIBFNOzEW0t53Lt2cnwgV2E_Su0l1ajIQxPtVbbK_sDRaS'
  lat: 40.141775
  level: 5
  lon: -88.242671
  name:  'Marketplace Mall Fountain'
- ap: 4972
  img:  'http://lh5.ggpht.com/M86zCVcXjmwIC0SQgJ3q_heSiWsj4BJoAcO4SpBWLGzt7XQ3kJMk_1GdLAM_SOt_OkZnGrAEV9_g2KSQCguZ'
  lat: 40.133808
  level: 7
  lon: -88.284367
  name:  'Dodds Park Softball Complex'
- ap: 4968
  img: http://i.imgur.com/5j1qaiT.png
  lat: 42.907691
  level: '?'
  lon: -87.841671
  name:  '5077d21198f944449b4025e6cfd4e6cd.16'
- ap: 4785
  img:  'http://lh4.ggpht.com/FAqopsayR2vfoblDs12USLGHxH0S1lfng6IlvgMPO2k4a1fKXYQnDWf0Lbf3zAqLfMU0aGaHpSZxycRqft9pmQ'
  lat: 40.119381
  level: 7
  lon: -88.24555
  name:  'The Lodge on Hill'
- ap: 4785
  img:  'http://lh6.ggpht.com/5m_DdlbswQXPJueGjlDknXPY3RqwtwdrWAsNLBfbSNENcdAw3oafNYp_YTPk5KmZZpY5M4zwdxKoE9Tq5kDv'
  lat: 40.118985
  level: 7
  lon: -88.245285
  name:  'The Little Brick Memorial'
- ap: 4785
  img:  'http://lh6.ggpht.com/vqiOPPON1phvYOdOmbFDrxhN6cbYjeLHVgH42EV0XsJjVNd81EM1DKY_aRVM-rwJ9Il5tLc3QsL_gOS4qAkF'
  lat: 40.139891
  level: 7
  lon: -88.257367
  name:  'Market View Baby Fountain'
- ap: 4785
  img:  'http://lh5.ggpht.com/jz0XvZSSYKqKSa4lJDK-rludOns_o36jZ8ZTzfEr42piZamiTjSASTLdII6pkxgjZgnCwKirjhEouS77BPB8Dg'
  lat: 40.094288
  level: 6
  lon: -88.248914
  name:  'Boulware Trail'
- ap: 4785
  img:  'http://lh3.ggpht.com/KxQsev6i7POmNh1IadCWwWQSMdCuLIYpPwIdenSlVtzum523D1R-1kfeTbuOGTkt_jDwn4jswCu1edkumm2-'
  lat: 40.110037
  level: 5
  lon: -88.23549
  name:  'Red Lion'
- ap: 4598
  img: http://i.imgur.com/5j1qaiT.png
  lat: 40.152792
  level: '?'
  lon: -88.253532
  name:  'Toalson Park'
- ap: 4598
  img:  'http://lh6.ggpht.com/XsUl74M1oxj6ptAvGEBOMH2wivRhxBNns62UJSGcPiQkuJIgPrmUYxMpSZZUfXRMMjrwoxlFK_DbAM78UrOh'
  lat: 40.113499
  level: 8
  lon: -88.244374
  name:  'Shatterglass Studios Mural'
- ap: 4598
  img:  'http://lh3.ggpht.com/LunaMtSKD9yiLQClolDY-Iqh0ENm9AgJdL4D1QxGs0j6TXPgqxDZea35x5ilAfeI5_0TGh5x1q1EqRsJsLFi'
  lat: 40.114111
  level: 7
  lon: -88.243697
  name:  'Champaign Surplus'
- ap: 4598
  img:  'http://lh3.ggpht.com/tXDyz6XRrR2AKSg9Rrj1z6jBG4dz7uR9qFmSUO1bWljMEw67ncNiq-2Hx3O9Fs029iRtvCV1gdlGN7pG69L0'
  lat: 40.114104
  level: 7
  lon: -88.237694
  name:  'Lo Park Fountain'
- ap: 4598
  img:  'http://lh4.ggpht.com/ETgOsKlMmsv5wRT-aM33VVVEgFvp3ZoMxqXmYKxROpFAYnfPqjWhltqYBG7ajEuM8XKf3mVeSaF7r9grm2t8'
  lat: 40.113448
  level: 5
  lon: -88.237188
  name:  'Boneyard Creek Second Street  Basin'
- ap: 4598
  img:  'http://lh5.ggpht.com/BK5TjuMzuJgDVPz4C8HRjfZKeaoISnPJ-H7VaYeMNUYmxvvUY7RzIIlR13FjW9HHF_i5-znqs3O6nMxKPfcj'
  lat: 40.102188
  level: 5
  lon: -88.251507
  name:  'Little Free Library Charter 5753'
- ap: 4598
  img:  'http://lh6.ggpht.com/68dvh0QMefXWoOEuzYL9ly2rpD9TpVh9F2kj89k41eGqxXdpLX0ldTrsAsaenN5iOWGwkJ0HA3gYAVWoOqQ'
  lat: 40.102036
  level: 6
  lon: -88.226601
  name:  'Agricultural Engineering Sciences Sculpture'
- ap: 4598
  img:  'http://lh5.ggpht.com/r5KiToG6Qjyw5c6bAl_0F5cRgpub6HC8MAhqSj_urbSr7jfyMNIuQJaMQykBPvk8mATAla1R16wMHTDoU456'
  lat: 40.102817
  level: 6
  lon: -88.227222
  name:  'McFarland Memorial Bell Tower'
- ap: 4598
  img:  'http://lh5.ggpht.com/KQ7QYG8rWnVxSme_uq3cOu8IreZRbztWWKHTNPBy_6GvCqP3ywy-HEoSUxqloLDeUggEVV0UhKLy8Ja0v0yPdQ'
  lat: 40.110844
  level: 5
  lon: -88.224091
  name:  'Institute of Aviation'
- ap: 4598
  img:  'http://lh6.ggpht.com/BzDhCANV_iNTHhKFBGLuaUqOvChRZtPWnJ2Xk4h7NsKJHmTGgCWtFHWv2PpDA2fCsHHKSCRTrUNK8AKrLRnS'
  lat: 40.108066
  level: 6
  lon: -88.230687
  name:  'Community United Church of Christ'
- ap: 4598
  img:  'http://lh5.ggpht.com/kElaGOaV9aI8SrnM1D65gx9J0Ky1AKrN9Yo-pXVmDhELt2pee4MwVRiCqCmlqWzUWj5pS33GnEzAiXmiWKsw'
  lat: 40.108111
  level: 6
  lon: -88.229625
  name:  'Illini Sports Mural'
- ap: 4598
  img:  'http://lh6.ggpht.com/SboHv2_AWJ6ll559fK1A5a1UIAKf04oIHrgidra_E6L8gDK_mQ-DaM7hKYkv7MT6ZAA8pzgPxv_Vy-eNN7g'
  lat: 40.110608
  level: 6
  lon: -88.231957
  name:  '217 Tattoo Co.'
- ap: 4598
  img:  'http://lh5.ggpht.com/dgQfoxxVeHT5ODqLiUYHV45qvkC_BMS0kIFRqvHvE2GO0TduZ0-XzhW8RE80LtPDK0Ay5xwA6PtjM7G3C9U8'
  lat: 40.108947
  level: 4
  lon: -88.232251
  name:  'McKinley Church'
- ap: 4598
  img:  'http://lh6.ggpht.com/Ors-OZvQMSkeYwIrZFCN6ltDminG-DehbQHdnKr_u983KJbBTIGGWU0wOofHOrpwgSk_mIaD5Fgcv7xNs6_n'
  lat: 40.092259
  level: 6
  lon: -88.216448
  name:  'Lichen Covered Honeylocust Plaque'
- ap: 4598
  img: http://i.imgur.com/5j1qaiT.png
  lat: 40.203922
  level: '?'
  lon: -88.387753
  name:  'Covered Bridge'
- ap: 4411
  img: http://i.imgur.com/5j1qaiT.png
  lat: 40.197543
  level: '?'
  lon: -88.383728
  name:  'Forest Preserve Headquarters'
- ap: 4411
  img:  'http://lh5.ggpht.com/nWEtxuKQdy0teBBue1DYmG7P3SF5-3A6zlB7GwVHBWlolAZYGq6Br78lWcF9ltFy-KeSlozXie2RmU6JfCUX'
  lat: 40.142673
  level: 4
  lon: -88.244603
  name:  'Italian Statue'
- ap: 4411
  img:  'http://lh4.ggpht.com/MvwoDsxwfyNLHzfGkFJl-4VFeX7OvqB0hsMCrZ2D9Olh8GSghAJDfFfDh7a7cOtMIGwEDMyesZoKvKCXAGj4'
  lat: 40.116553
  level: 7
  lon: -88.242268
  name:  'Esquire Lounge'
- ap: 4411
  img:  'http://lh4.ggpht.com/xS51--rXA9M_IHpXWgFQxKZU-YbD-1zk-nug6k7RyKl8rYeam_YFwMmLNWRRHHzI-rOTGyhTJQQ314WudSQJ'
  lat: 40.117132
  level: 5
  lon: -88.243009
  name:  'Fountain in the Alley'
- ap: 4411
  img:  'http://lh3.ggpht.com/Vcus4uEIgRrZOTuMTz10IGc3qhU5MdpmGnEzN_IiBQrVm1M6Q26geFSgc4VIbgx12Utl9V52J1Y4g35V3MneDg'
  lat: 40.117215
  level: 7
  lon: -88.245551
  name:  'The Virginia Theater'
- ap: 4411
  img:  'http://lh4.ggpht.com/H1kV6JSczzSbcCblAHg5ZOgITW1mBAz0_oLbqbzxBlijGTBn7TP6KwA6UI0AAGrCN4VF0DAF79Vcj6_2R4dsB8LRTq6tud6v'
  lat: 40.116164
  level: 7
  lon: -88.241661
  name:  'Zipcar-45 E. University Avenue'
- ap: 4411
  img:  'http://lh4.ggpht.com/maBwz4G9LJZ5aVuX_WF1Z73xSbqoFsm3l6oyrNQ16LkJMvaEbFa-amdfCpKDVDe7NzjReNu8IGnn7BAI8yef'
  lat: 40.103534
  level: 8
  lon: -88.243478
  name:  'McCollum Park'
- ap: 4411
  img:  'http://lh6.ggpht.com/pxaCt7clhIXc1RVGMMJZsmnbEWNWjFYJiUrQMev_SeOmXBothvOzmfnirQ5_W8CMa7hpigqydQhKMa4XFCAi'
  lat: 40.108173
  level: 6
  lon: -88.230209
  name:  'Mural on South Sixth Street'
- ap: 4411
  img:  'http://lh5.ggpht.com/dzjsWdreD6jZuCG_DDonrZu-gYlDIxk5j3rPzt67sbmq7yWjo9I_Op69SM3fzvlGKnlp8QMGcztFWOhpSe4'
  lat: 40.093629
  level: 5
  lon: -88.216064
  name:  'Dr. Frank W. Kari Memorial'
- ap: 4411
  img: http://i.imgur.com/5j1qaiT.png
  lat: 40.204951
  level: '?'
  lon: -88.384876
  name:  'b0532370be9c4b2585b6d599e0b06ad9.16'
- ap: 4411
  img: http://i.imgur.com/5j1qaiT.png
  lat: 40.205583
  level: '?'
  lon: -88.394066
  name:  'Champaign Countys Lincoln'
- ap: 4411
  img: http://i.imgur.com/5j1qaiT.png
  lat: 40.203785
  level: '?'
  lon: -88.390448
  name:  '3e498955983f48bbb55d0e1fae996ef2.16'
- ap: 4035
  img:  'http://lh4.ggpht.com/0JuC7vEVtmbgkx1FUhaTylcKfKuYoGNdW2P5GNZzGbeOzxEH0Q-9gP9gmmBzx2bkLNA0dnw9FiEJYiHjWXM'
  lat: 40.121329
  level: 7
  lon: -88.24558
  name:  'The Gregory'
- ap: 4035
  img:  'http://lh5.ggpht.com/dnj__uItXDR_xj-g5PNpGYPNjJCPBFpsx3w9sWxvrOlayO6nyG_Qu8MygtuFZm9i4L2Gho0fkOACtzkGR_e2wQ'
  lat: 40.098457
  level: 5
  lon: -88.276763
  name:  'Mini Park IV'
- ap: 4035
  img:  'http://lh5.ggpht.com/KmcyHZbW-2yJsvLDA_XQCx9aOF3P9itxKi_I4fScJaaRqqojBriUII3Fp8SHNgup2Ab6_7r9jDEo_AzWSfI'
  lat: 40.097028
  level: 4
  lon: -88.276646
  name:  'Roby Recreation Trail'
- ap: 4035
  img:  'http://lh5.ggpht.com/_9uqsDQROIwqIhKx_URY4DdZAapoZBEWK6Eaclt5mM5vPsjwQAD-v8Bv-4b-Smq2F8X4zOgzLx2KwySkFWc'
  lat: 40.118448
  level: 6
  lon: -88.25211
  name:  'First Church of Christ, Scientist'
- ap: 4035
  img:  'http://lh5.ggpht.com/fGRHfMAqdWrUnPE8GStKSdMkgQmu9qvuxAC4VzcU1v2KyxQu2BeuJKhvhefSeFNTkgFh6YdR-F4P6plMbh0'
  lat: 40.110194
  level: 5
  lon: -88.231488
  name:  'Fighting Illini Memorial'
- ap: 3848
  img:  'http://lh4.ggpht.com/ik1uVZ-KWyRH4dh51LJI7gFmnM7bmfSZ-1YqfELbVQEvuo-gEx2QpG6jQpFPeAlFPi2rVPAuzRmXMD0Whsm2HA'
  lat: 40.122038
  level: 6
  lon: -88.245318
  name:  'The Old Residential Block'
- ap: 3848
  img:  'http://lh4.ggpht.com/GcCZ7JTzkEHTZnUWfpUgibDh2Wa4nzGM9-k13AG4I2RwFiPa6exz1vCzj7Hwvf_oPwJvYJt0xoRE6GZXmCMX'
  lat: 40.132625
  level: 7
  lon: -88.292636
  name:  'Campus Solar System - Earth'
- ap: 3848
  img:  'http://lh5.ggpht.com/ZfmaOk3UM4PNzP-z0AvBPFqYLc6wAEDSPhL1cSVjXMAFSv4Jadm-hV--eP3OaJuaksphYKN5s6bhWhluTGs'
  lat: 40.133327
  level: 6
  lon: -88.280335
  name:  'Prairie Grid'
- ap: 3848
  img:  'http://lh4.ggpht.com/vKkSwERLa3zQO2UUIiYl1AEruAx1QTPcP4jSmPt89PG4AviJ1WhlVVH8qmqJ0aY2gqJmHcqdZFcM2pQconc'
  lat: 40.139375
  level: 6
  lon: -88.272793
  name:  'Salt And Light Ministries'
- ap: 3848
  img:  'http://lh5.ggpht.com/QruW49d2dc1uhQlK1BaZIeo6ruDNkqQfmvZz83eQ-1aC9ytGUcpFaHnKRTnXRc70F2EZ0-pVKGr9Slo0_9RfxA'
  lat: 40.139749
  level: 7
  lon: -88.273955
  name:  'Northside Church of Christ'
- ap: 3848
  img:  'http://lh5.ggpht.com/vYay8RKsCV_BP_MkeFm7se0VZoYthm-1pThiATAADleBlTsPowobgZyUoU7DUto6p5cpg9adpCcTgNR6iop0Jw'
  lat: 40.120121
  level: 5
  lon: -88.251967
  name:  'Sesquicentennial Neighborhood Sign'
- ap: 3848
  img:  'http://lh3.googleusercontent.com/SjusdEZ1n6AkcvHdrM3TfGAqP_W5LJRmm4qEdm5xmdvHcBejD6Jg0kXCZaHyUk5WGeE8Zu0RrSSq_1VDXFU'
  lat: 40.117419
  level: 6
  lon: -88.240991
  name:  'Old News Gazette Offices'
- ap: 3848
  img:  'http://lh3.ggpht.com/l6drxc16dn91XarTz8Tkkeerjhu28Hf3x7nh-pHe05BLyOA6fuV75A5gB8UdUNt3cRN_eXIHmTE8c5Ypvcw'
  lat: 40.117248
  level: 5
  lon: -88.249929
  name:  '"Tootsie" at West Side Park'
- ap: 3848
  img:  'http://lh5.ggpht.com/R4YsY7oUfZDrMJ3QJtIKwNvcX7K4vxIpwfLebL2U4x5m1UibakO0KUZJXqdfYe-W9IUNBmlCu5LlSy6jtKGM'
  lat: 40.105323
  level: 4
  lon: -88.239595
  name:  'Campus Post Office Services'
- ap: 3848
  img:  'http://lh3.ggpht.com/HX3mWBGofQk08Qdp7A6KMK1AnSXlLEPJR-n6oeX69Efiiss29GHsLiDsHhRS5K8DrXh-QXP1T0AMaOsJmx_w'
  lat: 40.106921
  level: 5
  lon: -88.230145
  name:  'University Lutheran Church'
- ap: 3848
  img:  'http://lh4.ggpht.com/EsyXMnqVMX7wQ4YmoCFRiNljaJqaXrQvzyzzooqx2fPxCSkJMkdEssTbf618D8Qp9hh3E4Ud3hL1M3v-TsbO'
  lat: 40.104688
  level: 6
  lon: -88.230676
  name:  'Sousa Archives Center-Amer Music'
- ap: 3548
  img:  'http://lh4.ggpht.com/3Lm-KzGM9vXbvxwzd3uNOE1ibdw6aBbJypb9HN6pbH3ANeklxtL1pI7O-dXg3t9maE-0WFjc9mIrgHbNJJE'
  lat: 40.102641
  level: 2
  lon: -88.227634
  name:  'Farm House'
- ap: 3848
  img:  'http://lh3.ggpht.com/x5fBw8MRogV8dm3kPO5zKNkUrQxn0dM7d1PIoASdX1_Rc8H5Duex4iZdOoIlqazCGll25TmptsWIRq1JFmj6'
  lat: 40.112135
  level: 3
  lon: -88.225762
  name:  'Computer Based Education Plaque'
- ap: 3848
  img:  'http://lh4.ggpht.com/H1kV6JSczzSbcCblAHg5ZOgITW1mBAz0_oLbqbzxBlijGTBn7TP6KwA6UI0AAGrCN4VF0DAF79Vcj6_2R4dsB8LRTq6tud6v'
  lat: 40.107753
  level: 6
  lon: -88.228913
  name:  'Zipcar-Wright Street & Daniel Street'
- ap: 3848
  img:  'http://lh4.ggpht.com/19VZtu1hVcvRULCxi68PgA-pzTXEiobtDO60r-8r1MaFnboaw386YrrJphD8xHfbAGiu0SGHZ6nuzuhvh59x'
  lat: 40.102559
  level: 6
  lon: -88.226208
  name:  'Agricultural Engineering Sciences Sculpture'
- ap: 3848
  img:  'http://lh6.ggpht.com/pYay9oPZwUNKfLdWJ1JMI5tA9-Gd0vsBddLTz7fXN6wUW7F23hLMWRwFZNnXyomRkc2f9sqCGMxNWuYHPFZx'
  lat: 40.109142
  level: 6
  lon: -88.228748
  name:  'Kappa Alpha Psi Plaque'
- ap: 3661
  img: http://i.imgur.com/5j1qaiT.png
  lat: 40.198031
  level: '?'
  lon: -88.377986
  name:  'Lake of the Woods Park Entrance'
- ap: 3661
  img: http://i.imgur.com/5j1qaiT.png
  lat: 40.196926
  level: '?'
  lon: -88.366258
  name:  'Filippos Pizza and Italian Food'
- ap: 3661
  img:  'http://lh5.ggpht.com/IgNzl1mq8OGLo32nCph_TZvtqlPh79vEYYvHZb2F6YXW1jx9_ESV5dv13U9k7CRftyKHGoW2RtSSUFzPKbU'
  lat: 40.113072
  level: 4
  lon: -88.289765
  name:  'Kaufman Park'
- ap: 3661
  img:  'http://lh4.ggpht.com/j5qEdm6GsRybxCSX4X-mcXnDS-HO6__skWjWfYJD7KoQdhnmPT8tJH1t28UW1k-1PYH5J6mpdiX9mkOzvM0'
  lat: 40.077923
  level: 3
  lon: -88.288859
  name:  'Joyce A Millage Memorial'
- ap: 3661
  img:  'http://lh5.ggpht.com/0UmOEvpBIgW2PQGXcdi5IwCRj20o_XAvbFid1HDfkNsc-7eI6YTWM43QdZtBrA0b2Ln6mMEF-hF14BQiYfI'
  lat: 40.07833
  level: 3
  lon: -88.290166
  name:  'Millage Park'
- ap: 3661
  img:  'http://lh5.ggpht.com/pSVHjk6puyYdv3ztHlpJGnbkZyGsGsirMnxkDhlt8UMko4AhtTQbrzwInBCu5lK4Ttf7furE5pNW2AZh8HuSZQ'
  lat: 40.138109
  level: 7
  lon: -88.270158
  name:  'Glory Center International Church'
- ap: 3661
  img:  'http://lh3.ggpht.com/F_QKFluz0Gh6sC9FPGcL_wT-n-zRGyp0qQ9mnghB2L5Aer_c6Qm1q7KeGoCaGwDoJax_R_sK1atr3F0hP4Ap3w'
  lat: 40.136807
  level: 6
  lon: -88.257174
  name:  'Champaign Fire Department Mural'
- ap: 3586
  img:  'http://lh6.ggpht.com/dI4xaWnG0DZUP0uJY6mH7dt0Mym9RSF71Y9EW7cHcTwlxlumShbTK73b2epHwOng4JJOjyc52eMv188FeiHYfg'
  lat: 40.131965
  level: 5
  lon: -88.278016
  name:  'Augustus K Riggin'
- ap: 3286
  img:  'http://lh6.ggpht.com/g4DT6SGoajyo3AEVQR_e1LuxmgdTecqzlqjxrY3qYL6mnr6FHMUAtS6E9ZnWczuWrf7WWRNC0XRF5iVTWdS-uQ'
  lat: 40.132002
  level: 2
  lon: -88.277467
  name:  'Dodds Park'
- ap: 3661
  img: http://i.imgur.com/5j1qaiT.png
  lat: 40.152192
  level: '?'
  lon: -88.252279
  name:  'Toalson Park South Entrance'
- ap: 3661
  img:  'http://lh3.googleusercontent.com/hJZWoErzM-MuXulq4FlhlZwMbJX1Isd81GBUBVKayd57jVIVxUle3itd-1DRKo2VaNXznWr1X639fa44Etk'
  lat: 40.141919
  level: 5
  lon: -88.244611
  name:  'Marketplace Mall Carousel'
- ap: 3661
  img:  'http://lh6.ggpht.com/WVVbmiu2GGTnPTszcnYYILHKlkZDoxB-QY6Yv7YPoUfdVn92jYnKjpVKNkfWdFrPjq-BaFeKGJWLZlE-bbA'
  lat: 40.120467
  level: 6
  lon: -88.2577
  name:  'Salvation Army Church'
- ap: 3661
  img:  'http://lh5.ggpht.com/UTu16bRRNKyJj2cFsU4mRCMkGJbH7YCAm0gQdiJKjnnZtB00kMEb_-Lhf6AnAXRia4MH6FBrWQGkBCrMUz8'
  lat: 40.120135
  level: 5
  lon: -88.253121
  name:  'Rain Garden'
- ap: 3661
  img:  'http://lh4.ggpht.com/mrFIlt7StuloTop3ci5DRg10i06ivamSn69PgqYPZfkV23dOzf-DhDdDUjeOOzy1ILR9xOOdLX_NBsMOH9FO'
  lat: 40.124377
  level: 4
  lon: -88.25297
  name:  'Spalding Park'
- ap: 3661
  img:  'http://lh4.ggpht.com/IAi2A1ukQunZaoCY1OUJnvZC_MAEjnYzlg7vcsIuPQyLIB710_5ueVQ3El8Pok0aNvlB18-Tdo1euhYbaf0'
  lat: 40.115224
  level: 5
  lon: -88.24957
  name:  'Linda M. Wesolowski Memorial Sign'
- ap: 3661
  img:  'http://lh3.ggpht.com/wkPcdDupubV3THJo6r2OpMtshziiIkqBISPTCPe8boa-8nH33u83Mznkr1yYWNR_l60RCy8HO_obqrdNGUI'
  lat: 40.093633
  level: 5
  lon: -88.246611
  name:  'Fountain at Illini Plaza'
- ap: 3661
  img:  'http://lh5.ggpht.com/H3lz_PbTP4RFYuRMUyZuMouxslODKZQ3RjFiZrITFZcpj2FuEb1K2VVlveQtOyUHG2rYZ114AGuGqK4rATI5jg'
  lat: 40.097868
  level: 7
  lon: -88.242344
  name:  'Campus Information Booth '
- ap: 3661
  img:  'http://lh5.ggpht.com/NUOCD82iNRGW1NGqEC4FKet1u5_cm4WRNc2c9_YABAjGf6-OSCLz7HgYkP1ZuVAbpMl6Qi10HRW16Oc9jNM2'
  lat: 40.106401
  level: 5
  lon: -88.236182
  name:  'Washington Park'
- ap: 3661
  img:  'http://lh6.ggpht.com/Pnd8JOVl_Lm-LFi5TL9dblCUNbrwX2rh4_oKgOC5Ynga-E_Y207oGsL4Uz931FTapBrs35H98qxJU4Cm_Gk'
  lat: 40.113024
  level: 7
  lon: -88.229095
  name:  'University Place Christian Church'
- ap: 3661
  img:  'http://lh4.ggpht.com/3_LELG2r-A5s2d-x2dWyz6h7HzfjVR_KZn9AG0vhih9EalQIG43iL6LdKqKNpnGdGwguP9ZfnGF0KMq_KDE'
  lat: 40.105799
  level: 4
  lon: -88.230188
  name:  'Color Glass Windows at the Newman Center'
- ap: 3661
  img:  'http://lh3.ggpht.com/LR76HrJqriPFUoc2XSs7jb2SotnStZv20kI7rgUx8B5HqhmetnTW4MA1tCp1ws4g5gw0sf9g7M3Lwq4VwfpD'
  lat: 40.111687
  level: 3
  lon: -88.225353
  name:  'Transportation Building - University Of Illinois'
- ap: 3661
  img:  'http://lh6.ggpht.com/y10QgRCNt0Bsefqp3olKgJp98whQkS0-vWqPskj3421hcSq96BG-b_KROqsO1mBEcNiYtAKhXuXG0EV0eaUW'
  lat: 40.107152
  level: 6
  lon: -88.235244
  name:  'Bromley Hall'
- ap: 3661
  img:  'http://lh4.ggpht.com/7U0YXCB_DIhnqPJyjyLpNn6kg4lU8HvKL87ddBKWq1sptvVLvCEiCuNEnghQtqDGSN2OBNcOUK9nZcYjY4Vr'
  lat: 40.107887
  level: 5
  lon: -88.225998
  name:  'Lifesaving Antibiotic Plaque'
- ap: 3511
  img:  'http://lh5.ggpht.com/Zoidr1eUAO2UEM6SyifBpkC3K42Ctl355Krd3S2ZU3BbbIMt1XFKF4C35huJT7a-K1PMF6JCK3ztTnr2Wbc9zw'
  lat: 40.109178
  level: 4
  lon: -88.22945
  name:  'Pineapple Pillar'
- ap: 3661
  img:  'http://lh5.ggpht.com/ucFkWovrZBr6wFMicSGD78p44tqzcyfJCvQuAocYo0do3ODoHsOeAMphZZferoOLkGfuJPQVlILRzKG1vAPg'
  lat: 40.109172
  level: 4
  lon: -88.231151
  name:  'Illini Life Christian Fellowship'
- ap: 3661
  img:  'http://lh3.ggpht.com/I8Cra-oBAq7td_84j0G8l8DIMXhxPP-O8A8xPb1WZb8O2s9DBapV_osKefRuzzDGDhcPRA9WT7yaPBvkGE4g'
  lat: 40.112836
  level: 5
  lon: -88.22802
  name:  '1909 Senior Memorial'
- ap: 3661
  img:  'http://lh6.ggpht.com/POBAhJlStu1uLv82RPSkd8lKQyojPByrKqAwgiZPyXTHQcNTCN7rkJM376YcVpMmZZVMgiXz9J1BXanexyA643e-FR9M70tksLdb1akPUe2Ra_xCyw'
  lat: 40.112411
  level: 6
  lon: -88.226875
  name:  'Grainger Engineering Library - William W. Grainger Medallion'
- ap: 3661
  img:  'http://lh3.ggpht.com/TNDkyQnVEXdm2c8_gpZa0jhlwhKtO0T8Yaqx9BCnvpjJHBRKYMu71Kz7U4wOp-eSKD5jlReyruVEwFyyvRLuZQ'
  lat: 40.129028
  level: 5
  lon: -88.218345
  name:  'Flagpole Dedication'
- ap: 3661
  img:  'http://lh6.ggpht.com/mSAh6wYw-KItnZ6a3rENHXfrC4cNGwgJL-7gf4_JO-Psf_ZIIPXppWlrRi7QN-8SZX4QyXna_0SAY4VDHzdxu4nMS1TiL0fWYdJhp-GQ3O7KHB0pZQ'
  lat: 40.092682
  level: 6
  lon: -88.217865
  name:  'Japan House'
- ap: 3661
  img: http://i.imgur.com/5j1qaiT.png
  lat: 40.203721
  level: '?'
  lon: -88.39221
  name:  'dd9c9d84f4934d84a0769ff14c381db2.16'
- ap: 3474
  img: http://i.imgur.com/5j1qaiT.png
  lat: 40.197114
  level: '?'
  lon: -88.38528
  name:  'Elks Lake Pavilion'
- ap: 3474
  img: http://i.imgur.com/5j1qaiT.png
  lat: 40.19755
  level: '?'
  lon: -88.383386
  name:  '2cf574b64a1c430db9f09229590f7697.16'
- ap: 3474
  img: http://i.imgur.com/5j1qaiT.png
  lat: 40.152871
  level: '?'
  lon: -88.253305
  name:  '50197185529145c883d36b74db0ec522.16'
- ap: 3474
  img: http://i.imgur.com/5j1qaiT.png
  lat: 40.755209
  level: '?'
  lon: -88.517392
  name:  '5c845277dc7f4082828a0a8cb5fa896a.16'
- ap: 3474
  img: http://i.imgur.com/5j1qaiT.png
  lat: 41.228797
  level: '?'
  lon: -87.546178
  name:  'd6f987bc22194687a476ef9a685973ed.16'
- ap: 3474
  img: http://i.imgur.com/5j1qaiT.png
  lat: 41.596665
  level: '?'
  lon: -88.436516
  name:  '64261852fbf547098dce2005f2997b12.16'
- ap: 3474
  img:  'http://lh5.ggpht.com/WgDPQ47lNn2nlvNDPgwM_c-1MpVvxdVZtjZmFtixtr3rIi91xqYhgtSbyJGqRFnSXCUHy_RjABgEj2LSzOs'
  lat: 40.113343
  level: 4
  lon: -88.290525
  name:  'Fish Chimes at Kaufman Lake'
- ap: 3474
  img:  'http://lh6.ggpht.com/TtWbekdbsTWA9hOrt2dc1ID1DnRuGoRbAle9mL9aZvc_aJygqJ9jAMjqrWtVr87WnELkFrSVIpO_4VVZQ67P'
  lat: 40.113103
  level: 4
  lon: -88.290672
  name:  'Kaufman Lake'
- ap: 3474
  img:  'http://lh6.ggpht.com/A3o1Nm3JPbfRGX8fs0D87GlAc2sSTKVl6IimAZxRyIfLyPcsMcbx7s4WqUTkMcz70wzyETv1zaJZtlBTRdBG'
  lat: 40.083723
  level: 5
  lon: -88.288027
  name:  'Windsor Road Christian Church'
- ap: 3474
  img:  'http://lh3.ggpht.com/whrVudLIelW8yHGGZa7geAVXvbkevW5Vc4DbMBSrMTYN38-Cce_sYnEFxEDWHJQouK3L-LjMbbADmlyYto_D'
  lat: 40.131036
  level: 7
  lon: -88.2778
  name:  'AISC Steel Teaching Sculpture'
- ap: 3474
  img:  'http://lh3.ggpht.com/07XrBN-er6Ecleor0n9RJ4DfGO6B2yn-ZxjI-Uy8Ba46Jtb6cXNVmATPiPiGyk-1jZ4wxa7-EeIWbWUqArCG'
  lat: 40.142554
  level: 5
  lon: -88.243468
  name:  'Dog Heart'
- ap: 3474
  img: http://i.imgur.com/5j1qaiT.png
  lat: 40.152342
  level: '?'
  lon: -88.252345
  name:  'Toalson Park Basketball Hoop'
- ap: 3474
  img:  'http://lh4.ggpht.com/9dqmZPc9OI1ON-iEnfXAxSAMX2M07pEgKUsb47vLrTrW2BW61siFLquk1fXbldWXGPg69XGdSG4wKPGS5rI'
  lat: 40.113521
  level: 8
  lon: -88.244122
  name:  'Artistic Graffiti at MCS'
- ap: 3474
  img:  'http://lh3.ggpht.com/PKHUaHtGQlwpb8q3mUpPJtjb51_am_ieb_9X0u8g1PI_eg7NxFQU2fqeV8XjnIIDy0rCMtqsfMJLerOBo8M'
  lat: 40.118579
  level: 6
  lon: -88.244588
  name:  'Mural on Art Theatre'
- ap: 3474
  img:  'http://lh5.ggpht.com/XQVr2AUWddJQMpYbapEIpcTLBeBvcpgmW016VjkAOXrp8_P2VsMxQY8FVhtDhA73iTCXCPiydjFIJcbcSa8_'
  lat: 40.116206
  level: 6
  lon: -88.24306
  name:  'Indigo Art Gallery'
- ap: 3474
  img:  'http://lh3.ggpht.com/kvJpDVeizd9sYgE0gsuLMptNV4trFwsY2y5QVAP_9RwWmIAb_1GOXGlJf0qViO7mywZQg7-Ky5pjxSPu22U'
  lat: 40.123653
  level: 5
  lon: -88.252479
  name:  'Spalding Park Playground Dedication'
- ap: 3474
  img:  'http://lh4.ggpht.com/mnyMwxXghZOmxdJw2eJk5U9A5sfO_QLi0eKc2knF3RS3bJhiIa0N7N75KIzjEehKD3ChMFgaOHVRltiOVAw'
  lat: 40.125074
  level: 5
  lon: -88.251776
  name:  'Spalding Recreation Center'
- ap: 3474
  img:  'http://lh4.ggpht.com/aXG2XQNJXyPDBz0o8tyfv07VIfskZuFMOWW2ylZpZKkWMnFjoiBmBiWg2VedsjdIorpfX5mtUGnwVLFb7Ga6'
  lat: 40.091438
  level: 6
  lon: -88.25077
  name:  'Fox Development Corporation'
- ap: 3474
  img:  'http://lh3.ggpht.com/_K7sIxE489M-QkUoRrgaLB_XBi9BcOI563VzvhOcmhjwHsLO51ORrhkiWZkqThKNBlPAYzclT_qdR_sGe8g'
  lat: 40.114277
  level: 5
  lon: -88.238879
  name:  'Prow 2'
- ap: 3474
  img:  'http://lh6.ggpht.com/vlKOFCgVZb_8XoZHDdzD2X9Xsejb8QVVqEM5U4YfgnKJbQIIHHSK2hSpgycF7vqRkGKRYYnbjVTyKS8dsHF3ChRyF01faLh907jhNd__xiEkGTWx'
  lat: 40.111225
  level: 3
  lon: -88.226537
  name:  'Fire College Plaque'
- ap: 3474
  img:  'http://lh6.ggpht.com/RW34ntixvJkg7fD71TPYo_4KIsBzA0-a-6yXO0jKPbpGxX5gIGC7kBI-pXEF9OHhuolcAGW2fxyK3Pt42Iev'
  lat: 40.110489
  level: 2
  lon: -88.227412
  name:  'Bus Stop - Illini Union, Westbound'
- ap: 3474
  img:  'http://lh4.ggpht.com/RF7EbCh1YRbFHfis_PEc88NF1v4Ndhj-Rm7rrlY7F8s-Mrv1EMEFnajFbYiNffZ_3kMNL80Zv-_jtaMYMtLA'
  lat: 40.110655
  level: 2
  lon: -88.22725
  name:  'Gothic Brass'
- ap: 3474
  img:  'http://lh6.ggpht.com/1El0oK6CWDh7rAQeFmPEW_dA252pdq7piTtjtuQCkZvwRa689NLjEafLqQ35TI5qCW3Lmhja9PLQqKxFs9Ha'
  lat: 40.110627
  level: 2
  lon: -88.227584
  name:  'Tau Beta Pi Statue'
- ap: 3474
  img:  'http://lh4.ggpht.com/CZA6uXTYgSkrccw1vqf6XFlfkzl6I7Rj79GOKIYGvd1Zem8O1u-opoJu65ma2eHnKdfysF0mOVGzc_am2Ns'
  lat: 40.110623
  level: 1
  lon: -88.22799
  name:  'Eta Kappa Nu Plaque'
- ap: 3474
  img:  'http://lh5.ggpht.com/5WZPQL7oa-VYm5x9viEwKiCeApkaxUNXa-mHYU-9S9_fOCFAqFLktoU4hnu-RM6tx8X0tMs2PHUyDnkS6fqI'
  lat: 40.111391
  level: 5
  lon: -88.224416
  name:  'Gone Fishing'
- ap: 3474
  img:  'http://lh6.ggpht.com/eVUed3229Zh9saFzaZQcI6LXsyDB0IJxc9v-Aa9Oa0AhjQLXBIVSuu1qUQwJVXWgmXYPY9sqTzK73Le4BuU'
  lat: 40.11122
  level: 6
  lon: -88.224097
  name:  'Nuclear Radiation Laboratory'
- ap: 3474
  img:  'http://lh6.ggpht.com/g00CHgvPQnSjjPtDBIePwTKCNdh3HB7MmvYFvkSM7tmZuoBJ4WaKiltQhrfxIflpUy2xiNU-Z_Z2PGCTnXfK'
  lat: 40.110725
  level: 4
  lon: -88.223784
  name:  'Anthony Leggett Superfluidity Nobel Prize Memorial Plaque'
- ap: 3474
  img:  'http://lh6.ggpht.com/BsXdEO7HLxNLSdztPo_4GNNcbxZCxswiDT4pmmcfDQ8YO2SFVW-VnwyEZBvkuhf1rxKAtoKNLvV4rDJ-YVCYUK1qiX-dId_R8P-JskyFYAK9ruM-'
  lat: 40.110234
  level: 5
  lon: -88.224055
  name:  'The Etc'
- ap: 3474
  img:  'http://lh5.ggpht.com/NocB62Pnsk9rCOS8TWT0vfucrEDjwhiqaxl6SHRJjjHpHjSlG4IuSzbQb1B-SqYZVjQXekDUD0IZwmpMDycw'
  lat: 40.11108
  level: 2
  lon: -88.227392
  name:  'Stanley H. Pierce Memorial'
- ap: 3474
  img:  'http://lh5.ggpht.com/28al1CSkHNCrM9Sb57TYmawr1uFh6r5raWMJKD4QjLCj6N5YHEYIIizONs_hHF3pHuIppLjqxbTFcvrI9Dq9'
  lat: 40.111205
  level: 2
  lon: -88.227583
  name:  'Theory of Superconductivity Plaque'
- ap: 3474
  img:  'http://lh5.ggpht.com/LPlCgoOAlClRaVCl_B1sHDkn38OgDbXat-l5Q1bDZLP7mOUMfU8pK-o3N8BEqh0vHJcZBHo3iz2AMQKAhot7Tw'
  lat: 40.110833
  level: 2
  lon: -88.227425
  name:  'Engineering Class of 1975 Monument'
- ap: 3474
  img:  'http://lh3.ggpht.com/wOZOXhKOnhbKEPMQke-zGIG_vheDkHM8q19B1n_is5H7t1whBcQxBIGZI6VIPNw8mdCNXG6EUZeSjd1YLdngdg'
  lat: 40.108965
  level: 4
  lon: -88.227184
  name:  'U of I Mother''s Association Plaque'
- ap: 3474
  img:  'http://lh5.ggpht.com/Lup2et0i5h8oHqtBffIdoyX5uclC2MBn9ZnnKnYPr4RIFSflf9bi78zBHK7QqycA0qgEev9qOk0zU-1o1hg'
  lat: 40.108451
  level: 7
  lon: -88.228733
  name:  'The Centennial Colophon'
- ap: 3474
  img:  'http://lh6.ggpht.com/rnWumKyBYpVW5hCfQDlvRaT_666UPI5lo3k6HGdxWuLVsDbD8c7l-BU1HwhBqiGeCW28iEghSQtvZFzqK4w'
  lat: 40.109013
  level: 5
  lon: -88.22587
  name:  'Understanding Photosynthesis Plaque'
- ap: 3474
  img:  'http://lh4.ggpht.com/6WTMH3liIIuH6pEvRGZOkUNNR84nR8frjFch6yn_4mbGIokY-MajBCG6jZHWU37a8TBI97rYTBlX-ks8m5XJTw'
  lat: 40.112843
  level: 5
  lon: -88.227657
  name:  'Class of 1904 Flagpole'
- ap: 3324
  img:  'http://lh4.ggpht.com/BL7RVMX7ZBl59uh3qjTqPi1OQTCLnWHiY3GLhCR_f8oAL1PmddwJq3mnTe-UN1IYkQSOR5i2cgpaA6oNdny6'
  lat: 40.12807
  level: 4
  lon: -88.215897
  name:  'Busey Woods Trail Entrance'
- ap: 3324
  img:  'http://lh4.ggpht.com/Kq5hzq7sftozfR_8Nv4J5Kj_v6GRjAUYpOl5dY51VtoffI6BEICZDAVZx_fpVXOKjKsjz59uZjZRQ5jDaRhi'
  lat: 40.129687
  level: 4
  lon: -88.216152
  name:  'Stone Fountain at Woodlawn Cemetery'
- ap: 3474
  img:  'http://lh3.ggpht.com/Q2rFQkcNHwItWNXX2B0B65sANQ_gCk482p2HilMp7BeswGN9qevW8WBFQ1zUg2xkvlz8bqbDCg-C5NaxK2Jf'
  lat: 40.092639
  level: 6
  lon: -88.216599
  name:  'Frank Kari Memorial Bench'
- ap: 3474
  img:  'http://lh6.ggpht.com/VIR5QOoJxJTkU_ORRvXT6nF4VLY0DNaXrMkUJHzhnLzKIkZNUB6Y1SCJS9QUE5yJTn7Lo6-N_4HeDmtf8W5n'
  lat: 40.198853
  level: 5
  lon: -88.402357
  name:  'Lutheran Church of Mahomet'
- ap: 3285
  img:  'http://lh3.googleusercontent.com/hvoLMUc9UoNVVPttxWTc8PzOWdu5MBmPETnBexH7Alyl20WGCrNa0G_j7DwvD3qbhqpTaeThFhGDV2rCtp8'
  lat: 40.107629
  level: 6
  lon: -88.224484
  name:  'Bucky Balls'
- ap: 3098
  img:  'http://lh4.ggpht.com/8P--9BInbKIFscFZs2s_o1E9ucKlZlX9qxMu7aBxNJVOQDrVE0q27OE7h1idojQv2vaHjxT6h5F6Nvi7I-A'
  lat: 40.1016
  level: 5
  lon: -88.224039
  name:  'South Gate of the Greenhouse'
- ap: 3098
  img:  'http://lh3.ggpht.com/UcqV7o_Yw8_GGaaDMgHbyjMkowFd6fLEvVZpZ-gK4c0MfVLeIyMGz3v8JvS0D0W9p0eGJpr66nn-6KdP6iQV'
  lat: 40.100335
  level: 4
  lon: -88.226507
  name:  'Mt. Hope Mausoleum'
- ap: 2911
  img: http://i.imgur.com/5j1qaiT.png
  lat: 40.456986
  level: '?'
  lon: -88.380197
  name:  '4a8ea4fd88a348ea8d87cede62b4ce20.16'
- ap: 2911
  img:  'http://lh4.ggpht.com/yi9OPnLGsLTvtOMNuOUfed6edO9tB6h0QmSHJaKKaiMyEXC8Aj2hz9hIvgh8C2DY76mVgNHw4S0gsYpkPpkt'
  lat: 40.148692
  level: 7
  lon: -88.248724
  name:  'Fountain Town Center'
- ap: 2911
  img:  'http://lh6.ggpht.com/DumXNsG-1ULiWogpcQw-VzQVxr3f1Rb57MKc3GWEGzCwoIfDc8ErqGSPeDPGDyg_6fYtNnLQpFMP0zbDGTE'
  lat: 40.141598
  level: 5
  lon: -88.238817
  name:  'Red Shield Center'
- ap: 2911
  img:  'http://lh4.ggpht.com/9jXAzAxn0JZrLkU9VK9p-mNzjw3x_6QqwMAn4CAEBAHp_lo2iDZeV_y-hoUzP5CYwm8kOMyrTToZQOWJBRnw'
  lat: 40.115095
  level: 4
  lon: -88.249052
  name:  'Bayne & Schumacher Fountain'
- ap: 2911
  img:  'http://lh3.ggpht.com/1G0o5RjtXyfAjbI-E2honhhelnuiq4lIkpHmB44e-AwSBuIxVOdLPVYjImbTMS8kyBdZuKuiMQHciUIdAWg'
  lat: 40.118368
  level: 7
  lon: -88.243737
  name:  'Frank Robeson Memorial'
- ap: 2911
  img:  'http://lh6.ggpht.com/btym2_WGYuFNu2SNiR8qif7GXLMOPT7XpuHE7RPOipPC9Q5lEPfImKAzf2vm9RUe2rN0u3TePq4pM0IuZiLS'
  lat: 40.116436
  level: 6
  lon: -88.243459
  name:  'Champaign City Building'
- ap: 2911
  img:  'http://lh3.googleusercontent.com/EwXPPCiuVPRkECPKlJtyqReSySoJKEdwrx1MkNVUy6EM9xWU_fet1Z-sLfx_P2_c54DeJcApxdl-hKg9vGVEtw'
  lat: 40.108224
  level: 5
  lon: -88.223549
  name:  'Colwell Playhouse'
- ap: 2911
  img:  'http://lh3.ggpht.com/-p1CR-MEw_nnGMNLqcKVLoq-lgaxNYTd37J_sxs5ORcWO0Rjnk88yp4BLGDPGeMvqIfxxcOQsFbxvS_PbqWynQ'
  lat: 40.101215
  level: 5
  lon: -88.229077
  name:  'Illinois State Geological Survey'
- ap: 2911
  img: http://i.imgur.com/5j1qaiT.png
  lat: 40.186983
  level: '?'
  lon: -88.384566
  name:  '50006796477543f889671801f60b7403.12'
- ap: 2724
  img: http://i.imgur.com/5j1qaiT.png
  lat: 40.202899
  level: '?'
  lon: -88.426556
  name:  'Church of the Nazarene'
- ap: 2724
  img: http://i.imgur.com/5j1qaiT.png
  lat: 40.205206
  level: '?'
  lon: -88.393464
  name:  'ffb1c8830f184f8b9886fbf7c7604a37.12'
- ap: 2724
  img:  'http://lh4.ggpht.com/iF9ok9WK8tu0rwNJsbJggC_OqQxiqKIF9QRpGOgIrlZa4Dr4JYrLxWeFDe43Js9WGFiKCOlMNMZapd_SBQ5T'
  lat: 40.111945
  level: 6
  lon: -88.282707
  name:  'Champaign Cycle'
- ap: 2724
  img:  'http://lh5.ggpht.com/_Tp5JJFIIlt0iHHyC_A_gnEm1sxUEKDHmQr0oby74HL0rnFZ5JrnuvOTPk6_vulsU_GJue_7RAAX2Y7I2Wxw4A'
  lat: 40.132354
  level: 7
  lon: -88.292578
  name:  'Campus Solar System - Venus'
- ap: 2724
  img:  'http://lh6.ggpht.com/L2LdCXwXyxkV_ENkb567X8EtQ8713-lEbbpVfOAg4_yiMbHvUnq9u0Ks4DCgqlvRAUMgsoMJJR3RPsup2oU'
  lat: 40.122772
  level: 7
  lon: -88.30035
  name:  'Barb Babb Memorial Plaque'
- ap: 2724
  img:  'http://lh6.ggpht.com/y9bxecO9Wm4VrE6p2LRWA8XIIUlHlYWbTSZJ6GrJrTpeVtxB7wI7cWjdLkM6gjq_eOk7n-nJOlSJ9WzGjgfG'
  lat: 40.137123
  level: 5
  lon: -88.277784
  name:  'US Post Office'
- ap: 2724
  img:  'http://lh4.ggpht.com/T04oZ0k13H90w4QZ7f_QTFH-yrHJNyKsJ-hRWmNk2YnqBSy8KwGZrO0fb-YN5RhCi3vg_903yE64_J-JZu4Z'
  lat: 40.092883
  level: 5
  lon: -88.26295
  name:  'Temple Baptist Church'
- ap: 2724
  img:  'http://lh4.ggpht.com/Iw1zFYmvkp5-xEIthuGSfIqcCRd0lVw_uGS4y_I5DIg6xQ0CUp4_S4GL3JOWv7XFZLFqFH9O572bGCNhB78IMQ'
  lat: 40.102126
  level: 5
  lon: -88.283224
  name:  'Leonhard Recreation Center'
- ap: 2724
  img:  'http://lh3.ggpht.com/QXNgz_dPkVpVuz9Qr0CZkUJDftEdF2Hs8m3XkLjsM8Q3YkwkWpxt0rmtqJ-fFylVNnP4_r193_ZhBl2kSfg'
  lat: 40.129216
  level: 4
  lon: -88.219323
  name:  'Angel Statue'
- ap: 2724
  img:  'http://lh3.ggpht.com/bltQwmnzp2vSKYhLpzNLqB4iddy6ie0kWk9G7Wce4U9qmW3CABxbXAhF7v0oG9QLFD2q57UZuVqZCMgN3MHZfA'
  lat: 40.118335
  level: 7
  lon: -88.243408
  name:  'Downtown Fountain'
- ap: 2724
  img:  'http://lh6.ggpht.com/4K7T7_gGrfag_-Hep7ygH_rklKsjale4oo2CqJAFTpPB5EM4Dv8ZGyz7i_qUOuLnt16GWxDSJWCS8TZYyGY'
  lat: 40.115421
  level: 7
  lon: -88.243168
  name:  'Walnut Street Tea Co.'
- ap: 2724
  img:  'http://lh6.ggpht.com/NH1CnJnblS1bpZxZJ0VxAHy0tYw7BiYdVK5V9KnTw0N1KMf8OFR6FZP01shVet9ha4cEfSYufO9a1bv8Sqyd'
  lat: 40.12142
  level: 7
  lon: -88.243105
  name:  'US Post Office, N Neil St, Champaign'
- ap: 2574
  img:  'http://lh3.ggpht.com/yeYI3q7rDQLA5xBcWfH-Caw2Uh740ZPRQjjyvOrZz7ZyLI-gxBpi8yqxqDrlOBzG9YHs6YlxdgX0obTpXlQ'
  lat: 40.117681
  level: 3
  lon: -88.241405
  name:  'Jupiter''s Downtown'
- ap: 2724
  img:  'http://lh6.ggpht.com/q48Oqk2mm3dXQ2ppK-aYGXKjIiTAOEZfrFkiLK9LXRz2uN9hSKihKeCwfg33q1Z2zMTIMjqJRjPA1U_V3pbR6Q'
  lat: 40.104417
  level: 5
  lon: -88.231962
  name:  '1926 Sigil'
- ap: 2724
  img:  'http://lh6.ggpht.com/f43AXqkZOVuig6JgnORI4vC7QZWr2a0lnTW39-gMaRiWW13AuK6U0ZSoFc1k6xi2YvZU6ad6EC-xTq404ZM'
  lat: 40.103258
  level: 6
  lon: -88.241752
  name:  'Medical Services'
- ap: 2724
  img:  'http://lh5.ggpht.com/VYMooLhz51W3fCgti3L9LEQNMJjmFeW30saxIYK34yGEReG1naEKEd3eW1uyFgSlzpu-P5KertNDe4Z6qu8'
  lat: 40.109913
  level: 5
  lon: -88.228393
  name:  'Alma Mater Statue'
- ap: 2724
  img:  'http://lh5.ggpht.com/2zEYZdL0tuQhUP5HHcOYFsPQfjx-nNDHhi8DMJEzzkjbEA9hODz2iDCcmj4S9NEGBsHW4nYYR010lA_6kyhk'
  lat: 40.10038
  level: 4
  lon: -88.225191
  name:  'Eleanor Hammers Boner'
- ap: 2724
  img:  'http://lh5.ggpht.com/D1zsKK70zAgdoLVuLiwe4wSOzcUymV-oOWjlkykBN731trfiDH8wR0RjfrLCro9I0j_s-751wBvtojmD1vz5'
  lat: 40.100071
  level: 4
  lon: -88.227115
  name:  'Defenders Of The Flag'
- ap: 2724
  img:  'http://lh3.ggpht.com/7qvblF8IJPE_GlNC-0H-3-uvbw-LO0WvGTcs3eGsfxl9qIfPSHIoEP0WVScW5akBfIuNtHggyR43gyD6aQw'
  lat: 40.099867
  level: 7
  lon: -88.233082
  name:  'Stevick Family Memorial'
- ap: 2724
  img:  'http://lh4.ggpht.com/q2L_InMJy4JZq79dX9LLf9XauoaXGOLl7SWvVyD9F_jIgyqpn7SsqHfY9EMYq1SLteTpj0cQDZN4f9x0IuvV5w'
  lat: 40.107273
  level: 6
  lon: -88.222942
  name:  'Tryon Festival Theater'
- ap: 2724
  img:  'http://lh4.ggpht.com/d3UqrcK5M1wuOe19dIaBUOkrXF4C9IxhOWfxqzM4zIHkGsUIRb1mckNapOMRkkCtVIe0rzJumb1OVDVc1_Y'
  lat: 40.108055
  level: 7
  lon: -88.233688
  name:  'University Baptist Church'
- ap: 2724
  img:  'http://lh6.ggpht.com/BgudsSY0vPHxgxXELEIEROiOQIlMUEEycmutMqr-xgbLBf4OkD1cCogkqAOqKSfh1GR3pPAhW2bTe5FGfEvO'
  lat: 40.102058
  level: 5
  lon: -88.224635
  name:  'Champaign-Urbana Community Fab Lab'
- ap: 2724
  img:  'http://lh3.ggpht.com/uRfzF4ZYfUywrpeKAijCtI65UgwHP_5pgc37VOhSqnsL7lIfH4aAM3DK7HCnaTKSr2Zn24ZXjvW7xGDh-U8'
  lat: 40.100481
  level: 4
  lon: -88.226962
  name:  'Mount Hope'
- ap: 2724
  img:  'http://lh5.ggpht.com/dEeT4acpLu-WQFlZWd3psap5qAqqPTSVzm8Qt1QtpqtwZ0j1V9eKFcmpgN9K_x1PL4XVchuevw25rxHekz3tvQ'
  lat: 40.111968
  level: 6
  lon: -88.226793
  name:  'Bardeen Quad Structure'
- ap: 2724
  img:  'http://lh5.ggpht.com/SBfXBUHhVCYeWAJfYerukWz8LsUK23PjqJjy2Ju0vy7BSdHawWeWl-wiy8KIVhqKGDeNGwFdmyUA0JVsHV6tDg'
  lat: 40.129436
  level: 5
  lon: -88.219316
  name:  'The Hope Center'
- ap: 2724
  img:  'http://lh6.ggpht.com/orpM1lF6sc24rL0AGIiGqg18zTkIPXvZoM2xcA-mKGbaHOESuKbO_RQrwjxW9NTZjG0QqCRU9j2goZUvangFDQ'
  lat: 40.112894
  level: 4
  lon: -88.208433
  name:  'Boulangerie Mural'
- ap: 2724
  img:  'http://lh6.ggpht.com/jEub4RTtKqfEcjYNQDMtrj2tUL_R6e1kqZRi-xU7lZ00Gkn309unaXkzNzft6a67crWBUzDCb21a5HTTuCc'
  lat: 40.113065
  level: 4
  lon: -88.207546
  name:  'American Legion Post 71'
- ap: 2574
  img:  'http://lh6.ggpht.com/MsCeiBKy8tV3-ziINPCBPzkisfwOnBClSPr68FUxT1uMHlVmqtyTYYxNAZapU8bvWdcmm0lsmIzjMyv0CTJ2tQ'
  lat: 40.095364
  level: 4
  lon: -88.217386
  name:  'Miles C Hartley Selection Garden'
- ap: 2724
  img: http://i.imgur.com/5j1qaiT.png
  lat: 40.203973
  level: '?'
  lon: -88.393369
  name:  'Mabery Gelvin Botanical Garden'
- ap: 2537
  img: http://i.imgur.com/5j1qaiT.png
  lat: 43.178382
  level: '?'
  lon: -85.253028
  name:  '76f28afcf29b447eb9e6711aa7896fd1.16'
- ap: 2537
  img: http://i.imgur.com/5j1qaiT.png
  lat: 40.566892
  level: '?'
  lon: -88.616741
  name:  '13d63d6da6bb41fb858b8e714d957975.12'
- ap: 2537
  img: http://i.imgur.com/5j1qaiT.png
  lat: 40.197611
  level: '?'
  lon: -88.379636
  name:  'c0d2f9a95059400cae0121be7c58b495.16'
- ap: 2537
  img: http://i.imgur.com/5j1qaiT.png
  lat: 43.174224
  level: '?'
  lon: -85.254475
  name:  'aa3128072887407eaa34d512ea7526dc.12'
- ap: 2537
  img: http://i.imgur.com/5j1qaiT.png
  lat: 43.18026
  level: '?'
  lon: -85.253019
  name:  '84f67bd49a3a4251b189c9ef1a411f55.16'
- ap: 2537
  img: http://i.imgur.com/5j1qaiT.png
  lat: 43.183592
  level: '?'
  lon: -85.252681
  name:  '81c060ae702549d69c9602339d682847.16'
- ap: 2537
  img: http://i.imgur.com/5j1qaiT.png
  lat: 43.179263
  level: '?'
  lon: -85.252962
  name:  '4fcae39e258e4397be5c067d6a7bef08.16'
- ap: 2537
  img: http://i.imgur.com/5j1qaiT.png
  lat: 40.568258
  level: '?'
  lon: -88.616424
  name:  'a768950918e840b489f44c8e9678f62b.16'
- ap: 2537
  img: http://i.imgur.com/5j1qaiT.png
  lat: 43.176691
  level: '?'
  lon: -85.25333
  name:  '63a5424c4f7b4163abe1bb161c0cc541.12'
- ap: 2537
  img: http://i.imgur.com/5j1qaiT.png
  lat: 43.177124
  level: '?'
  lon: -85.253333
  name:  '74af473bd3cd4c7d97f3f583c309865c.16'
- ap: 2537
  img: http://i.imgur.com/5j1qaiT.png
  lat: 42.396753
  level: '?'
  lon: -86.281814
  name:  'd611583f95144b9894b10ab078e2c6a6.16'
- ap: 2537
  img: http://i.imgur.com/5j1qaiT.png
  lat: 42.052287
  level: '?'
  lon: -87.670031
  name:  '72cf3fe63ede41beacf20800b753a776.16'
- ap: 2537
  img: http://i.imgur.com/5j1qaiT.png
  lat: 43.180804
  level: '?'
  lon: -85.253018
  name:  '8fb4a389850e498b8203c68428d6957c.16'
- ap: 2537
  img: http://i.imgur.com/5j1qaiT.png
  lat: 42.00285
  level: '?'
  lon: -87.661076
  name:  '56fd610016654193b0f5914e1145f80f.16'
- ap: 2537
  img: http://i.imgur.com/5j1qaiT.png
  lat: 42.384962
  level: '?'
  lon: -86.278719
  name:  '7c51f3bd04db435981288cbd96ac6312.16'
- ap: 2537
  img: http://i.imgur.com/5j1qaiT.png
  lat: 43.179662
  level: '?'
  lon: -85.253046
  name:  '311bbb35439b4093927a2c98d6f5ba5c.16'
- ap: 2537
  img: http://i.imgur.com/5j1qaiT.png
  lat: 39.805332
  level: '?'
  lon: -89.668579
  name:  '72d08d6a0b50492b8f0da47dee22b241.16'
- ap: 2537
  img: http://i.imgur.com/5j1qaiT.png
  lat: 40.373063
  level: '?'
  lon: -89.54706
  name:  '8d62ca11e9b74fc5bf6b37fd9d0baeb2.16'
- ap: 2537
  img: http://i.imgur.com/5j1qaiT.png
  lat: 40.026865
  level: '?'
  lon: -88.535309
  name:  '978bef9392354bf895fe9c00c1cf2a7f.16'
- ap: 2537
  img: http://i.imgur.com/5j1qaiT.png
  lat: 39.714759
  level: '?'
  lon: -88.473589
  name:  '3210233e62ce4931a16fbb519cdac05a.16'
- ap: 2537
  img: http://i.imgur.com/5j1qaiT.png
  lat: 43.176115
  level: '?'
  lon: -85.253492
  name:  '3426a2d4eb8144a1831b6a1168144849.16'
- ap: 2537
  img: http://i.imgur.com/5j1qaiT.png
  lat: 40.75263
  level: '?'
  lon: -87.997967
  name:  'Gilman Amtrak Station'
- ap: 2537
  img: http://i.imgur.com/5j1qaiT.png
  lat: 40.568177
  level: '?'
  lon: -88.617642
  name:  '57a8871d872d4adaa2bdeeef216f64b8.16'
- ap: 2537
  img: http://i.imgur.com/5j1qaiT.png
  lat: 40.884622
  level: '?'
  lon: -87.955079
  name:  'c8cf674c13574f998c8d20635aa3b776.16'
- ap: 2537
  img: http://i.imgur.com/5j1qaiT.png
  lat: 43.178188
  level: '?'
  lon: -85.253076
  name:  'ab08cb33f4704b068f100d9ca300de98.16'
- ap: 2537
  img: http://i.imgur.com/5j1qaiT.png
  lat: 43.177629
  level: '?'
  lon: -85.253039
  name:  '76b1a662f9e94120bd993da38781a8cb.16'
- ap: 2537
  img: http://i.imgur.com/5j1qaiT.png
  lat: 43.182826
  level: '?'
  lon: -85.252909
  name:  '0b2a98fbbdeb4ffba2cdb717b23604e2.16'
- ap: 2537
  img: http://i.imgur.com/5j1qaiT.png
  lat: 43.180029
  level: '?'
  lon: -85.253006
  name:  '0c06e301ac794bfd95c05dbcae57bfc5.16'
- ap: 2537
  img: http://i.imgur.com/5j1qaiT.png
  lat: 40.113259
  level: '?'
  lon: -88.369764
  name:  'Bondville United Methodist Church'
- ap: 2537
  img:  'http://lh6.ggpht.com/pRR6eCp2PyD3vDZlmHjKOeq8OKg0KhFPVnuWAP-pB7RR36eKA3TlQwYX5pwYfBjPyVyB4oPXXOomdbqpVcY'
  lat: 40.116065
  level: 4
  lon: -88.313206
  name:  'Alan Green Memorial'
- ap: 2537
  img:  'http://lh3.ggpht.com/eFFdc4ogWkS9n6Texp4aw9BhK-M6FRxwvMRH-YkXj7JP7qSRQdo7E0-0O4P7NawgvduxpxgjnbGHbN1BjW2_'
  lat: 40.114585
  level: 5
  lon: -88.311371
  name:  'Joe''s Park'
- ap: 2537
  img:  'http://lh5.ggpht.com/bxjTJmHRd1_7x6zw7y1Eir0opWUqtbJOdAC4FxDOfOBVdUI1zEVV9wo5FiHzTxqR7hajj-4tQrnSyAe2b8Y'
  lat: 40.113974
  level: 5
  lon: -88.311234
  name:  'WBGL Radio Station Headquarters Plaque'
- ap: 2537
  img:  'http://lh4.ggpht.com/2JNDO54Hu2KzjIaEeCIFVgD7gEa5VXNBsIemFYp6cgiTUbsSpOwLTc-HqZb__uut24jHpVnQVokRVtL00ozu'
  lat: 40.132056
  level: 6
  lon: -88.292671
  name:  'Campus Solar System - Mercury'
- ap: 2237
  img:  'http://lh5.ggpht.com/aQ8b5PgXfzXy9_ygEUVeyrDoWsMYI5hbzCQed6vsWCAKGuIJ2n7QoxdfXCw_IrD8OFepLBgrLkkdM-tqd3aP'
  lat: 40.123697
  level: 2
  lon: -88.299824
  name:  'In Memory of Steve Barnhart'
- ap: 2237
  img:  'http://lh3.ggpht.com/uMCsrCj0b8EWJ6Hinp58rZ4hjaPm9kBAK5q0aDNtkP3e1Zk6Gh_0COjtW2YYBNzPxGDjJLB4DIXmiyvmrCJkRA'
  lat: 40.128083
  level: 3
  lon: -88.290812
  name:  'In Memory Of James D. Pruitt'
- ap: 2537
  img:  'http://lh3.googleusercontent.com/eGP4sxnePximEFk88kdcqNxeClf1LjUbwiPTwKmCfStyP9CAq9qGtzAsbEcVWEaS0KyG8LQn7SgS3X07OU4f'
  lat: 40.122643
  level: 6
  lon: -88.300552
  name:  'Powell Park'
- ap: 2462
  img:  'http://lh4.ggpht.com/_DdMD5B3oAmaUEJqlPNFfAWQrMTK0WD5vOIgHVghvtpeVkopnRr7-vjxpi9E9T1LgqRmxZQBleJuat7SCMNc'
  lat: 40.134378
  level: 4
  lon: -88.277984
  name:  'Champaign Water Tower Mattis'
- ap: 2537
  img:  'http://lh5.ggpht.com/XSTOU98iZoBFcDNR_YYJQfmQaiD_vXAP5Z7R79nVC7k06VMhH8tHSb9Yb9Pe8OnV1svwvlvy6iyz6vMjg3_EzA'
  lat: 40.132804
  level: 6
  lon: -88.285013
  name:  'W Glenn Karr Memorial Plaque'
- ap: 2537
  img:  'http://lh3.ggpht.com/jr89yrsC941ycnfQPQzYkTPCedQ8Suo8eiPCcNLvq0n0fw48_pywxGTqTsKaVh_KXAiza3ke5pjMejqiaD0'
  lat: 40.111568
  level: 5
  lon: -88.267345
  name:  'Illinois American Water Tower'
- ap: 2537
  img:  'http://lh3.ggpht.com/xN5qaZ1d4qIQE8TID35MPTmzahhM09EYDVLbu2aeCpRJz9XntEf7R0XswEdQDOmdMpZxIEyNyqsC5qll3vfv'
  lat: 40.082343
  level: 7
  lon: -88.247404
  name:  'Larry Kanfer Gallery'
- ap: 2537
  img:  'http://lh6.ggpht.com/MTA_e4qROhbvq0DM0fK-MDV_Q9UP_4tg1c8aElTEpn-rFf6ESmOnvNXtFgISg3MiW889YcO3pP2tgCk2UcZP-g'
  lat: 40.127376
  level: 5
  lon: -88.265191
  name:  'Thompson Park'
- ap: 2537
  img:  'http://lh6.ggpht.com/lcnaor8q6SYRZYMm-tUZtz1sXP81Bdwoa9Pf8LC0Vfggxa8JP98UTcgToQqXfmu99JegLd6L3Pb3aG6XjSQH'
  lat: 40.106714
  level: 6
  lon: -88.267574
  name:  'St. Peter''s United Church of Christ '
- ap: 2537
  img:  'http://lh4.ggpht.com/UsWzXzHhg7iWYqgGNNqj1XXLWp2Oj6pNxp7R0PwHI8tzNVuJwD2K0KgVwc0BR_9MEu4QalqL6x1cBnT_vz89'
  lat: 40.108739
  level: 5
  lon: -88.268838
  name:  'New Generation Christian Fellowship Church'
- ap: 2537
  img:  'http://lh5.ggpht.com/_quRYtw1nQsDlSn7VjdJ72LlgiwnF7tlWU9s2H40vdM6ILPMiOgmzt_fUXz7ocFI5MT7YWs-smZ9a6H7XR0'
  lat: 40.101822
  level: 5
  lon: -88.282612
  name:  'Winifred Nielubowski Memorial Plaque'
- ap: 2537
  img:  'http://lh5.ggpht.com/9VuH5-qaoobAtdEZFkn2uoAcJS5Luq9QLXRevRpv9WAzkjoAB_9hftbELGCCm8M4rxAJ5xTfJWd6E6kb0Or7'
  lat: 40.102016
  level: 5
  lon: -88.281983
  name:  'Centennial Park'
- ap: 2537
  img:  'http://lh4.ggpht.com/8Yhp3k9rCZps2AgalC_ip3F4DfS_sWuoDsILaXrP4RmZLhthvaiibjiEOn68zQ_QZyQu1Jyj8yb2lmNUNmrR'
  lat: 40.101186
  level: 5
  lon: -88.282524
  name:  'Rotary Shelter'
- ap: 2537
  img:  'http://lh6.ggpht.com/_MJDV4NA2u24dbhr1ulyabSdnTuUBUv1xFpOPKbit_dHtoaRkFxqDHaRZBZ196LNyiSHUE5lNT4MCbhqCrzh'
  lat: 40.098459
  level: 5
  lon: -88.282083
  name:  'Flower Island'
- ap: 2537
  img:  'http://lh6.ggpht.com/wNRP75KigUqlahXLbqAEKGIz2n2kFEiPnl8N9wYTLbnMdYASRbhsFYo33DyVRETf0fgmad8RuO3z7j3tV50'
  lat: 40.097001
  level: 4
  lon: -88.276242
  name:  'Robert P. Simon Trail'
- ap: 2537
  img:  'http://lh5.ggpht.com/tuo_ByFTbwLitFP5cBseOibqRxENxbCwOJ30dCnja5ijBI_qBv5vqNP7ZuZXnxhYM6ms_GbExZEwwKVUtwV2'
  lat: 40.093712
  level: 6
  lon: -88.281583
  name:  'Brownfield Dedication'
- ap: 2462
  img:  'http://lh6.ggpht.com/p2F3xw4xL4UdiMM9aSy628ISSglrvjPexpF3j340tMAP9MX07yh_sJv7kHVkeud8lyFf2ZwDohw3zsRS2PSd'
  lat: 40.093914
  level: 6
  lon: -88.281531
  name:  'Terry M. Warmbier Memorial'
- ap: 2537
  img:  'http://lh6.ggpht.com/wk0l8Qe7j_Ph_LhyPvdNO6g8nwrxpswodrbNuOzLa3K1QNBrIVidi9iztmDXu3HtCWo5TpqDDjPsEbSl2aWUKg'
  lat: 40.144554
  level: 7
  lon: -88.248689
  name:  'Town Center Park Champaign Park District'
- ap: 2537
  img:  'http://lh3.ggpht.com/xAJIzhGMpnqEYisIgB5-btiULPi6cL4uLys9fqf8_smF-6qAXP9rUsCbWIgPVIIHfGINQNF2Ypx58YvDo1hh'
  lat: 40.127093
  level: 6
  lon: -88.23927
  name:  'Bridgewater Park'
- ap: 2237
  img:  'http://lh5.ggpht.com/FEi_8ic1_FXYTyUlXgNz6IOiBsLCPTURCMQCXc2T-lpcQV-d_wdBC3YEDYltNn09_oi76voYbhGSi8P6r6QZ'
  lat: 40.141914
  level: 2
  lon: -88.235279
  name:  'Judson Chapel Baptist Church'
- ap: 2537
  img:  'http://lh5.ggpht.com/93SMm7gYjGLu_6bFOqGL5MXKxKF_NsnHuxiDyywI_Jrhz-LaQoNlm0yw7lG0I9rhp5vnHkATk01A_CNYmYf-'
  lat: 40.128358
  level: 7
  lon: -88.243471
  name:  'Champaign Church of the Bretheren'
- ap: 2537
  img:  'http://lh3.ggpht.com/IKYzmqr6aeIX2d99jn1dQHjjq0-h7glRdyPEPoTdQnggoAgc8uutzh3X4OYjcCllXVp5r9rYyYnVPwNALI8B'
  lat: 40.115178
  level: 6
  lon: -88.246191
  name:  'Clark Bar'
- ap: 2537
  img:  'http://lh5.ggpht.com/KYppjeOoIlb4lbowRrrC5qRdYW7_KU8rzjtDMpvhh-Q_c6VZOTtVmOqmmxChJA2hjlpS5dJ1JnhUQcKUAXDWHA'
  lat: 40.117976
  level: 6
  lon: -88.242642
  name:  'Stevick Building'
- ap: 2537
  img:  'http://lh6.ggpht.com/SCYK-XeMmOyfRrTt1-aQNoDA-2Sib4m5Ch26mTwo6XNdVeVnfi7W74Ik6IRLAPSoKzSS97pgwt50Jl9oSgGfP029USxZzQWKNJo3rbs-6YHBPBif'
  lat: 40.116792
  level: 6
  lon: -88.241752
  name:  'WEFT 90.1 FM Community Radio'
- ap: 2537
  img:  'http://lh3.ggpht.com/my_h4qixFMd6jwP9asxucVH5iZ3ZW1oV4DbCKeys_8MAAp1-KYNV0YFzZtZTEd9L0ZaMl1OqucHJTPdwROI'
  lat: 40.127447
  level: 5
  lon: -88.244069
  name:  'Hazel Park Playground Dedication Plaque'
- ap: 2537
  img:  'http://lh6.ggpht.com/rGhR45ZFbHtxmrZSSy9V19eFoyHIDB42c6MK188isPJFWpUsW9ywNHayKt3acNvKNC8DAV6mDkUloj3aiS4'
  lat: 40.118422
  level: 6
  lon: -88.24346
  name:  'Entrance'
- ap: 2537
  img:  'http://lh3.ggpht.com/AD9d7JPmLdYRdpxESO9iORy1GRXAcN1jzn8dDNvm6FO7cIHVsjwAKI8LmbW4dico1Xe9jzJfsZZriP0CxXA46w'
  lat: 40.104084
  level: 7
  lon: -88.241616
  name:  'Honorary Memorial Steam Ventilation Pipe'
- ap: 2387
  img:  'http://lh5.ggpht.com/PI7unWl258r16aSzGzVzmXA-tipsw3vs3MDDXFtwzlkmMfJBhVSwfeOHQxAZLTvdPTJSP8gNbAdJGdslEdkZXg'
  lat: 40.119636
  level: 5
  lon: -88.243213
  name:  'Sunder Planet'
- ap: 2537
  img:  'http://lh6.ggpht.com/yoVMhDWju7bkAa8CImnlTqi4n2uH0odsX-LgEGeq_lqcXSmf2HQxX-c00NB1noOlmnFs51tZqBQXBLIJRfr8'
  lat: 40.117495
  level: 6
  lon: -88.241616
  name:  'Lincoln Building'
- ap: 2537
  img:  'http://lh4.ggpht.com/EbBkWl7u8IzfuSOKbXTBKdMileYrjubgGK5MOwxzEGIDtOO8oYloK2Mh-oe6t3SLxiC4Dul0W7en-SG0hw4'
  lat: 40.124346
  level: 6
  lon: -88.243367
  name:  'Bannon Mini Park'
- ap: 2537
  img:  'http://lh6.ggpht.com/_rfJReDlJdrYezXwl9C7a4r7ZMCEE2RZ9dek5gQwKkC4sFtmFVfYF7S04SQXmjcksfbCvLWlOEuqOjxWnX4'
  lat: 40.12284
  level: 7
  lon: -88.246749
  name:  'Queen Smith Memorial Garden'
- ap: 2162
  img:  'http://lh3.ggpht.com/S2DoIWxkTKxG56hK4lv2QLq8peGyxtsYcpRM7vWxcHOxECyRXDdeMhD-3E7munflftWVVu_FusxLxzJKIOI'
  lat: 40.110892
  level: 2
  lon: -88.241745
  name:  'Twin City Bible Church Midtown'
- ap: 2537
  img:  'http://lh6.ggpht.com/Jj5dr0C8flwov23nPbKRDVme7HOE0xZvNC6JkRscLlNqRr6uxkxBExdu-rQUdt9kZtd9e5dvHsv6Vs1Hdtd9'
  lat: 40.117186
  level: 6
  lon: -88.241556
  name:  'Champaign Limestone Sidewalk'
- ap: 2537
  img:  'http://lh5.ggpht.com/i4vhf0keizfRaw4w5qKu8YUc1txf5iLQ150hy6mMCfWoAnogMM1zvuNMLHWlmD71OFWisN1QR3VA7VWviCpm'
  lat: 40.130238
  level: 7
  lon: -88.253835
  name:  'American Legion Post 24'
- ap: 2537
  img:  'http://lh4.ggpht.com/_jAAuDi8SO5uupi8JlB3HZaFG40S15izNv_3vqOt7ro2rRHuXrfdEKfEFvRESdAjCEz3RVDpyrxJGSIrju5d'
  lat: 40.117916
  level: 7
  lon: -88.243087
  name:  'Sholem Building'
- ap: 2312
  img:  'http://lh6.ggpht.com/QKHOcl5WKE1EB7Y8PfPqhuJQN7SxpWIvLb13vJp2KJC61ToSi1evTEpgeOtPjAfKuIlQnBq1tApVM5TwJHI'
  lat: 40.118042
  level: 4
  lon: -88.248912
  name:  'Indian War Memorial'
- ap: 2537
  img:  'http://lh5.ggpht.com/KadNuhjGK6FUXezGHW1W1kfPOQV5l7gJP594EQm5nPZFLTgcTsjl4ixa-j7XitgtyJyou3q0pTfMr4i2E_avIA'
  lat: 40.118013
  level: 7
  lon: -88.243445
  name:  'Clock at Neil and Main'
- ap: 2537
  img:  'http://lh4.ggpht.com/dIZMnnUykBHkwUGA_tGi7tq4m0qCooVejZqueoqq9NjBXvZgz1QUEqS-vJhsYu3v7pW_0xejLfH9QeziW28I'
  lat: 40.097472
  level: 5
  lon: -88.259842
  name:  'Indian Acres Swim Club'
- ap: 2537
  img:  'http://lh5.ggpht.com/H88EzgVTAsWrhBcyG4PwdAbPDu4BLlyXkVIBnJ6gtmNusC2MU2vLumSrYGbl_7GmGJ7f5kE-6ebyy_VokU0L'
  lat: 40.107512
  level: 6
  lon: -88.244964
  name:  'Fellowship Circle'
- ap: 2537
  img:  'http://lh4.ggpht.com/DJiaqGgwCaKSjYczELIcjQOeBtoEqd--7TZYBJWO9_Nd16vjKwlco9tKatJTdAKT1CPoO7Cj39_rZvp8p0Ch'
  lat: 40.087241
  level: 7
  lon: -88.248222
  name:  'NCSA Blue Waters'
- ap: 2537
  img:  'http://lh5.ggpht.com/qq3QmeyCYxWnJF_DzzI5wVvHF4foNyr_bF3_j5eVPHJ1omSbD2INOifPJEO3pjz4X1l4_wMGD4uOT1_w6Tid'
  lat: 40.086713
  level: 6
  lon: -88.248293
  name:  'Garden Patio'
- ap: 2237
  img:  'http://lh3.googleusercontent.com/8-4OkyRuEuagHGkNAbCDDtz9k34_nWE1lFlUqdqVSLAtsWkVNv5G84IpnbtVcup3-x3u4q6_AJ0OxQdkdt1-'
  lat: 40.113304
  level: 3
  lon: -88.240009
  name:  'VW Bug On The Roof'
- ap: 2537
  img:  'http://lh6.ggpht.com/Nv0tMktEkkuoGtg1QEPS1N2nTcBPg8ipu31i72XPDTGQ4HQI5oL58Ig8kofXUH_aCC2aaJ-NylWKPkC3hIBS'
  lat: 40.116218
  level: 6
  lon: -88.228757
  name:  'The Presidents'' Walk'
- ap: 2537
  img:  'http://lh3.ggpht.com/161K1avC8teYs8PtJMANd0cBrff72XYRYh2Gjg2_KhkEh6_F6MLd3cfHIXwK8zegd65ISEVxmEoD5THpeY-Q'
  lat: 40.112553
  level: 6
  lon: -88.236253
  name:  'Scott Park North Entrance'
- ap: 2537
  img:  'http://lh3.ggpht.com/ei2Kly4PJYB7wpv5MtMVvHz793oQIWOLbz-mjq2ICitv-6BTGVsfA0kPQXiwg3O2Mi__LvZvuashS63u2rwa'
  lat: 40.117638
  level: 6
  lon: -88.227214
  name:  'Under the Sea Mural at Presence Covenant'
- ap: 2537
  img:  'http://lh3.ggpht.com/gmbd8dsk--9MGBF9b8_huzNpPbjrzDw5R9UjqSiA05cRHUIOQRcR-dODKZ9oGUjBnMfufSVzvCekV_YsoOM_'
  lat: 40.118013
  level: 6
  lon: -88.227532
  name:  'Presence Medical Center Triplet Mural'
- ap: 2537
  img:  'http://lh4.ggpht.com/QK-MghSPteFj84zczypfRI354OtF0Ptf0u9QhOj1inCSQluqoDym0gzN3kOOvcmZUZ2CTxbjRprUJ0SB3lpC'
  lat: 40.107975
  level: 5
  lon: -88.223153
  name:  'Krannert Amphitheater'
- ap: 2537
  img:  'http://lh4.ggpht.com/S734i_6SihPtJW8WdegLb3gEuKeNx8e1qDm6CXjREzYHohw7XqL82m4EF2K5nS2TixHweLn3EuJ4YoQnrsw'
  lat: 40.107751
  level: 5
  lon: -88.231532
  name:  'Graduate School of Library and Information Science'
- ap: 2537
  img:  'http://lh6.ggpht.com/hPutcAvS7zQN-tagfEY-fvkvdlgj7j5sZwUSLY883Twc7tHyslIAp7lzWYciJmCytDfsbFQtavAlzqGwCgFZkw'
  lat: 40.105562
  level: 5
  lon: -88.234991
  name:  'Acacia House'
- ap: 2537
  img:  'http://lh6.ggpht.com/MzDfG6eMMwVr56zIpVxRJKU2aoUq-95CLeBhoiEQQKzpC2zulq5jFDLv1IK0JcRy5Q0PhRAreZ1p2ElsdnNu'
  lat: 40.108048
  level: 4
  lon: -88.226279
  name:  'Nuclear Magnetic Resonance II Plaque'
- ap: 2537
  img:  'http://lh3.ggpht.com/POVqVDorpNyT78a1jNBYargU2WzX94oR7tmPRWdJpIYV2w5OZwXO5M0mJU_sIMCB-b3l1-mcCmck-f87iAw4'
  lat: 40.090059
  level: 6
  lon: -88.219342
  name:  'Illini Nellie Memorial'
- ap: 2537
  img:  'http://lh3.ggpht.com/RPwmqKgDoVBfLknuC-LM6Vvni6av9IgVxpZapS8lQSDH-fHokPS_j6pH-R9dax4sKqOB5naETVESobfZWDrC'
  lat: 40.102705
  level: 5
  lon: -88.225051
  name:  'ACES Library Information and Alumni Center'
- ap: 2162
  img:  'http://lh4.ggpht.com/tLX-6Ub72fZQHiUgdDlTCFdgJMzvyICnd3BUZ2CkMd1kPhODSr7FDW_rVkZTBZ11U6gjZULvMZGnHcm4p1wo'
  lat: 40.10309
  level: 2
  lon: -88.23142
  name:  'Gelvin Garden'
- ap: 2312
  img:  'http://lh4.ggpht.com/lHmHpXRMH_OkQ_ZaCBKOe_1H4uKjbGtrlIrp1IWJE3ziHuH5jCVNEfDGTtuhBxGehg_MsT9WcAUXhpI692Y6_Q'
  lat: 40.103269
  level: 2
  lon: -88.231487
  name:  'Culture on the Prairie'
- ap: 2537
  img:  'http://lh5.ggpht.com/Tn5ARN-X6VTc2q6atZ2WYq3c2g3gbSGXu6_vXf1MDwHfLpdTtnQ-CilBAVGvL6R-SHhq3fJ4WZI-yiJKmIId'
  lat: 40.110398
  level: 5
  lon: -88.235143
  name:  'US Post Office, E Green St, Champaign'
- ap: 2537
  img:  'http://lh6.ggpht.com/yYW6Egg1lWn6UqqLzlgqwCQhtbuxiZSW4TmvI1XBPs33OTTJ0oh51XZXOIILxGI2juoO-E_YfG5UHmeb34rSOw'
  lat: 40.109165
  level: 3
  lon: -88.230269
  name:  'John Street Plaque'
- ap: 2537
  img:  'http://lh3.ggpht.com/Eeot2xjiHI3jS56J2sySBOH0hRVa-VNNF9JZx7nFzgh1-Y6lhbMuognHS-CcMuIuAHyJzWmLBtkQv49sUO2KOg'
  lat: 40.098321
  level: 7
  lon: -88.23191
  name:  'Clinton Craig Atkins Memorial'
- ap: 2537
  img:  'http://lh4.ggpht.com/mHAXKPtOyg_DWRs5A_0yhGeDsfU4f4o3xJvzziri7o3ksPPKtMAHUkUBOb0JJ78gArdP5Q6O-UiXNDG3RHaIYQ'
  lat: 40.109339
  level: 5
  lon: -88.234149
  name:  'Alpha Delta Phi Fraternity House'
- ap: 2537
  img:  'http://lh6.ggpht.com/n_LMwtvxbWlYfCgK6MerzbQVpmDR9rqxJUrEnA8OAeCIYBi6zbeLqYCldCtXZDSV1IHsYOpgoO60Od3TGJ3h'
  lat: 40.103207
  level: 5
  lon: -88.224601
  name:  'Darrell A. Miller Memorial Tree'
- ap: 2537
  img:  'http://lh5.ggpht.com/39qvivJbsTr57F8HWz9_3WhqwtI6kCbL9qeIckApwB7s51qHqm4RS4qZLPkY2GUv6A2wi2wrlNxhnIN6xGKS'
  lat: 40.113427
  level: 5
  lon: -88.229089
  name:  'Lee Williamson Memorial'
- ap: 2537
  img:  'http://lh6.ggpht.com/do_DYaj2kuC0reA8E9rCQLDp9K62ZQd4qfV0SBSo8iPPupN2U8_deQ7GHA4zS42XaiZnPqoObG_y_dRCUwNa'
  lat: 40.11283
  level: 6
  lon: -88.209282
  name:  'Cycling Mural'
- ap: 2537
  img:  'http://lh5.ggpht.com/gzRmKQixkcp4cu1yDSKAOq_7_ipKvFWUCHT7BfpjE6VSSAq7Q08JJGg_jt4FCMWU3ie65fwweNlj4n6dg1aQIA'
  lat: 40.111419
  level: 5
  lon: -88.209885
  name:  'Megan''s Garden'
- ap: 2537
  img:  'http://lh4.ggpht.com/g8tAznMB64NxNMd4eYtF27DhNprtAqnBEt_llGcKp1qpKQeUvyHBi8p5QuGURqAGieaeJscmQPi6Wosmutg'
  lat: 40.111328
  level: 5
  lon: -88.209207
  name:  'Urbana Free Library'
- ap: 2537
  img:  'http://lh6.ggpht.com/FsUBggh0M3sjncoth6JaamkCglQtDsuiR89k30B2sMp7srgh0Hz6trgv7BhNRSJA6qI7OvipV8B3XEhzHmaNxA'
  lat: 40.113513
  level: 7
  lon: -88.207559
  name:  'Black Dog Smoke & Ale House'
- ap: 2537
  img:  'http://lh4.ggpht.com/dfv9WXc8AIG4SQiUR41qrJI0-s2-zl6hcMaPJOetGKZ2R1dknt0mX1ghGf1zcPNzXcOFpjVSvmXELswwTMO8'
  lat: 40.09627
  level: 7
  lon: -88.218588
  name:  'Idea Garden'
- ap: 2537
  img:  'http://lh6.ggpht.com/legLi0XmRjPurKft7y0doBF3_QTcQw48-2M6U6keO-igsaBwV7K7VsreZS75n5PFh4bAPNJhEMohwHvtJwOw'
  lat: 40.11277
  level: 5
  lon: -88.213565
  name:  'Horse Sculpture'
- ap: 2537
  img:  'http://lh6.ggpht.com/31TBN17Cx0Fe1NiJxyZ2ecjiytN2gTnDvKY2HaYZWlZCKQIwphNyogO99YqmixHdSlxZTNeHV-qIJA9xDygt'
  lat: 40.112683
  level: 6
  lon: -88.214214
  name:  'Phillips Recreation Center Playground'
- ap: 2387
  img:  'http://lh4.ggpht.com/ZIOjKYlH2wMvdRD5A5HKGJPgBUYAaA7xHjGYnoXNzhzPIE6KR05FBciTJcN-AojoLyuwRlp3SF3TR1PXBrUPjw'
  lat: 40.094935
  level: 4
  lon: -88.216986
  name:  'Leroy Hubble Honorary Bench'
- ap: 2537
  img:  'http://lh6.ggpht.com/tvtZZis6qG1YsnE4ZRp9fdL3-XEu08jw8oYvSOYqkbrIkD71abS7blCPv63VovyNFWlpHvmXTjl3tl-lXII'
  lat: 40.092821
  level: 6
  lon: -88.218095
  name:  'Japan House Tsukubai'
- ap: 2537
  img:  'http://lh6.ggpht.com/VUiJw2p9vjgP0F_q_V_AeIeL6ZgjRVgXYCi1RfATkyViyTqwz2d5-dFq5rtfxMMufqEfVcxf5WUjHbr6J20'
  lat: 40.096039
  level: 4
  lon: -88.194729
  name:  'Koishikawa Rotary Garden'
- ap: 2537
  img:  'http://lh3.ggpht.com/xEgJrsYzA7NN_7_-gz58wAtq82PJpylsKMOKP_AAyghUVm5dGsY07eDHCPC3B_cfRUiaqmA7-DNrIDWPtLw'
  lat: 40.09657
  level: 5
  lon: -88.194695
  name:  'Crestview Park'
- ap: 2537
  img: http://i.imgur.com/5j1qaiT.png
  lat: 40.186782
  level: '?'
  lon: -88.375899
  name:  'Mahomet Public Library'
- ap: 2537
  img:  'http://lh6.ggpht.com/EpDmgl9Bi8qdvvRTrGPo2oNcd7kOJPiS2S30s9QEI-CzsTS1vWcWU1xds42YMD4AxCuLpDoKvGSeGtvjDNu-'
  lat: 40.189224
  level: 5
  lon: -88.397522
  name:  'Lions Pavilion at Barber Park'
- ap: 2537
  img: http://i.imgur.com/5j1qaiT.png
  lat: 40.192319
  level: '?'
  lon: -88.385859
  name:  '57cc7dcf26b142eb8e2995448022c15b.16'
