- ap: 7972
  img:  'http://lh3.ggpht.com/lzCSS0_tjwUV7JQ2fgLI0e05IrzPxlVUs-6aEPOwUv67IanQJSTi71gkw0SGm8asmoE_r3Xoh048Fd9xRpE'
  lat: 40.099169
  level: 6
  lon: -88.251419
  name:  'Lyman Larson Memorial'
- ap: 7409
  img:  'http://lh6.ggpht.com/BzDhCANV_iNTHhKFBGLuaUqOvChRZtPWnJ2Xk4h7NsKJHmTGgCWtFHWv2PpDA2fCsHHKSCRTrUNK8AKrLRnS'
  lat: 40.108066
  level: 7
  lon: -88.230687
  name:  'Community United Church of Christ'
- ap: 7222
  img:  'http://lh4.ggpht.com/4LxsGZZMk3DnpJXUvqzrL54CHSP5TDXjUnDJyHmCCTtCJIjGEI7kxT9g4uxfSPh0X6yGLgQo1jfqbu7B8VEr'
  lat: 40.099084
  level: 6
  lon: -88.251826
  name:  'Irina P. Stewart Memorial Plaque'
- ap: 6472
  img:  'http://lh5.ggpht.com/ENeQgqydWbi9-Oyf7vizunoRqJdsZV4o0RA_956wjGI8hqpTCHBPyWMpbTrrkwYpj5tgzDRvevGmvH4eFRU'
  lat: 40.099593
  level: 6
  lon: -88.251724
  name:  'Blessings from Devon Elaine Cattell'
- ap: 6472
  img:  'http://lh6.ggpht.com/MzDfG6eMMwVr56zIpVxRJKU2aoUq-95CLeBhoiEQQKzpC2zulq5jFDLv1IK0JcRy5Q0PhRAreZ1p2ElsdnNu'
  lat: 40.108048
  level: 5
  lon: -88.226279
  name:  'Nuclear Magnetic Resonance II Plaque'
- ap: 6472
  img:  'http://lh6.ggpht.com/c2I39IJvSBKmCLonmhP_RN1vLEpYY1recBXFm8xpGHxES4bAN2kvAcda8ZzvT75uq0yWQCv7N_dzP6ce5-Tu'
  lat: 40.108043
  level: 6
  lon: -88.22469
  name:  'Building of Molecular and Cellular Biology Sculpture'
- ap: 6172
  img:  'http://lh6.ggpht.com/yYW6Egg1lWn6UqqLzlgqwCQhtbuxiZSW4TmvI1XBPs33OTTJ0oh51XZXOIILxGI2juoO-E_YfG5UHmeb34rSOw'
  lat: 40.109165
  level: 3
  lon: -88.230269
  name:  'John Street Plaque'
- ap: 6285
  img:  'http://lh6.ggpht.com/5CDidk0pqfUtSW_Yqouuf3diX8drdMu9DoT728QpSz8q6A-WxNhT0yLcgM_7gGpyIAeXrHiTkIzzaVJFgnN9WA'
  lat: 40.099852
  level: 6
  lon: -88.251947
  name:  'Our Friend Tim Palmer'
- ap: 6283
  img:  'http://lh6.ggpht.com/WtqWBwqpYTSw3g9ru5NwcFn5iK5STxWgy2kv4OUTWqwtzx76-9Msz0eqoiw0qpEYE1U4zdt9rzzNZMDNagNg'
  lat: 40.107943
  level: 5
  lon: -88.226751
  name:  'Class Of 1917 Plaque'
- ap: 6098
  img:  'http://lh4.ggpht.com/B_I1b0Jy3vW41RX8jjCNPP68AULplU0Pf8ddolyKmpEWCfBVShQkmjF1HfTPzDjmBBQGgOs0jHW-rUR0mv8BkA'
  lat: 40.098789
  level: 6
  lon: -88.251685
  name:  'Curtis William McKinney Memorial'
- ap: 6098
  img:  'http://lh3.ggpht.com/8FqlniFErK7cq59awiT84u8KyV4FIRd5krZzfYa58zJToFps7whdBnriPqvO_kFKeLUE3SWbJhCOPuvUQzaGFA'
  lat: 40.100691
  level: 6
  lon: -88.251337
  name:  'In Loving Memory of Zeus'
- ap: 6098
  img:  'http://lh4.ggpht.com/S734i_6SihPtJW8WdegLb3gEuKeNx8e1qDm6CXjREzYHohw7XqL82m4EF2K5nS2TixHweLn3EuJ4YoQnrsw'
  lat: 40.107751
  level: 7
  lon: -88.231532
  name:  'Graduate School of Library and Information Science'
- ap: 6023
  img:  'http://lh4.ggpht.com/pWMrJGcrxdHbkyzK9GJLFBQdvgWtZzdJOIMHr66tCffHpsZd5e8NTrSPkYm0T9i4vtEVhARdLo6tZ7xLadU'
  lat: 40.108294
  level: 5
  lon: -88.224348
  name:  'Bird Of Prey Statue'
- ap: 5535
  img:  'http://lh3.ggpht.com/gS3gT_deXzbDvejCL-5ygs31dw9bLQqYr2nDcLPZiv6nQzahJl12awG1a2pwKbFuoTlsHQYxQ2O7HDXL4-8'
  lat: 40.110358
  level: 6
  lon: -88.230181
  name:  'Murphy''s Pub '
- ap: 5535
  img:  'http://lh5.ggpht.com/k_9eqZVvGcr3ZNyeeSNDM1-Y7od35KmnQQptB9usrdpTdpGW2c_5-12rYy9hGazdx7qhlYrEXxaJ_ZIVFywlcA'
  lat: 40.106706
  level: 7
  lon: -88.232116
  name:  'Illini Tower'
- ap: 5348
  img:  'http://lh3.ggpht.com/G1CvGhpethi5UmprDWxZN9rTblHa3anSsQz1UPgJtkREkfN7lDFoxFObst0609Cg5mofuZxJKr0ddNKhY4VL'
  lat: 40.098464
  level: 6
  lon: -88.251426
  name:  'Ruth Haasis Memorial'
- ap: 5348
  img:  'http://lh5.ggpht.com/-UWK84I78Sftf7yg-E2pg6xEAWTvyiThgJBJlxbqOZPYKNmzQ8uGgEEMetzplrG1HpXG5kQqNItUeXKxOHDsGA'
  lat: 40.100286
  level: 6
  lon: -88.251747
  name:  'Tennis Anyone'
- ap: 5348
  img:  'http://lh3.ggpht.com/VrbXGwlUosNLEkVdshWUFoVa3KtlJQoEU4yLYygvftYbPCmxo644Uvar_v8Kb9RS53hB0tXgvV44GotrxZyu'
  lat: 40.098592
  level: 7
  lon: -88.251676
  name:  'Ruth and Fred Steigmann Plaque'
- ap: 5348
  img:  'http://lh6.ggpht.com/S7Utf4_59vQkAP5JhC3mdbzVLKBTt-0zoJ2UjfxUnN10VBbixO-_VwvssWd1LbFSx_yafaijd_U0wTGo870'
  lat: 40.100941
  level: 6
  lon: -88.251314
  name:  'Gabriel Patrick Maxeiner Memorial Plaque'
- ap: 5348
  img:  'http://lh6.ggpht.com/pxaCt7clhIXc1RVGMMJZsmnbEWNWjFYJiUrQMev_SeOmXBothvOzmfnirQ5_W8CMa7hpigqydQhKMa4XFCAi'
  lat: 40.108173
  level: 7
  lon: -88.230209
  name:  'Mural on South Sixth Street'
- ap: 4785
  img:  'http://lh5.ggpht.com/kElaGOaV9aI8SrnM1D65gx9J0Ky1AKrN9Yo-pXVmDhELt2pee4MwVRiCqCmlqWzUWj5pS33GnEzAiXmiWKsw'
  lat: 40.108111
  level: 7
  lon: -88.229625
  name:  'Illini Sports Mural'
- ap: 4598
  img:  'http://lh6.ggpht.com/duOeXcOSQLWosdD0JJXg3pWWQp4t5sL0x9qDHoTIBFNOzEW0t53Lt2cnwgV2E_Su0l1ajIQxPtVbbK_sDRaS'
  lat: 40.141775
  level: 5
  lon: -88.242671
  name:  'Marketplace Mall Fountain'
- ap: 4598
  img:  'http://lh3.ggpht.com/rUgM7jkTqL0VHxvsSW0yWuNJF5UrU62ITflghfn4PfKjn6L4WGz0ALkv98fc_q9dmK9SSpU1PXIawGvcRwE'
  lat: 40.098246
  level: 8
  lon: -88.251974
  name:  'Hessel Park'
- ap: 4411
  img:  'http://lh5.ggpht.com/nWEtxuKQdy0teBBue1DYmG7P3SF5-3A6zlB7GwVHBWlolAZYGq6Br78lWcF9ltFy-KeSlozXie2RmU6JfCUX'
  lat: 40.142673
  level: 5
  lon: -88.244603
  name:  'Italian Statue'
- ap: 4411
  img:  'http://lh5.ggpht.com/tfAfnmo6mSMc6U0P533NMFJRGwn6lasmx-MLR2JJg1QOizMKkghFU8E7hb2zgYgdQEbgnCJUlvZIMdrrJe4'
  lat: 40.100822
  level: 6
  lon: -88.25193
  name:  'Seeds of Kindness Bench'
- ap: 4411
  img:  'http://lh4.ggpht.com/PHV-1ZpFzCAl_ViCKwBY_x2pIDbVyaT7wJH1sTvFJCxrSdRrO1x7NaXq9OdRGwz_Mls4iwk6wuGHMBArfV54'
  lat: 40.098688
  level: 7
  lon: -88.25063
  name:  '"New Holland Yellow Dinosaurs" at Hessel Park'
- ap: 4411
  img:  'http://lh6.ggpht.com/qSCp5fQMlyCQ-GOAgiSFy5gaHJei705Pa3eOlJiYO5wGjZTYtjA8q7QWWfAWcLKjxZSaFiMfXOPR8SO7rWU'
  lat: 40.099353
  level: 6
  lon: -88.251876
  name:  'Raymond B. Cattell Memorial'
- ap: 4411
  img:  'http://lh5.ggpht.com/gkIcCbfmQWyJ7s9ryhzfOOn1K-oa8huqzZN80X2psVjx_6Iur5egjGncbUIAMLiAJAf9qG1Ac8lX2MomHYY'
  lat: 40.108185
  level: 6
  lon: -88.225203
  name:  'Statue at Medical Sciences'
- ap: 3848
  img: http://i.imgur.com/5j1qaiT.png
  lat: 40.312242
  level: '?'
  lon: -88.201368
  name:  '2012 Employee Dedication Bench'
- ap: 3661
  img:  'http://lh3.googleusercontent.com/hJZWoErzM-MuXulq4FlhlZwMbJX1Isd81GBUBVKayd57jVIVxUle3itd-1DRKo2VaNXznWr1X639fa44Etk'
  lat: 40.141919
  level: 5
  lon: -88.244611
  name:  'Marketplace Mall Carousel'
- ap: 3361
  img:  'http://lh4.ggpht.com/_jAAuDi8SO5uupi8JlB3HZaFG40S15izNv_3vqOt7ro2rRHuXrfdEKfEFvRESdAjCEz3RVDpyrxJGSIrju5d'
  lat: 40.117916
  level: 2
  lon: -88.243087
  name:  'Sholem Building'
- ap: 3661
  img:  'http://lh3.ggpht.com/bltQwmnzp2vSKYhLpzNLqB4iddy6ie0kWk9G7Wce4U9qmW3CABxbXAhF7v0oG9QLFD2q57UZuVqZCMgN3MHZfA'
  lat: 40.118335
  level: 5
  lon: -88.243408
  name:  'Downtown Fountain'
- ap: 3661
  img:  'http://lh6.ggpht.com/POBAhJlStu1uLv82RPSkd8lKQyojPByrKqAwgiZPyXTHQcNTCN7rkJM376YcVpMmZZVMgiXz9J1BXanexyA643e-FR9M70tksLdb1akPUe2Ra_xCyw'
  lat: 40.112411
  level: 6
  lon: -88.226875
  name:  'Grainger Engineering Library - William W. Grainger Medallion'
- ap: 3361
  img:  'http://lh3.ggpht.com/wOZOXhKOnhbKEPMQke-zGIG_vheDkHM8q19B1n_is5H7t1whBcQxBIGZI6VIPNw8mdCNXG6EUZeSjd1YLdngdg'
  lat: 40.108965
  level: 2
  lon: -88.227184
  name:  'U of I Mother''s Association Plaque'
- ap: 3661
  img:  'http://lh5.ggpht.com/pnMcOl0FAs-A861T6mvs4EQGCm08ZQGxUcMdclhxsgyUThD6KymilbixZqTcT464ZFRUnjMoFee37DuNXxcm'
  lat: 40.10719
  level: 5
  lon: -88.226585
  name:  'College of Agriculture'
- ap: 3474
  img: http://i.imgur.com/5j1qaiT.png
  lat: 41.102653
  level: '?'
  lon: -87.828667
  name:  'd42c3965ba254e1eae0f47d5e1a38877.16'
- ap: 3474
  img: http://i.imgur.com/5j1qaiT.png
  lat: 40.873822
  level: '?'
  lon: -88.646106
  name:  '48c9d6133823423796c94e34eab373eb.16'
- ap: 3474
  img:  'http://lh3.ggpht.com/07XrBN-er6Ecleor0n9RJ4DfGO6B2yn-ZxjI-Uy8Ba46Jtb6cXNVmATPiPiGyk-1jZ4wxa7-EeIWbWUqArCG'
  lat: 40.142554
  level: 5
  lon: -88.243468
  name:  'Dog Heart'
- ap: 3174
  img:  'http://lh4.ggpht.com/1BgYrJYdcGdepVZ6ibhTjtjZ6MyzKnQzLL4wxEnn_CEPnrJmOKHzPXm1qinGRA78MqKq11gKRlprm3Z7mDr0'
  lat: 40.115645
  level: 3
  lon: -88.243036
  name:  'The Art Party Studio'
- ap: 3474
  img:  'http://lh4.ggpht.com/vKgqIecJshMQxrhO-ZhMjcIyARuJdyU63wKfzAG0wouZex6LVzO46Qi5zM1N3Jx8xyantDFk9sQGsSEBhb-y'
  lat: 40.101327
  level: 5
  lon: -88.251412
  name:  'Zeus Memorial'
- ap: 3249
  img:  'http://lh4.ggpht.com/l4w3T1e27S5zPAMN3Mr-LqJ51cbm26ThR-ubvfUFHpl28dkeRb_CQThuhJ_HSNhdYt_dX9NTAN9hKFsDeWJQ'
  lat: 40.108295
  level: 4
  lon: -88.224083
  name:  'The Landing'
- ap: 2724
  img:  'http://lh5.ggpht.com/n-WJVk4VFfgCVfLuyItrEjDCHgOd5YN1Z1ts6qT6-RmXvFyDeNKYarXwzwHKyd5B9tGmezRoEzKX4EFKmaY'
  lat: 40.124947
  level: 5
  lon: -88.210509
  name:  'Trail Marker in Busey Woods'
- ap: 2724
  img: http://i.imgur.com/5j1qaiT.png
  lat: 40.106513
  level: '?'
  lon: -88.5585
  name:  'Lodge Christian Church'
- ap: 2724
  img:  'http://lh6.ggpht.com/Jz3ahY5LQ13wKWLY9SEvexiinJa3GeO1eB_FynplikRpa77swLST6cUAJjPpqKDSq2KU4Dcyui-QBstz_Z3k'
  lat: 40.094624
  level: 2
  lon: -88.282953
  name:  'Greenbelt 2'
- ap: 2724
  img:  'http://lh4.ggpht.com/H1kV6JSczzSbcCblAHg5ZOgITW1mBAz0_oLbqbzxBlijGTBn7TP6KwA6UI0AAGrCN4VF0DAF79Vcj6_2R4dsB8LRTq6tud6v'
  lat: 40.107753
  level: 7
  lon: -88.228913
  name:  'Zipcar-Wright Street & Daniel Street'
- ap: 2537
  img: http://i.imgur.com/5j1qaiT.png
  lat: 39.783737
  level: '?'
  lon: -88.27211
  name:  '762c4857527e4abe9a0b98a4ea51c1ca.16'
- ap: 2537
  img: http://i.imgur.com/5j1qaiT.png
  lat: 39.985169
  level: '?'
  lon: -88.259496
  name:  '41dd0bbf2c604d7a8eb6bf9863231d7b.16'
- ap: 2537
  img: http://i.imgur.com/5j1qaiT.png
  lat: 40.738279
  level: '?'
  lon: -89.02204
  name:  'a749e202a3664298aa6369798a7b076d.12'
- ap: 2537
  img: http://i.imgur.com/5j1qaiT.png
  lat: 39.772536
  level: '?'
  lon: -88.87563
  name:  'e7e5f76ee6ef4bceaf54487740c1594e.12'
- ap: 2537
  img: http://i.imgur.com/5j1qaiT.png
  lat: 40.154669
  level: '?'
  lon: -88.298035
  name:  'New Horizon Methodist Church'
- ap: 2537
  img:  'http://lh4.ggpht.com/ZevI283-hdNmxCDG58ggAccDFE_BgYgPK-Hwc6pMCOMdhClXrMtmBtTONxbI0Y_iV-SVdkgRT28tdz-T-6Vt'
  lat: 40.146982
  level: 5
  lon: -88.28914
  name:  'Champaign Kingdom Hall of Jehovah''s Witnesses'
- ap: 2537
  img: http://i.imgur.com/5j1qaiT.png
  lat: 40.124247
  level: '?'
  lon: -88.926356
  name:  '774e54070f3d48e3804045a925ac7c05.16'
- ap: 2537
  img:  'http://lh3.ggpht.com/5awYU9vtQhrJgqVWTgorW3FfOKgjEZtgRjWYRBTLqZxOOiuKje_aALtsSDOrslkMHWZqO4ZLwael60DZWxY'
  lat: 40.111807
  level: 5
  lon: -88.295361
  name:  'Unity Baptist Church'
- ap: 2537
  img:  'http://lh5.ggpht.com/8EXhrgcMBH0nDBQWTAlAwNIhxzaY7maIjYjg3fJnzGIp6_FNs98dPrYY4mtl4vhkPI5WQ1Xp8_V4vj2hAb9a'
  lat: 40.112026
  level: 5
  lon: -88.295327
  name:  'Carpenter''s Union Hall'
- ap: 2537
  img:  'http://lh3.ggpht.com/waYCvQnciDHIQoBYQqAoe2ioBs3DAhMQQsBboKyfNVNSWibmmRTf0SLvaoU5EwCFyWydn7rCCfrLXtLqQfA8'
  lat: 40.135683
  level: 5
  lon: -88.27634
  name:  'Champaign Fire Department'
- ap: 2537
  img:  'http://lh6.ggpht.com/y9bxecO9Wm4VrE6p2LRWA8XIIUlHlYWbTSZJ6GrJrTpeVtxB7wI7cWjdLkM6gjq_eOk7n-nJOlSJ9WzGjgfG'
  lat: 40.137123
  level: 5
  lon: -88.277784
  name:  'US Post Office'
- ap: 2537
  img:  'http://lh3.ggpht.com/tXuCgd1tvCtlonW_e1jLC_5DH6g4Qh6zIUKhJeoBZuLvyB0ql69PlymRU3Ywf5lq_8PFYNylEKOiC_qJnnzJpg'
  lat: 40.138006
  level: 6
  lon: -88.272375
  name:  'Jericho Missionary Baptist Church'
- ap: 2537
  img:  'http://lh5.ggpht.com/ulBje3DZHcOGkPDTXihNL1tamRAm_GO1CREW8fA5fV0Znq1eF2J1hnbSZh35emEA1h9cL1qTj9FqGtb8VywgXQ'
  lat: 40.13765
  level: 5
  lon: -88.273074
  name:  'Garden Hills Park'
- ap: 2537
  img:  'http://lh6.ggpht.com/p2F3xw4xL4UdiMM9aSy628ISSglrvjPexpF3j340tMAP9MX07yh_sJv7kHVkeud8lyFf2ZwDohw3zsRS2PSd'
  lat: 40.093914
  level: 2
  lon: -88.281531
  name:  'Terry M. Warmbier Memorial'
- ap: 2537
  img:  'http://lh5.ggpht.com/tuo_ByFTbwLitFP5cBseOibqRxENxbCwOJ30dCnja5ijBI_qBv5vqNP7ZuZXnxhYM6ms_GbExZEwwKVUtwV2'
  lat: 40.093712
  level: 2
  lon: -88.281583
  name:  'Brownfield Dedication'
- ap: 2462
  img:  'http://lh3.googleusercontent.com/8-4OkyRuEuagHGkNAbCDDtz9k34_nWE1lFlUqdqVSLAtsWkVNv5G84IpnbtVcup3-x3u4q6_AJ0OxQdkdt1-'
  lat: 40.113304
  level: 4
  lon: -88.240009
  name:  'VW Bug On The Roof'
- ap: 2537
  img:  'http://lh5.ggpht.com/0m1i3CJSj3bKhLj5BgXi8SFpgoihNsBoN6fpccgDU2tjtPcA5BqB1IxvR0yAX9FWkgt3_Q8gbAyGfdJDliGP'
  lat: 40.115142
  level: 6
  lon: -88.238658
  name:  'First Street Antiques'
- ap: 2537
  img:  'http://lh3.ggpht.com/HX3mWBGofQk08Qdp7A6KMK1AnSXlLEPJR-n6oeX69Efiiss29GHsLiDsHhRS5K8DrXh-QXP1T0AMaOsJmx_w'
  lat: 40.106921
  level: 5
  lon: -88.230145
  name:  'University Lutheran Church'
- ap: 2537
  img:  'http://lh3.googleusercontent.com/hvoLMUc9UoNVVPttxWTc8PzOWdu5MBmPETnBexH7Alyl20WGCrNa0G_j7DwvD3qbhqpTaeThFhGDV2rCtp8'
  lat: 40.107629
  level: 6
  lon: -88.224484
  name:  'Bucky Balls'
- ap: 2537
  img:  'http://lh5.ggpht.com/MWJ2u6CgyftB6h05_WRqj_eYi-vhbwuOZ_9mxAS3eS-wY6XbpKlfBgzmohkwEj6Q2FoR0mm678IAtKTcei8'
  lat: 40.106846
  level: 5
  lon: -88.226647
  name:  'Illini Supersweet Corn Plaque'
- ap: 2537
  img:  'http://lh5.ggpht.com/8OgQHnRehZt9nl_igzh_0k19Qp5vRgGVHo2IukHGLeEp0iNTb_YUZRDseHY39JvlTc0ROrDtbmt8SBAEFPOwpA'
  lat: 40.108965
  level: 1
  lon: -88.226465
  name:  'Harker Hall Fountain'
- ap: 2462
  img:  'http://lh3.googleusercontent.com/vRH1cgHOuzbgU69F49MdsOQye4VG9lH8rjDcYQWGq9_8VcBu010oHhoinNmA_Dn9JZGLmS7ehSQJ9h1uDMGBaw'
  lat: 40.107087
  level: 4
  lon: -88.227801
  name:  'Class of 1912 Pillar'
- ap: 2537
  img:  'http://lh3.googleusercontent.com/__dofGL-oELNLYymrJ5VDONThxrG0oMe5aQcopgTFJgu56wHeV1y-scJDNms_C4LRoqDe-qKwDBNRNkCiJnNUQ'
  lat: 40.127703
  level: 5
  lon: -88.211526
  name:  'Busey Woods Trail - Wet to Dry'
- ap: 2537
  img: http://i.imgur.com/5j1qaiT.png
  lat: 40.203721
  level: '?'
  lon: -88.39221
  name:  'dd9c9d84f4934d84a0769ff14c381db2.16'
- ap: 2537
  img: http://i.imgur.com/5j1qaiT.png
  lat: 40.203973
  level: '?'
  lon: -88.393369
  name:  'Mabery Gelvin Botanical Garden'
