- ap: 3474
  img: http://i.imgur.com/5j1qaiT.png
  lat: 40.778321
  level: '?'
  lon: -89.67447
  name:  '649a82519808467ba90055d73673616e.16'
- ap: 3474
  img: http://i.imgur.com/5j1qaiT.png
  lat: 40.778755
  level: '?'
  lon: -89.674026
  name:  '6b83342c4fde4298bdb186836bb418c2.16'
- ap: 3474
  img: http://i.imgur.com/5j1qaiT.png
  lat: 41.302375
  level: '?'
  lon: -90.19526
  name:  '8af4452cb459425d982b7bb24dd90914.16'
- ap: 3099
  img:  'http://lh6.ggpht.com/nbUJivBo0zF8f8aBbk1GwakUpPbLUVOoEovTTETYwJvfNIHXwG9XUbwoV0x-ly4ZO5Hsyv5KPo3c9cE6Nh8'
  lat: 40.118832
  level: 2
  lon: -88.243643
  name:  'Tesla Ball'
- ap: 3474
  img:  'http://lh5.ggpht.com/D9O580D9hlBOqeMvt2V4nL-eHP62h4vG4YFgk-WTw7GunusU9AOffFuHZ9XYWoB8YrGxpCMu2Y77-LCAgcdT'
  lat: 40.119328
  level: 4
  lon: -88.243755
  name:  'Birthplace of Champaign / Beautiful Beardsley Hotel'
- ap: 3474
  img:  'http://lh5.ggpht.com/J6mcCWpzY1HtqSgO5x_y5aVz-YFsC8M7QP6HkXPiD48zj2LwljZvVXDN2m_K8oMn6mei5g6B8PphiUGrXGDG6g'
  lat: 40.119305
  level: 4
  lon: -88.244122
  name:  'Women''s Town Club Building'
- ap: 2537
  img: http://i.imgur.com/5j1qaiT.png
  lat: 40.779221
  level: '?'
  lon: -89.673801
  name:  '684444e63a55494fa0ed03c633d231dd.16'
- ap: 2537
  img: http://i.imgur.com/5j1qaiT.png
  lat: 41.303135
  level: '?'
  lon: -90.19288
  name:  '0583d678e29c42389aa92f8982096fc1.12'
- ap: 2537
  img: http://i.imgur.com/5j1qaiT.png
  lat: 39.809612
  level: '?'
  lon: -89.398152
  name:  '389b2d3460584fb58c24cb38556cbddc.16'
- ap: 2537
  img: http://i.imgur.com/5j1qaiT.png
  lat: 40.026078
  level: '?'
  lon: -88.783718
  name:  'edce8f4594c948e790402f25987eea45.16'
- ap: 2537
  img:  'http://lh4.ggpht.com/4_MOw_NKr2wZ2lzAzG2FlLtA3tfOfWqBZpNVP43LfN6ilD6qHRfZ-_wA1Xk8BnCqHKqKdqodC70X09pqtNXXqmNtK-uqo-fC9SZyOjT6ERfJorzg'
  lat: 40.118388
  level: 5
  lon: -88.245358
  name:  'Springer Cultural Center'
- ap: 2537
  img:  'http://lh5.ggpht.com/n8MFM2pb-tE5i9EziJdygPPUK8VqEZ4BHGQaywz4lwe3WjwdgO0ohBCPZmiMoL00r3mVPmYnbCunJDeFbyk'
  lat: 40.118593
  level: 6
  lon: -88.240416
  name:  'Champaign Rail Water Tower'
