- ap: 24088
  img: http://i.imgur.com/5j1qaiT.png
  lat: 41.634356
  level: '?'
  lon: -87.178294
  name:  'd45d47f7d3a34245812bec73013df8d1.16'
- ap: 24088
  img: http://i.imgur.com/5j1qaiT.png
  lat: 41.156259
  level: '?'
  lon: -87.657985
  name:  'd8beb8f8277845a9b61f2f4176f70a00.16'
- ap: 13033
  img:  'http://lh4.ggpht.com/vKgqIecJshMQxrhO-ZhMjcIyARuJdyU63wKfzAG0wouZex6LVzO46Qi5zM1N3Jx8xyantDFk9sQGsSEBhb-y'
  lat: 40.101327
  level: 8
  lon: -88.251412
  name:  'Zeus Memorial'
- ap: 12283
  img:  'http://lh6.ggpht.com/5CDidk0pqfUtSW_Yqouuf3diX8drdMu9DoT728QpSz8q6A-WxNhT0yLcgM_7gGpyIAeXrHiTkIzzaVJFgnN9WA'
  lat: 40.099852
  level: 8
  lon: -88.251947
  name:  'Our Friend Tim Palmer'
- ap: 11346
  img:  'http://lh6.ggpht.com/yjfa0jJLjsfLRf9Zn9iafMp3MuIhgCi0WiOCF8GqTGiGvzEnsPGrFa0H1n-uzWhVehLbt44ShthsA32VzHd5iQ'
  lat: 40.099737
  level: 8
  lon: -88.251157
  name:  'Tyler Van Atkins Memorial'
- ap: 10033
  img:  'http://lh5.ggpht.com/4DJAFPeZ_w65Km7VDnsbOqouQaeBuPuxA0KHPQToT_B6o1hBxzdu3kn89UhHgv22Ygj52Fx9QqcbzOytuw'
  lat: 40.100078
  level: 8
  lon: -88.250683
  name:  'Brian Clark Memorial Plaque'
- ap: 8722
  img:  'http://lh6.ggpht.com/qSCp5fQMlyCQ-GOAgiSFy5gaHJei705Pa3eOlJiYO5wGjZTYtjA8q7QWWfAWcLKjxZSaFiMfXOPR8SO7rWU'
  lat: 40.099353
  level: 8
  lon: -88.251876
  name:  'Raymond B. Cattell Memorial'
- ap: 8159
  img:  'http://lh3.ggpht.com/rUgM7jkTqL0VHxvsSW0yWuNJF5UrU62ITflghfn4PfKjn6L4WGz0ALkv98fc_q9dmK9SSpU1PXIawGvcRwE'
  lat: 40.098246
  level: 8
  lon: -88.251974
  name:  'Hessel Park'
- ap: 7035
  img:  'http://lh4.ggpht.com/B_I1b0Jy3vW41RX8jjCNPP68AULplU0Pf8ddolyKmpEWCfBVShQkmjF1HfTPzDjmBBQGgOs0jHW-rUR0mv8BkA'
  lat: 40.098789
  level: 8
  lon: -88.251685
  name:  'Curtis William McKinney Memorial'
- ap: 7035
  img:  'http://lh3.ggpht.com/lzCSS0_tjwUV7JQ2fgLI0e05IrzPxlVUs-6aEPOwUv67IanQJSTi71gkw0SGm8asmoE_r3Xoh048Fd9xRpE'
  lat: 40.099169
  level: 8
  lon: -88.251419
  name:  'Lyman Larson Memorial'
- ap: 7035
  img:  'http://lh3.ggpht.com/G1CvGhpethi5UmprDWxZN9rTblHa3anSsQz1UPgJtkREkfN7lDFoxFObst0609Cg5mofuZxJKr0ddNKhY4VL'
  lat: 40.098464
  level: 8
  lon: -88.251426
  name:  'Ruth Haasis Memorial'
- ap: 7035
  img:  'http://lh4.ggpht.com/4LxsGZZMk3DnpJXUvqzrL54CHSP5TDXjUnDJyHmCCTtCJIjGEI7kxT9g4uxfSPh0X6yGLgQo1jfqbu7B8VEr'
  lat: 40.099084
  level: 8
  lon: -88.251826
  name:  'Irina P. Stewart Memorial Plaque'
- ap: 6659
  img:  'http://lh3.ggpht.com/07XrBN-er6Ecleor0n9RJ4DfGO6B2yn-ZxjI-Uy8Ba46Jtb6cXNVmATPiPiGyk-1jZ4wxa7-EeIWbWUqArCG'
  lat: 40.142554
  level: 6
  lon: -88.243468
  name:  'Dog Heart'
- ap: 6659
  img:  'http://lh3.googleusercontent.com/hJZWoErzM-MuXulq4FlhlZwMbJX1Isd81GBUBVKayd57jVIVxUle3itd-1DRKo2VaNXznWr1X639fa44Etk'
  lat: 40.141919
  level: 5
  lon: -88.244611
  name:  'Marketplace Mall Carousel'
- ap: 6098
  img:  'http://lh3.ggpht.com/8FqlniFErK7cq59awiT84u8KyV4FIRd5krZzfYa58zJToFps7whdBnriPqvO_kFKeLUE3SWbJhCOPuvUQzaGFA'
  lat: 40.100691
  level: 8
  lon: -88.251337
  name:  'In Loving Memory of Zeus'
- ap: 6098
  img:  'http://lh3.ggpht.com/VrbXGwlUosNLEkVdshWUFoVa3KtlJQoEU4yLYygvftYbPCmxo644Uvar_v8Kb9RS53hB0tXgvV44GotrxZyu'
  lat: 40.098592
  level: 8
  lon: -88.251676
  name:  'Ruth and Fred Steigmann Plaque'
- ap: 5535
  img:  'http://lh6.ggpht.com/RR0i4QdfoY8NkTQtssdOtDLhAEaCR7e-R4ipk5NzdKe9lTGDq2nyKI_7sF2BCXrgCZAZ2zEEtIzS7vg6Pu0hzA'
  lat: 40.126458
  level: 7
  lon: -88.218544
  name:  'The Vineyard Church'
- ap: 5535
  img:  'http://lh3.googleusercontent.com/hvoLMUc9UoNVVPttxWTc8PzOWdu5MBmPETnBexH7Alyl20WGCrNa0G_j7DwvD3qbhqpTaeThFhGDV2rCtp8'
  lat: 40.107629
  level: 4
  lon: -88.224484
  name:  'Bucky Balls'
- ap: 5533
  img:  'http://lh3.googleusercontent.com/XlZcRhaeaiHLSH5SjL6gcn60xeJ1h3aS5Etz67B8I-P7qbPjnPznf2IQkXfCblA1gkqCM8lBEdmxOk_3Xnge'
  lat: 40.080163
  level: 6
  lon: -88.207829
  name:  'Windmill at Meadowbrook Park'
- ap: 5348
  img: http://i.imgur.com/5j1qaiT.png
  lat: 42.202628
  level: '?'
  lon: -86.392483
  name:  '39a9032107e6424a8a59b273eda6764b.16'
- ap: 5161
  img:  'http://lh5.ggpht.com/ENeQgqydWbi9-Oyf7vizunoRqJdsZV4o0RA_956wjGI8hqpTCHBPyWMpbTrrkwYpj5tgzDRvevGmvH4eFRU'
  lat: 40.099593
  level: 8
  lon: -88.251724
  name:  'Blessings from Devon Elaine Cattell'
- ap: 4972
  img:  'http://lh3.ggpht.com/RDi9dMy3Df-Cf9VWDSaCohsnVa-bidVWXN6ZXu_h9yJGuQ22MI8MFwt1iA55QHtTIq5sHU6hZWbydWYFqr5PqQ'
  lat: 40.077419
  level: 6
  lon: -88.208069
  name:  'Walker Grove'
- ap: 4785
  img:  'http://lh6.ggpht.com/duOeXcOSQLWosdD0JJXg3pWWQp4t5sL0x9qDHoTIBFNOzEW0t53Lt2cnwgV2E_Su0l1ajIQxPtVbbK_sDRaS'
  lat: 40.141775
  level: 5
  lon: -88.242671
  name:  'Marketplace Mall Fountain'
- ap: 4598
  img: http://i.imgur.com/5j1qaiT.png
  lat: 42.012869
  level: '?'
  lon: -89.891005
  name:  'aacf2011906742bc8c32aba6b963ae64.12'
- ap: 4598
  img:  'http://lh4.ggpht.com/IZUCSooIdo5qUAG278Al-JEKCRv842M0uDMusE78yaL4p-QCYu2A4UXE6X2jTFemr_w8ZfD6g_lQqjwbdg'
  lat: 40.109702
  level: 4
  lon: -88.227571
  name:  'The Ray Bulinski Room'
- ap: 4598
  img:  'http://lh5.ggpht.com/2PB1u3cNuASfw9D_MIUzI1JvNofebK7zsuGqKoUApr-nUWYZ8y5CzxH6g7CdcY7ShBaVGrBrurkbwrdUPD7JBk55TH0Ouao5b_g2jUI1saBNUE8'
  lat: 40.106744
  level: 4
  lon: -88.225347
  name:  'The Red Herring Vegetarian'
- ap: 4411
  img: http://i.imgur.com/5j1qaiT.png
  lat: 42.672124
  level: '?'
  lon: -90.126884
  name:  'b98fc89b29194e6cba30b07adabe0c23.16'
- ap: 4411
  img: http://i.imgur.com/5j1qaiT.png
  lat: 42.196926
  level: '?'
  lon: -89.592984
  name:  'c390cab2367847948d38fd540b66a4d8.12'
- ap: 4411
  img: http://i.imgur.com/5j1qaiT.png
  lat: 41.965697
  level: '?'
  lon: -87.632747
  name:  '009d44eea192424f8eb810b69311f40a.16'
- ap: 4411
  img: http://i.imgur.com/5j1qaiT.png
  lat: 41.964336
  level: '?'
  lon: -87.633564
  name:  '7fbe13944b5d4af78e982aada5eda453.16'
- ap: 4411
  img:  'http://lh5.ggpht.com/HhVreJipNvxPRVFpmsh2BPo9PcpPO2Q2l3jCpDjIKgfKGycoTNPXR4DKiYccBXW4X-4dJf_vV0ESsWAWHcChsg'
  lat: 40.100936
  level: 8
  lon: -88.250855
  name:  'Donald F. Bresnan Memorial'
- ap: 4411
  img:  'http://lh4.ggpht.com/mlUN5QXAR7rKFvUg7yhxcae3udkR7zCJVaWt5sq_YA47piV6tRi42RNN9fEtT_FafT7lhqg26WM1VETbz5E'
  lat: 40.098239
  level: 8
  lon: -88.25376
  name:  'Hessel Park Christian Reformed Church'
- ap: 4411
  img:  'http://lh4.ggpht.com/PHV-1ZpFzCAl_ViCKwBY_x2pIDbVyaT7wJH1sTvFJCxrSdRrO1x7NaXq9OdRGwz_Mls4iwk6wuGHMBArfV54'
  lat: 40.098688
  level: 7
  lon: -88.25063
  name:  '"New Holland Yellow Dinosaurs" at Hessel Park'
- ap: 4411
  img:  'http://lh6.ggpht.com/S7Utf4_59vQkAP5JhC3mdbzVLKBTt-0zoJ2UjfxUnN10VBbixO-_VwvssWd1LbFSx_yafaijd_U0wTGo870'
  lat: 40.100941
  level: 8
  lon: -88.251314
  name:  'Gabriel Patrick Maxeiner Memorial Plaque'
- ap: 4411
  img:  'http://lh5.ggpht.com/tfAfnmo6mSMc6U0P533NMFJRGwn6lasmx-MLR2JJg1QOizMKkghFU8E7hb2zgYgdQEbgnCJUlvZIMdrrJe4'
  lat: 40.100822
  level: 8
  lon: -88.25193
  name:  'Seeds of Kindness Bench'
- ap: 4411
  img:  'http://lh5.ggpht.com/C6wRSaEWO1NYGY5luyYZKHG3Z3aib4aflaPdV7B9G6N6adE890g3QuPRSvCUhsdFHqjoVUjo27mfz9WsjXyuhQ'
  lat: 40.100521
  level: 8
  lon: -88.250864
  name:  'Gabriel Patrick Maxeiner Memorial'
- ap: 4411
  img:  'http://lh5.ggpht.com/-UWK84I78Sftf7yg-E2pg6xEAWTvyiThgJBJlxbqOZPYKNmzQ8uGgEEMetzplrG1HpXG5kQqNItUeXKxOHDsGA'
  lat: 40.100286
  level: 8
  lon: -88.251747
  name:  'Tennis Anyone'
- ap: 4035
  img:  'http://lh5.ggpht.com/QruW49d2dc1uhQlK1BaZIeo6ruDNkqQfmvZz83eQ-1aC9ytGUcpFaHnKRTnXRc70F2EZ0-pVKGr9Slo0_9RfxA'
  lat: 40.139749
  level: 3
  lon: -88.273955
  name:  'Northside Church of Christ'
- ap: 4035
  img:  'http://lh3.ggpht.com/MhImfPRi7WC74Qg-w4TCrNnC1hTih4TLCipNyUswQRp6HDkM5XS2cJqL0vrBH5sb7VdgzafkvLVAVEk3R-W6'
  lat: 40.105511
  level: 3
  lon: -88.227195
  name:  'Bruce Perona Memorial Plaque'
- ap: 3848
  img:  'http://lh4.ggpht.com/vKkSwERLa3zQO2UUIiYl1AEruAx1QTPcP4jSmPt89PG4AviJ1WhlVVH8qmqJ0aY2gqJmHcqdZFcM2pQconc'
  lat: 40.139375
  level: 5
  lon: -88.272793
  name:  'Salt And Light Ministries'
- ap: 3848
  img:  'http://lh3.googleusercontent.com/4ZghmANMiPJhVcpWuH3M3D6jgFGSDn0QH-VAP5olDzQjucfxwHFo8-1DsCSQhVV-YaTWMvC1pVwqWdnjVs8'
  lat: 40.117215
  level: 5
  lon: -88.245551
  name:  'The Virginia Theater'
- ap: 3848
  img:  'http://lh3.ggpht.com/bltQwmnzp2vSKYhLpzNLqB4iddy6ie0kWk9G7Wce4U9qmW3CABxbXAhF7v0oG9QLFD2q57UZuVqZCMgN3MHZfA'
  lat: 40.118335
  level: 5
  lon: -88.243408
  name:  'Downtown Fountain'
- ap: 3848
  img:  'http://lh3.googleusercontent.com/v44Gf5oEZGcwkQcA2wWz-uAeDFESHj7sEloxdCJd316RPH3w_ln8_9mBEMbAqGyI_2Y2qaYp525PnRip9Rg'
  lat: 40.105315
  level: 5
  lon: -88.226125
  name:  'U of I Observatory'
- ap: 3848
  img:  'http://lh3.ggpht.com/BozajMgDcVYIYb0VfltzZ6ndh8oSFMdmzkwFA2GLdCTMF2_Bs6XYBAk47PZLTxtpck_7SPUwMGHgw8SW8T8x'
  lat: 40.083218
  level: 5
  lon: -88.201089
  name:  'Minimalist Response III'
- ap: 3848
  img:  'http://lh5.ggpht.com/9T9y0bpvBrwNNyvb142IyTeakSgjhepOOFAf15hGx0cHg_jgDEhSwReqANYrDhl7giaXpGBSRLV2dRn0Or3R'
  lat: 40.077839
  level: 7
  lon: -88.209091
  name:  '"Niantic" at Meadowbrook'
- ap: 3661
  img:  'http://lh5.ggpht.com/pSVHjk6puyYdv3ztHlpJGnbkZyGsGsirMnxkDhlt8UMko4AhtTQbrzwInBCu5lK4Ttf7furE5pNW2AZh8HuSZQ'
  lat: 40.138109
  level: 5
  lon: -88.270158
  name:  'Glory Center International Church'
- ap: 3661
  img:  'http://lh5.ggpht.com/kcTMx3CqTnXQqNvx00fF4K5HQ34eOunlWHiU7JEB4nKyl3U14EbEpsqxVT2opoz78bQFDtIZR0IKDuewhKCG'
  lat: 40.119409
  level: 5
  lon: -88.242244
  name:  'Vintage Orpheum Artwork'
- ap: 3661
  img:  'http://lh3.googleusercontent.com/vw4Js8jf11Ok889K1stO5ujNjIO9Ah9DEbsg1xBTrVbaeyBetcG75B8YS8CkQA0KVC8NA5Z02n220SI1UzdB'
  lat: 40.10985
  level: 5
  lon: -88.227236
  name:  'Illini Union'
- ap: 3661
  img:  'http://lh4.ggpht.com/N-xxTzGXK34K-VdTOWaWrFJeP9_SLZ7ZBluxK2mjP51yZx_5HOMi_mb4Nu2rWgo3gOqUb19_cPb662sI7td_'
  lat: 40.105687
  level: 5
  lon: -88.225714
  name:  'Smith Memorial Hall'
- ap: 3661
  img:  'http://lh3.ggpht.com/wOZOXhKOnhbKEPMQke-zGIG_vheDkHM8q19B1n_is5H7t1whBcQxBIGZI6VIPNw8mdCNXG6EUZeSjd1YLdngdg'
  lat: 40.108965
  level: 4
  lon: -88.227184
  name:  'U of I Mother''s Association Plaque'
- ap: 3661
  img:  'http://lh4.ggpht.com/Ad3EyxZM9v5cjmOiED5nr8Hf1mHtOMXrJtjU_U63YfE8lgUjAteiDYuYxND-ybx6tARUErULHJBDhgoDIblz'
  lat: 40.077349
  level: 6
  lon: -88.20659
  name:  'Bruno Schielzeth Plaque'
- ap: 3659
  img: http://i.imgur.com/5j1qaiT.png
  lat: 41.570778
  level: '?'
  lon: -89.127801
  name:  '4bf70cbe46bb41489e8108e397ed5b30.16'
- ap: 3474
  img: http://i.imgur.com/5j1qaiT.png
  lat: 41.293897
  level: '?'
  lon: -87.41188
  name:  '370c1456dd2546019ba7756649c1fa56.16'
- ap: 3474
  img: http://i.imgur.com/5j1qaiT.png
  lat: 41.28875
  level: '?'
  lon: -87.405809
  name:  '3ea64ec46b434936b245c1a7cb2a83cb.16'
- ap: 3474
  img: http://i.imgur.com/5j1qaiT.png
  lat: 41.136692
  level: '?'
  lon: -87.452448
  name:  'cc5db6e393414d47a1d89dc8b82a23c3.12'
- ap: 3474
  img: http://i.imgur.com/5j1qaiT.png
  lat: 41.291492
  level: '?'
  lon: -87.420396
  name:  '65456036e0454702a7d7bc104ded3ed0.16'
- ap: 3474
  img: http://i.imgur.com/5j1qaiT.png
  lat: 42.312792
  level: '?'
  lon: -89.632643
  name:  '3220b6dde5b14f1ab85f1c33253a7d34.12'
- ap: 3474
  img: http://i.imgur.com/5j1qaiT.png
  lat: 41.144588
  level: '?'
  lon: -87.453902
  name:  '8bd9005e33634ea083ec0844d7cd3ab7.16'
- ap: 3474
  img: http://i.imgur.com/5j1qaiT.png
  lat: 41.291342
  level: '?'
  lon: -87.418888
  name:  'ebaa55e179334ea69f64776c114fafa8.16'
- ap: 3474
  img: http://i.imgur.com/5j1qaiT.png
  lat: 41.290412
  level: '?'
  lon: -87.408568
  name:  'fd617e0d4c834d6584b5a75fcc8848a0.12'
- ap: 3474
  img: http://i.imgur.com/5j1qaiT.png
  lat: 40.972403
  level: '?'
  lon: -87.517102
  name:  '8182cb4ef9a24e2a8e975ee139129755.16'
- ap: 3474
  img: http://i.imgur.com/5j1qaiT.png
  lat: 41.966004
  level: '?'
  lon: -87.632502
  name:  '367908f1dbf04c84bf3cb27575c4359e.16'
- ap: 3474
  img: http://i.imgur.com/5j1qaiT.png
  lat: 42.407464
  level: '?'
  lon: -90.419678
  name:  '28a3e0a33b5749a6b26658309180b640.16'
- ap: 3474
  img: http://i.imgur.com/5j1qaiT.png
  lat: 42.406539
  level: '?'
  lon: -90.417809
  name:  '8b306efb3dd34f039eec85566eb64850.16'
- ap: 3474
  img: http://i.imgur.com/5j1qaiT.png
  lat: 41.585024
  level: '?'
  lon: -87.500008
  name:  'efba7666f9bf499a86aed86e9d362fd2.16'
- ap: 3474
  img: http://i.imgur.com/5j1qaiT.png
  lat: 40.312242
  level: '?'
  lon: -88.201368
  name:  '2012 Employee Dedication Bench'
- ap: 3474
  img: http://i.imgur.com/5j1qaiT.png
  lat: 41.601651
  level: '?'
  lon: -87.498746
  name:  '57c301d5d4da40429bfff966ea83cd63.16'
- ap: 3474
  img: http://i.imgur.com/5j1qaiT.png
  lat: 41.605596
  level: '?'
  lon: -87.497836
  name:  'c1990079f744499ea0e6d41713fa8767.16'
- ap: 3474
  img: http://i.imgur.com/5j1qaiT.png
  lat: 41.621691
  level: '?'
  lon: -87.49988
  name:  '581f6e7bc95b4c4f9210d20be1674251.16'
- ap: 3474
  img: http://i.imgur.com/5j1qaiT.png
  lat: 41.629023
  level: '?'
  lon: -87.5024
  name:  'd8632611874f4a2f85619dcc20203869.16'
- ap: 3474
  img: http://i.imgur.com/5j1qaiT.png
  lat: 41.290431
  level: '?'
  lon: -87.407762
  name:  '153cafa57681448e922d78f7236fbf0e.16'
- ap: 3474
  img: http://i.imgur.com/5j1qaiT.png
  lat: 41.964092
  level: '?'
  lon: -87.633659
  name:  '16dd983c6c30490faf1c45bfd3e1ff1e.16'
- ap: 3474
  img: http://i.imgur.com/5j1qaiT.png
  lat: 41.584331
  level: '?'
  lon: -87.500013
  name:  '1119052e8024476499543cb5eaca7c8b.16'
- ap: 3474
  img: http://i.imgur.com/5j1qaiT.png
  lat: 42.410793
  level: '?'
  lon: -90.424556
  name:  'aa921317ac194943a2b00b47bbade956.16'
- ap: 3474
  img: http://i.imgur.com/5j1qaiT.png
  lat: 42.409943
  level: '?'
  lon: -90.423396
  name:  'ca52b0ebd4e34b01a14440b43afdd14a.16'
- ap: 3474
  img: http://i.imgur.com/5j1qaiT.png
  lat: 41.595108
  level: '?'
  lon: -87.499788
  name:  'f02765ef6e224455841eecefabf63e58.16'
- ap: 3474
  img: http://i.imgur.com/5j1qaiT.png
  lat: 41.281094
  level: '?'
  lon: -87.378629
  name:  'cce30f2b54484ebf9cc30ed798027fd6.16'
- ap: 3474
  img: http://i.imgur.com/5j1qaiT.png
  lat: 41.628006
  level: '?'
  lon: -87.499914
  name:  'bd36c7bec7e14e09ac96c55382b4ddd2.16'
- ap: 3474
  img: http://i.imgur.com/5j1qaiT.png
  lat: 41.61574
  level: '?'
  lon: -87.499798
  name:  'a8a9bef0f867485f9183ee58f78956ab.16'
- ap: 3474
  img: http://i.imgur.com/5j1qaiT.png
  lat: 41.580933
  level: '?'
  lon: -87.501085
  name:  '2aa5b52a10494843b2aed8c332d78ad1.16'
- ap: 3474
  img: http://i.imgur.com/5j1qaiT.png
  lat: 41.592122
  level: '?'
  lon: -87.500642
  name:  '08391643a5dc44569bf52537964a223f.16'
- ap: 3474
  img: http://i.imgur.com/5j1qaiT.png
  lat: 42.672175
  level: '?'
  lon: -90.127145
  name:  'f0ad0be166484dff817ae9e279082e3d.16'
- ap: 3474
  img: http://i.imgur.com/5j1qaiT.png
  lat: 41.603899
  level: '?'
  lon: -87.498028
  name:  'cf39876f98d240b0bad034f5c395b08f.16'
- ap: 3474
  img: http://i.imgur.com/5j1qaiT.png
  lat: 41.289556
  level: '?'
  lon: -87.406103
  name:  '56d672f6c7fe4a71a7fbab5e2f0ffb06.16'
- ap: 3474
  img:  'http://lh5.ggpht.com/tuo_ByFTbwLitFP5cBseOibqRxENxbCwOJ30dCnja5ijBI_qBv5vqNP7ZuZXnxhYM6ms_GbExZEwwKVUtwV2'
  lat: 40.093712
  level: 5
  lon: -88.281583
  name:  'Brownfield Dedication'
- ap: 3474
  img:  'http://lh6.ggpht.com/p2F3xw4xL4UdiMM9aSy628ISSglrvjPexpF3j340tMAP9MX07yh_sJv7kHVkeud8lyFf2ZwDohw3zsRS2PSd'
  lat: 40.093914
  level: 5
  lon: -88.281531
  name:  'Terry M. Warmbier Memorial'
- ap: 3474
  img:  'http://lh6.ggpht.com/Jz3ahY5LQ13wKWLY9SEvexiinJa3GeO1eB_FynplikRpa77swLST6cUAJjPpqKDSq2KU4Dcyui-QBstz_Z3k'
  lat: 40.094624
  level: 6
  lon: -88.282953
  name:  'Greenbelt 2'
- ap: 3474
  img:  'http://lh5.ggpht.com/nWEtxuKQdy0teBBue1DYmG7P3SF5-3A6zlB7GwVHBWlolAZYGq6Br78lWcF9ltFy-KeSlozXie2RmU6JfCUX'
  lat: 40.142673
  level: 5
  lon: -88.244603
  name:  'Italian Statue'
- ap: 3474
  img:  'http://lh5.ggpht.com/Nn1kM6sYdUcyplObjDuNOxFLN-NHspntEdET54AzrcZuO71RCmdq-UQeroMQ5JNEno_XDutkdBoVuAm7HQM'
  lat: 40.083054
  level: 6
  lon: -88.200475
  name:  'Loving Memory of All Our Babies'
- ap: 3474
  img:  'http://lh5.ggpht.com/ogCPXpztEJz9g9SqYcx7GPN1hAW6SSyzm2kS3ozjtVr0ZHGQtyGclfFRGF_5tPmngEnHH93xWdFcDL13cD72'
  lat: 40.083312
  level: 6
  lon: -88.200103
  name:  'Meadowbrook Park Trail Map'
- ap: 2724
  img:  'http://lh6.ggpht.com/3fVcmJ2u-5Mnni1a2NQuYee7Li3LXX1-Iih3NUqXYB8H0qCYAU7OEXBG0ysoYX44R9K5zwbI6c4G8fRDoZJY'
  lat: 40.101768
  level: 6
  lon: -88.234922
  name:  'Snyder Hall'
- ap: 2724
  img:  'http://lh5.ggpht.com/uP38yDCg4dPRI1F0r0ALGArEc8Q9eoRuaxkfxZTafZZr9tMcbLUZek1hZRbLUxHJVGPcLSf_JKbotbTBeR7nfA'
  lat: 40.107226
  level: 6
  lon: -88.22858
  name:  'Class of 1897 Tree'
- ap: 2537
  img: http://i.imgur.com/5j1qaiT.png
  lat: 42.257168
  level: '?'
  lon: -90.422291
  name:  'a865e96a56914299b372ace0c2c5c7c6.16'
- ap: 2537
  img: http://i.imgur.com/5j1qaiT.png
  lat: 42.257695
  level: '?'
  lon: -90.422443
  name:  '5e798909b0234ff589ea2a16154dd7c6.16'
- ap: 2537
  img: http://i.imgur.com/5j1qaiT.png
  lat: 42.112823
  level: '?'
  lon: -86.48713
  name:  '11b5f99b999b45d09651c17f0bc098c6.16'
- ap: 2537
  img: http://i.imgur.com/5j1qaiT.png
  lat: 41.891685
  level: '?'
  lon: -87.607105
  name:  '604bcf263ce74928ac74307cf25cb142.16'
- ap: 2537
  img: http://i.imgur.com/5j1qaiT.png
  lat: 40.106513
  level: '?'
  lon: -88.5585
  name:  'Lodge Christian Church'
- ap: 2537
  img: http://i.imgur.com/5j1qaiT.png
  lat: 40.275273
  level: '?'
  lon: -88.353476
  name:  '28272aaee3234a039246a4282f96c916.16'
- ap: 2537
  img: http://i.imgur.com/5j1qaiT.png
  lat: 42.257945
  level: '?'
  lon: -90.422561
  name:  '7d3e65f2c7fb42968abbf55f31c98b18.16'
- ap: 2537
  img: http://i.imgur.com/5j1qaiT.png
  lat: 42.261359
  level: '?'
  lon: -90.424042
  name:  '7303f97f88d6407db3d54d2e8f899b35.16'
- ap: 2537
  img: http://i.imgur.com/5j1qaiT.png
  lat: 42.263973
  level: '?'
  lon: -90.425098
  name:  'ab98793f968740bb91d4897b688620f6.16'
- ap: 2537
  img: http://i.imgur.com/5j1qaiT.png
  lat: 42.261982
  level: '?'
  lon: -90.424571
  name:  'd9f4a5f61cd74711a2fb64da592328d5.16'
- ap: 2537
  img: http://i.imgur.com/5j1qaiT.png
  lat: 41.962826
  level: '?'
  lon: -87.634756
  name:  '247a6de775a146a4accf8b1a11a1e0cc.16'
- ap: 2537
  img: http://i.imgur.com/5j1qaiT.png
  lat: 42.20261
  level: '?'
  lon: -86.391879
  name:  'dfaff92014bc4e02a9ed0e8b6809da82.16'
- ap: 2537
  img: http://i.imgur.com/5j1qaiT.png
  lat: 40.434524
  level: '?'
  lon: -89.219048
  name:  'be2310d20a384a37a62070d394c1c56c.12'
- ap: 2537
  img: http://i.imgur.com/5j1qaiT.png
  lat: 40.823387
  level: '?'
  lon: -88.687292
  name:  'a4de986f46774e7b856107173f2de67f.16'
- ap: 2537
  img: http://i.imgur.com/5j1qaiT.png
  lat: 42.248754
  level: '?'
  lon: -90.418098
  name:  '70d2dfbf423e4fd391721645fd5a6223.16'
- ap: 2537
  img:  'http://lh6.ggpht.com/WA_L9RXB_ZwCyxpgQ7Lyjp1-4xTl5O-BQohOBQcoEMnP7-wKp--MGUdnY_DPuCGZ78-x0LtEWc8FT2n9QMPS'
  lat: 40.148879
  level: 5
  lon: -88.258423
  name:  'War Veteran Memorial'
- ap: 2537
  img: http://i.imgur.com/5j1qaiT.png
  lat: 40.152871
  level: '?'
  lon: -88.253305
  name:  '50197185529145c883d36b74db0ec522.16'
- ap: 2537
  img:  'http://lh5.ggpht.com/BUGNnLReyCBJJj9_zpqgwv5_CAyiW8fWBpyVs0ip1hT5NEE6YKCYzlc8ahldKzk_xv-4uckNJNb6NrJd6r33qg'
  lat: 40.116989
  level: 1
  lon: -88.242255
  name:  'Blind Pig'
- ap: 2537
  img:  'http://lh5.ggpht.com/orl0d4FNIpZ7xsdZmVyH_732dMd4uGM01fQ-P5V82KufzWBOMbpankzTgjeS3frZhS7apS3qCrS2o4jtw7pAkg'
  lat: 40.105605
  level: 2
  lon: -88.227414
  name:  'Charlene E. Haight Bench'
- ap: 2237
  img:  'http://lh4.ggpht.com/bYrhTw8QophdiqDG-upqJ6JX2g2tZYX4N1jC4d_cciIj4ep8oQvIgjJlfge2VCmzSZe9irj-BTpbj9Jcv7U'
  lat: 40.103009
  level: 2
  lon: -88.233215
  name:  'Mac and Diana Garret Memorial Tree'
- ap: 2537
  img:  'http://lh6.ggpht.com/yE7aPklOUj6Y4vlNLUrqm7uJbj0TAVjhl_vSEgy7CHGlkTo5yyJGeTCUnRsHYe2UAZq2h_Y3AD_m3y3i2B8'
  lat: 40.106876
  level: 5
  lon: -88.228565
  name:  'Lincoln Hall Sigil'
- ap: 2537
  img:  'http://lh5.ggpht.com/1fPvqpqXG5PDCkmegoWb9Tv9N5_MZh9XjmZpbyNEs5yPDsCscbrPB1cO_Pf8GT35HYrTF01FZ6s5VPIpjJ_20A'
  lat: 40.107098
  level: 6
  lon: -88.228984
  name:  'Saint Andrew''s Church'
- ap: 2537
  img:  'http://lh4.ggpht.com/zZ2YpVpDiI1KdIQ9iI7mGJD_VtwFztJ4ZF1vRehD9OSnQ2K3433SIg22svwcqDJVfeO2fjE3fdT4eHAJWGpi'
  lat: 40.104339
  level: 6
  lon: -88.234788
  name:  'Pi Kappa Phi Fraternity'
- ap: 2537
  img:  'http://lh5.ggpht.com/tPscy6slTJx73zDybbj3sob_v5WpIWRVjDPJgF6LK-JCbYxii3L2eH8aYreetk31aEKPu1TlzR4zSTq0K2A9'
  lat: 40.082864
  level: 5
  lon: -88.201047
  name:  'Mommy''s Little Stars'
- ap: 2537
  img:  'http://lh5.ggpht.com/nP1l1H87xpugqoPpX-3ucCRm1xAlBUs4o60-_eF2Dtfs1LN8QkFCcspxdr1GgsdbBBtDKs1vDK-D0_xwG_2L4iZTySxDRpL2uSD65s5_OvTN8HnU'
  lat: 40.082307
  level: 3
  lon: -88.200089
  name:  'Folk Art at Meadowbrook Park'
- ap: 2537
  img:  'http://lh3.googleusercontent.com/BGqERpq1WgQyHSHXkaoPE9m-RpBg_nfiLoahWIanWTo8hI6NC-C_Bo-NIANKabLahSJMSYjwerlTAvRswOYrEg'
  lat: 40.082631
  level: 4
  lon: -88.200245
  name:  'From Night Daddy''s Book of Dream'
- ap: 2537
  img:  'http://lh5.ggpht.com/prfJ78X11LQhmc4oqt5BIM1mvF3nq_ZyuHqdzh9Ab7lz5aRQqfjllde4UKCFCQguDMa0Nl63SsnEstu2uaw'
  lat: 40.083271
  level: 3
  lon: -88.200732
  name:  'Prairie Play'
- ap: 2537
  img:  'http://lh6.ggpht.com/XqG3n3J3bCj61mM2c6ByPJaWYXv51nQkx7me8714asRsez8kx_rSW4mwH2Rm8Y6Yibx71YB6kMcbAYpGch4'
  lat: 40.079324
  level: 6
  lon: -88.209124
  name:  'Timpone Family Ornamental Tree Grove'
- ap: 2537
  img:  'http://lh5.ggpht.com/i_8huo_CxMxwTgcukj2dHefx7TgK3uMShcy5UJPAMHS9EfTTWEsWq2FpQew2G7N3KnatQxJjlQekJmvjhqc'
  lat: 40.078738
  level: 6
  lon: -88.208631
  name:  'Open at Meadowbrook '
- ap: 2312
  img:  'http://lh5.ggpht.com/YaIKBanBs_Nk5kstDaA9jBqnvY9vRfXO2YuO21JwbSo1c2OiJZvSlWe3x_6vyCPb-NZKQSBmnkOstTytpNxw'
  lat: 40.079832
  level: 3
  lon: -88.208385
  name:  'Herb Society Garden'
- ap: 2537
  img:  'http://lh3.ggpht.com/N3joo2vGiOAq-hh0peo2upcDO7iyxx1XC_6L1CBWIQ2PhXEpR1UI3dtCOYHcM8pchVwGj0GyVko-qxrGx3Q'
  lat: 40.078315
  level: 6
  lon: -88.208939
  name:  'Sunstruck'
- ap: 2537
  img:  'http://lh4.ggpht.com/efOG849cf8EKwVLL2BfNKzwBdkrAuNsMeYOZfeR8FYnK3axQJJON0VH191MLBwjJaQ1EeQC9Pt8LMtNI2LEa'
  lat: 40.07718
  level: 6
  lon: -88.203511
  name:  'Denise and Ernest Walker Grove'
- ap: 2537
  img:  'http://lh3.ggpht.com/SGh5Xw4MO1dVvrMemAzgB9RDDBXEv4yPJSQnS537XIPlaVnoge7FriTE0zXjRXDxMtFiaTHXXihwZpbush_dbg'
  lat: 40.077367
  level: 6
  lon: -88.203354
  name:  'Meadowbrook Trail Map'
