- ap: 13220
  img:  'http://lh5.ggpht.com/HhVreJipNvxPRVFpmsh2BPo9PcpPO2Q2l3jCpDjIKgfKGycoTNPXR4DKiYccBXW4X-4dJf_vV0ESsWAWHcChsg'
  lat: 40.100936
  level: 8
  lon: -88.250855
  name:  'Donald F. Bresnan Memorial'
- ap: 8909
  img:  'http://lh3.ggpht.com/lzCSS0_tjwUV7JQ2fgLI0e05IrzPxlVUs-6aEPOwUv67IanQJSTi71gkw0SGm8asmoE_r3Xoh048Fd9xRpE'
  lat: 40.099169
  level: 8
  lon: -88.251419
  name:  'Lyman Larson Memorial'
- ap: 8909
  img:  'http://lh6.ggpht.com/qSCp5fQMlyCQ-GOAgiSFy5gaHJei705Pa3eOlJiYO5wGjZTYtjA8q7QWWfAWcLKjxZSaFiMfXOPR8SO7rWU'
  lat: 40.099353
  level: 8
  lon: -88.251876
  name:  'Raymond B. Cattell Memorial'
- ap: 8722
  img:  'http://lh6.ggpht.com/yjfa0jJLjsfLRf9Zn9iafMp3MuIhgCi0WiOCF8GqTGiGvzEnsPGrFa0H1n-uzWhVehLbt44ShthsA32VzHd5iQ'
  lat: 40.099737
  level: 8
  lon: -88.251157
  name:  'Tyler Van Atkins Memorial'
- ap: 8159
  img:  'http://lh3.ggpht.com/rUgM7jkTqL0VHxvsSW0yWuNJF5UrU62ITflghfn4PfKjn6L4WGz0ALkv98fc_q9dmK9SSpU1PXIawGvcRwE'
  lat: 40.098246
  level: 8
  lon: -88.251974
  name:  'Hessel Park'
- ap: 7972
  img:  'http://lh5.ggpht.com/J6mcCWpzY1HtqSgO5x_y5aVz-YFsC8M7QP6HkXPiD48zj2LwljZvVXDN2m_K8oMn6mei5g6B8PphiUGrXGDG6g'
  lat: 40.119305
  level: 5
  lon: -88.244122
  name:  'Women''s Town Club Building'
- ap: 7785
  img:  'http://lh5.ggpht.com/D9O580D9hlBOqeMvt2V4nL-eHP62h4vG4YFgk-WTw7GunusU9AOffFuHZ9XYWoB8YrGxpCMu2Y77-LCAgcdT'
  lat: 40.119328
  level: 3
  lon: -88.243755
  name:  'Birthplace of Champaign / Beautiful Beardsley Hotel'
- ap: 7785
  img:  'http://lh3.ggpht.com/8FqlniFErK7cq59awiT84u8KyV4FIRd5krZzfYa58zJToFps7whdBnriPqvO_kFKeLUE3SWbJhCOPuvUQzaGFA'
  lat: 40.100691
  level: 8
  lon: -88.251337
  name:  'In Loving Memory of Zeus'
- ap: 7596
  img:  'http://lh5.ggpht.com/BUGNnLReyCBJJj9_zpqgwv5_CAyiW8fWBpyVs0ip1hT5NEE6YKCYzlc8ahldKzk_xv-4uckNJNb6NrJd6r33qg'
  lat: 40.116989
  level: 7
  lon: -88.242255
  name:  'Blind Pig'
- ap: 7222
  img:  'http://lh6.ggpht.com/5CDidk0pqfUtSW_Yqouuf3diX8drdMu9DoT728QpSz8q6A-WxNhT0yLcgM_7gGpyIAeXrHiTkIzzaVJFgnN9WA'
  lat: 40.099852
  level: 8
  lon: -88.251947
  name:  'Our Friend Tim Palmer'
- ap: 6848
  img:  'http://lh6.ggpht.com/rGhR45ZFbHtxmrZSSy9V19eFoyHIDB42c6MK188isPJFWpUsW9ywNHayKt3acNvKNC8DAV6mDkUloj3aiS4'
  lat: 40.118422
  level: 4
  lon: -88.24346
  name:  'Entrance'
- ap: 6285
  img:  'http://lh4.ggpht.com/PHV-1ZpFzCAl_ViCKwBY_x2pIDbVyaT7wJH1sTvFJCxrSdRrO1x7NaXq9OdRGwz_Mls4iwk6wuGHMBArfV54'
  lat: 40.098688
  level: 8
  lon: -88.25063
  name:  '"New Holland Yellow Dinosaurs" at Hessel Park'
- ap: 6098
  img:  'http://lh3.ggpht.com/bltQwmnzp2vSKYhLpzNLqB4iddy6ie0kWk9G7Wce4U9qmW3CABxbXAhF7v0oG9QLFD2q57UZuVqZCMgN3MHZfA'
  lat: 40.118335
  level: 4
  lon: -88.243408
  name:  'Downtown Fountain'
- ap: 6098
  img:  'http://lh4.ggpht.com/vKgqIecJshMQxrhO-ZhMjcIyARuJdyU63wKfzAG0wouZex6LVzO46Qi5zM1N3Jx8xyantDFk9sQGsSEBhb-y'
  lat: 40.101327
  level: 8
  lon: -88.251412
  name:  'Zeus Memorial'
- ap: 6098
  img:  'http://lh4.ggpht.com/B_I1b0Jy3vW41RX8jjCNPP68AULplU0Pf8ddolyKmpEWCfBVShQkmjF1HfTPzDjmBBQGgOs0jHW-rUR0mv8BkA'
  lat: 40.098789
  level: 8
  lon: -88.251685
  name:  'Curtis William McKinney Memorial'
- ap: 6098
  img:  'http://lh4.ggpht.com/4LxsGZZMk3DnpJXUvqzrL54CHSP5TDXjUnDJyHmCCTtCJIjGEI7kxT9g4uxfSPh0X6yGLgQo1jfqbu7B8VEr'
  lat: 40.099084
  level: 8
  lon: -88.251826
  name:  'Irina P. Stewart Memorial Plaque'
- ap: 6098
  img:  'http://lh5.ggpht.com/4DJAFPeZ_w65Km7VDnsbOqouQaeBuPuxA0KHPQToT_B6o1hBxzdu3kn89UhHgv22Ygj52Fx9QqcbzOytuw'
  lat: 40.100078
  level: 8
  lon: -88.250683
  name:  'Brian Clark Memorial Plaque'
- ap: 6098
  img:  'http://lh3.ggpht.com/VrbXGwlUosNLEkVdshWUFoVa3KtlJQoEU4yLYygvftYbPCmxo644Uvar_v8Kb9RS53hB0tXgvV44GotrxZyu'
  lat: 40.098592
  level: 8
  lon: -88.251676
  name:  'Ruth and Fred Steigmann Plaque'
- ap: 6098
  img:  'http://lh3.ggpht.com/G1CvGhpethi5UmprDWxZN9rTblHa3anSsQz1UPgJtkREkfN7lDFoxFObst0609Cg5mofuZxJKr0ddNKhY4VL'
  lat: 40.098464
  level: 8
  lon: -88.251426
  name:  'Ruth Haasis Memorial'
- ap: 6098
  img:  'http://lh5.ggpht.com/-UWK84I78Sftf7yg-E2pg6xEAWTvyiThgJBJlxbqOZPYKNmzQ8uGgEEMetzplrG1HpXG5kQqNItUeXKxOHDsGA'
  lat: 40.100286
  level: 8
  lon: -88.251747
  name:  'Tennis Anyone'
- ap: 5535
  img: http://i.imgur.com/5j1qaiT.png
  lat: 40.106513
  level: '?'
  lon: -88.5585
  name:  'Lodge Christian Church'
- ap: 5535
  img:  'http://lh5.ggpht.com/KuDVZqnpBQnne0a_UqpN4wpsQFlw3nVXAWtRKP_AdZ3CjQ0MHUBgU_2hE8hb71h31FTQbduYmB6DNuVKA0s'
  lat: 40.116822
  level: 6
  lon: -88.243445
  name:  'Remembering Horeb'
- ap: 5348
  img:  'http://lh5.ggpht.com/tfAfnmo6mSMc6U0P533NMFJRGwn6lasmx-MLR2JJg1QOizMKkghFU8E7hb2zgYgdQEbgnCJUlvZIMdrrJe4'
  lat: 40.100822
  level: 7
  lon: -88.25193
  name:  'Seeds of Kindness Bench'
- ap: 5161
  img:  'http://lh6.ggpht.com/nbUJivBo0zF8f8aBbk1GwakUpPbLUVOoEovTTETYwJvfNIHXwG9XUbwoV0x-ly4ZO5Hsyv5KPo3c9cE6Nh8'
  lat: 40.118832
  level: 3
  lon: -88.243643
  name:  'Tesla Ball'
- ap: 5161
  img:  'http://lh6.ggpht.com/S7Utf4_59vQkAP5JhC3mdbzVLKBTt-0zoJ2UjfxUnN10VBbixO-_VwvssWd1LbFSx_yafaijd_U0wTGo870'
  lat: 40.100941
  level: 8
  lon: -88.251314
  name:  'Gabriel Patrick Maxeiner Memorial Plaque'
- ap: 5161
  img:  'http://lh5.ggpht.com/C6wRSaEWO1NYGY5luyYZKHG3Z3aib4aflaPdV7B9G6N6adE890g3QuPRSvCUhsdFHqjoVUjo27mfz9WsjXyuhQ'
  lat: 40.100521
  level: 8
  lon: -88.250864
  name:  'Gabriel Patrick Maxeiner Memorial'
- ap: 4972
  img:  'http://lh3.ggpht.com/2WMtYMnBjTlw-gPK9quwjMde6Heie7SQHCZT41kPiIpOwxXEIQWbB_euK-R5rZhqUcmGuZJ0tIBh_801KGyVsw'
  lat: 40.11453
  level: 2
  lon: -88.227324
  name:  'Beckman Institute - Upwells Fountain'
- ap: 4785
  img:  'http://lh5.ggpht.com/f710C9AvOEB7ieCI4f382wWUP4OgDxiqPzbxqxct6Ugf2PWBfyXyDpG_JcRQ6PaZ_jS0jpXXBhNSt_u9rFA'
  lat: 40.113864
  level: 7
  lon: -88.224839
  name:  'Plato: A Social Networking Revolution Begins'
- ap: 4598
  img:  'http://lh5.ggpht.com/dRrlHXlT2nMNgZNHiYo52ha9L-Xay9DyOJR2Cpqs74hgAJ09abn9OTAtMzRVedt1_R9ObZllLO98vRhNMfgTgVsJCk1S-HJwX_XgiGpG4lz3a328'
  lat: 40.11671
  level: 7
  lon: -88.24263
  name:  'Cafe Kopi'
- ap: 4598
  img:  'http://lh4.ggpht.com/BEyFLhgqk0ySf2zElnARv5eyaQggj_zbHSagW3_DGt9BieScmU4jGPvJCjezTjbiCP-DOJPLPfJ3HhnYAiQLEQ'
  lat: 40.119288
  level: 5
  lon: -88.248086
  name:  'The Hartford'
- ap: 4598
  img:  'http://lh3.ggpht.com/psgrRGIt786cUSq8EV7SBSDsS-aptrUKjaCXWv864H7OaJL2K71qJpxU9Iw-acwFMi52ZN2qpEmicGmlmhJq'
  lat: 40.121061
  level: 5
  lon: -88.250227
  name:  'Curtis F. Columbia Legacy Plaque'
- ap: 4411
  img: http://i.imgur.com/5j1qaiT.png
  lat: 39.997417
  level: '?'
  lon: -88.65824
  name:  'a284087122904fa49931fe6528741984.16'
- ap: 4411
  img: http://i.imgur.com/5j1qaiT.png
  lat: 40.004328
  level: '?'
  lon: -88.648978
  name:  '4130699e28334a9596f10b595066af70.16'
- ap: 4411
  img:  'http://lh4.ggpht.com/MvwoDsxwfyNLHzfGkFJl-4VFeX7OvqB0hsMCrZ2D9Olh8GSghAJDfFfDh7a7cOtMIGwEDMyesZoKvKCXAGj4'
  lat: 40.116553
  level: 7
  lon: -88.242268
  name:  'Esquire Lounge'
- ap: 4411
  img:  'http://lh4.ggpht.com/tLO2wjyCgyune3KDOlQMV_oiDRxVsHqO1gAG_0xs9TvKOiuWRVmJcO29WI7jELxoxncaXpy91kMa89Uj65JVNw'
  lat: 40.11784
  level: 6
  lon: -88.24286
  name:  'Kaufman Memorial'
- ap: 4111
  img:  'http://lh5.ggpht.com/KYppjeOoIlb4lbowRrrC5qRdYW7_KU8rzjtDMpvhh-Q_c6VZOTtVmOqmmxChJA2hjlpS5dJ1JnhUQcKUAXDWHA'
  lat: 40.117976
  level: 3
  lon: -88.242642
  name:  'Stevick Building'
- ap: 4411
  img:  'http://lh5.ggpht.com/ENeQgqydWbi9-Oyf7vizunoRqJdsZV4o0RA_956wjGI8hqpTCHBPyWMpbTrrkwYpj5tgzDRvevGmvH4eFRU'
  lat: 40.099593
  level: 8
  lon: -88.251724
  name:  'Blessings from Devon Elaine Cattell'
- ap: 4035
  img:  'http://lh5.ggpht.com/f1O8bFXHTg2PTOAUVLvrqk5xx5ps9SeqhpJ1RIPtSxm0I-e7J275e2ujJp3lFQGHUBW_vS90KOsrcdLDJ84l4g'
  lat: 40.110797
  level: 6
  lon: -88.225321
  name:  'Multiphase Fluid Dynamics Plaque'
- ap: 3848
  img:  'http://lh4.ggpht.com/N-xxTzGXK34K-VdTOWaWrFJeP9_SLZ7ZBluxK2mjP51yZx_5HOMi_mb4Nu2rWgo3gOqUb19_cPb662sI7td_'
  lat: 40.105687
  level: 5
  lon: -88.225714
  name:  'Smith Memorial Hall'
- ap: 3661
  img:  'http://lh3.googleusercontent.com/M1BXbCtfOfi1ipACxyQaE2jCbcLCxQTsJVIUli8GgprQaS2WmnVuSsqMoFaWub8LM6VF7KK4wSH9SSGdrXM'
  lat: 40.117287
  level: 6
  lon: -88.242984
  name:  'Mural for the Blind Pig Brewery'
- ap: 3661
  img:  'http://lh6.ggpht.com/SCYK-XeMmOyfRrTt1-aQNoDA-2Sib4m5Ch26mTwo6XNdVeVnfi7W74Ik6IRLAPSoKzSS97pgwt50Jl9oSgGfP029USxZzQWKNJo3rbs-6YHBPBif'
  lat: 40.116792
  level: 6
  lon: -88.241752
  name:  'WEFT 90.1 FM Community Radio'
- ap: 3661
  img:  'http://lh5.ggpht.com/4eagHlnlpVbtFi_knZN73PIs2A--Ipj6SOlkQADePlfnzfOnJn-cAv0IoNNv4qR8WrbUFImUKHBknyaoAewO'
  lat: 40.111383
  level: 6
  lon: -88.225675
  name:  'Only Rain Down The Drain'
- ap: 3661
  img:  'http://lh3.googleusercontent.com/NRpdP-ebGuykq3sH1NZBQVjhmSdVJW3F4MTCRdXrWKQf3Z5dBgo0Phhyqnel5IrJmriQRmJNFR12lRDrjxJ9'
  lat: 40.114911
  level: 5
  lon: -88.227781
  name:  'Electrical & Computer Engineering Building'
- ap: 3661
  img:  'http://lh5.ggpht.com/ZDv0mHiZcEfLxGVibvfnMCu7reJceCVnxa4GeBjK2DO4Y4a0x-M7C2M0rEam-_bPlr2e2476RXe15pRY48s'
  lat: 40.114351
  level: 2
  lon: -88.227096
  name:  'Chi Epsilon Civil Engineering'
- ap: 3474
  img: http://i.imgur.com/5j1qaiT.png
  lat: 39.997136
  level: '?'
  lon: -88.65884
  name:  '14ae78faf94e4ba8a3eb72ce44889e83.16'
- ap: 3474
  img: http://i.imgur.com/5j1qaiT.png
  lat: 40.004721
  level: '?'
  lon: -88.648492
  name:  '80df240724914dc2a7f08dad75283f21.16'
- ap: 3474
  img:  'http://lh5.ggpht.com/6W_b3aoHNnxViA4TkycmE5hhV5q_VHfypLNlgG4sAyw2eJ5Meyzi2-vwTA8miyKA5pZApxbfpAa7uc0zlCM'
  lat: 40.134758
  level: 4
  lon: -88.313172
  name:  'Sunset Ridge Prairie '
- ap: 3474
  img:  'http://lh6.ggpht.com/ocpQF23CdY7CXPOYMbPL3wLLV7Rc0VayvSyooA07il2lG0oiiQDbDCnsKqO1ysXJAVlzGikCKS-kVOLb6rog'
  lat: 40.135079
  level: 3
  lon: -88.314559
  name:  'Sunset Ridge Decorative Gate'
- ap: 3474
  img:  'http://lh3.ggpht.com/xSCQSCRT6pHyQi9LDI3OamMdZnhLQ06OSlHRHnJC0FkDo93VgOcr3gyAV0aPAKagwq9V5iViSSCgIr6_fWCB'
  lat: 40.134441
  level: 4
  lon: -88.314067
  name:  'Seasons Within the Wetland Environmental Sign'
- ap: 3474
  img:  'http://lh6.ggpht.com/NH1CnJnblS1bpZxZJ0VxAHy0tYw7BiYdVK5V9KnTw0N1KMf8OFR6FZP01shVet9ha4cEfSYufO9a1bv8Sqyd'
  lat: 40.12142
  level: 4
  lon: -88.243105
  name:  'US Post Office, N Neil St, Champaign'
- ap: 3474
  img:  'http://lh6.ggpht.com/uJ6kk4uQVfzQ22nbmRS5caadkRcM8fSpAlbvgM8KacYRDBYZtQTBKIHX7ju9ejvrdRG_oIr5QDELOwvb7L0'
  lat: 40.121759
  level: 5
  lon: -88.24366
  name:  'King''s Assembly Church'
- ap: 3474
  img:  'http://lh3.googleusercontent.com/ryRMzj5c3ls-s5Gocd2-IM_oonInNzjPIbCGJVps6JmZxYcG165NabHKNZW7wAepNc8rtLf3A3E0U1mbq-I'
  lat: 40.121394
  level: 5
  lon: -88.243908
  name:  'Circle K 601 N Neil St'
- ap: 3474
  img:  'http://lh4.ggpht.com/xS51--rXA9M_IHpXWgFQxKZU-YbD-1zk-nug6k7RyKl8rYeam_YFwMmLNWRRHHzI-rOTGyhTJQQ314WudSQJ'
  lat: 40.117132
  level: 6
  lon: -88.243009
  name:  'Fountain in the Alley'
- ap: 3474
  img:  'http://lh5.ggpht.com/_9uqsDQROIwqIhKx_URY4DdZAapoZBEWK6Eaclt5mM5vPsjwQAD-v8Bv-4b-Smq2F8X4zOgzLx2KwySkFWc'
  lat: 40.118448
  level: 5
  lon: -88.25211
  name:  'First Church of Christ, Scientist'
- ap: 3474
  img:  'http://lh5.ggpht.com/nirQKdy3s9r8TSV7cB7_B0l-0EsFXBkg1aitH05R0ttPhOEewGxlq1GRnlDvYFT2V8Z91hWnB9YD3WjxBvyZ'
  lat: 40.11868
  level: 3
  lon: -88.243426
  name:  '"Pointless"'
- ap: 3174
  img:  'http://lh4.ggpht.com/_jAAuDi8SO5uupi8JlB3HZaFG40S15izNv_3vqOt7ro2rRHuXrfdEKfEFvRESdAjCEz3RVDpyrxJGSIrju5d'
  lat: 40.117916
  level: 3
  lon: -88.243087
  name:  'Sholem Building'
- ap: 3099
  img:  'http://lh3.ggpht.com/GGBe9Hug3fUbRCRAMs_kO1fg2HHQ95ZDBdW0S2tAHakvhQbWxlttanjhGNJJcyVRruUlL7zjQnPGI2bu8Wc4'
  lat: 40.117905
  level: 2
  lon: -88.242149
  name:  'Read All About It'
- ap: 3474
  img:  'http://lh3.googleusercontent.com/v44Gf5oEZGcwkQcA2wWz-uAeDFESHj7sEloxdCJd316RPH3w_ln8_9mBEMbAqGyI_2Y2qaYp525PnRip9Rg'
  lat: 40.105315
  level: 5
  lon: -88.226125
  name:  'U of I Observatory'
- ap: 3474
  img:  'http://lh5.ggpht.com/J4IbsPUjPF6cIlktTr1tOGHi61krS9o1eXeuAlPRBrSYUQrwdyShfNzuzxD0epa_cBMPF1xJ9YhoBA5VOQtYRw'
  lat: 40.105467
  level: 5
  lon: -88.225644
  name:  'Smith Music Hall'
- ap: 3474
  img:  'http://lh4.ggpht.com/d3UqrcK5M1wuOe19dIaBUOkrXF4C9IxhOWfxqzM4zIHkGsUIRb1mckNapOMRkkCtVIe0rzJumb1OVDVc1_Y'
  lat: 40.108055
  level: 4
  lon: -88.233688
  name:  'University Baptist Church'
- ap: 3474
  img:  'http://lh4.ggpht.com/hJDi8J7CZU-933hT0Culp2nhslv6p8rDRPdTFz6FwNaAjB5CmfkaQzj9sM--E-QBvI8yvIJn1F2jxy7ZKWlh'
  lat: 40.10816
  level: 4
  lon: -88.234245
  name:  'Stratford House'
- ap: 3474
  img:  'http://lh4.ggpht.com/OFVPvdgB3GVpaQknHdnt2okgP3xcQksAH3wvOGYVuP85MMlxo3bQ2SRpBb0hzNfjQoC_5LlRqaE6jLB-h9Gr'
  lat: 40.108092
  level: 4
  lon: -88.234589
  name:  'Koinonia Plaque'
- ap: 3474
  img:  'http://lh6.ggpht.com/j712bbvDknzGlAU87nZA1Bx45Ng-0MGA9Uvuv-3WzIKA3W51mXOZpJ-TzVSbuU3uE2AsJ5wcO7_B6WDpdRr0'
  lat: 40.110684
  level: 6
  lon: -88.226053
  name:  'BCS Superconductivity Theory Plaque'
- ap: 3474
  img:  'http://lh6.ggpht.com/BsXdEO7HLxNLSdztPo_4GNNcbxZCxswiDT4pmmcfDQ8YO2SFVW-VnwyEZBvkuhf1rxKAtoKNLvV4rDJ-YVCYUK1qiX-dId_R8P-JskyFYAK9ruM-'
  lat: 40.110234
  level: 6
  lon: -88.224055
  name:  'The Etc'
- ap: 3474
  img:  'http://lh3.ggpht.com/LR76HrJqriPFUoc2XSs7jb2SotnStZv20kI7rgUx8B5HqhmetnTW4MA1tCp1ws4g5gw0sf9g7M3Lwq4VwfpD'
  lat: 40.111687
  level: 5
  lon: -88.225353
  name:  'Transportation Building - University Of Illinois'
- ap: 3474
  img:  'http://lh3.ggpht.com/x5fBw8MRogV8dm3kPO5zKNkUrQxn0dM7d1PIoASdX1_Rc8H5Duex4iZdOoIlqazCGll25TmptsWIRq1JFmj6'
  lat: 40.112135
  level: 6
  lon: -88.225762
  name:  'Computer Based Education Plaque'
- ap: 3285
  img:  'http://lh5.ggpht.com/fGRHfMAqdWrUnPE8GStKSdMkgQmu9qvuxAC4VzcU1v2KyxQu2BeuJKhvhefSeFNTkgFh6YdR-F4P6plMbh0'
  lat: 40.110194
  level: 6
  lon: -88.231488
  name:  'Fighting Illini Memorial'
- ap: 3098
  img:  'http://lh5.ggpht.com/6qIQAtIoPbAVQ1O3BoOnGg6gtTa9fd0JIkxt6P1kmSimVswLaPpCRaLEudsNcMfP_kKb4SCE1By1o3lhYevmIA'
  lat: 40.1172
  level: 7
  lon: -88.243745
  name:  'Circle of Friends'
- ap: 2724
  img:  'http://lh3.ggpht.com/g1H1SJintXK5Zb7ng6DN7wix1q5otnzMK5JCJDnecwuIiohJmhXLJs1XzItxaTSYEuPPOqd4x-dGqd0WK5YU'
  lat: 40.13349
  level: 5
  lon: -88.313072
  name:  'Sunset Skate Park'
- ap: 2724
  img:  'http://lh5.ggpht.com/28al1CSkHNCrM9Sb57TYmawr1uFh6r5raWMJKD4QjLCj6N5YHEYIIizONs_hHF3pHuIppLjqxbTFcvrI9Dq9'
  lat: 40.111205
  level: 6
  lon: -88.227583
  name:  'Theory of Superconductivity Plaque'
- ap: 2724
  img:  'http://lh3.googleusercontent.com/EvLov_3eYLGHotkWec9w3T1VCPQri5SR8JLZjbJUaxRsyGPLS4YQNXf90xlPoKjxGYlml9N8IDYKwpNvVIWlVA'
  lat: 40.114563
  level: 6
  lon: -88.228735
  name:  'End Caps Sculpture at ECE'
- ap: 2537
  img: http://i.imgur.com/5j1qaiT.png
  lat: 40.537996
  level: '?'
  lon: -89.703242
  name:  '20c5990038ab44e688ca7e621724be47.11'
- ap: 2537
  img: http://i.imgur.com/5j1qaiT.png
  lat: 40.448737
  level: '?'
  lon: -90.655365
  name:  '2ace34ae979e48e8a647094c19e1fe7c.16'
- ap: 2537
  img:  'http://lh5.ggpht.com/1eDayuS4d2wNAfoiDstKMYbI0A-jF-si0NR2wlIA4cGm_nJhPwg0qgwC4fHnpfADWMcQd31BdogexUe3d1W2'
  lat: 40.124396
  level: 5
  lon: -88.305917
  name:  'Sawgrass Playground'
- ap: 2537
  img: http://i.imgur.com/5j1qaiT.png
  lat: 39.994016
  level: '?'
  lon: -88.667302
  name:  '28ce48001f37480c9f86a522223dba81.12'
- ap: 2537
  img: http://i.imgur.com/5j1qaiT.png
  lat: 40.113538
  level: '?'
  lon: -88.124466
  name:  'Mt. Olive Cemetary'
- ap: 2537
  img: http://i.imgur.com/5j1qaiT.png
  lat: 40.158548
  level: '?'
  lon: -88.277095
  name:  '5cba3f0112ba4c8f8e55e1a34871febd.16'
- ap: 2537
  img:  'http://lh4.ggpht.com/YMDDyyJpIhe7xeYVGH048CFQDr7lX1SIPXzk4kXWr6zVgpUv6D1YGTLKwyg3DrhDoCuv-knBgF2gKZTylVRQ'
  lat: 40.132912
  level: 5
  lon: -88.314568
  name:  'Sunset Ridge Park'
- ap: 2537
  img:  'http://lh5.ggpht.com/8M0cUsd4eq3jg7zuefsRRnxKhwn5q8xipPHTaf8z-o4xdGPYl0NgpiXIMDSknrQjcvRUOzyzWYsXHRqlfOY'
  lat: 40.102064
  level: 5
  lon: -88.284067
  name:  'Lindsey New American Gardens '
- ap: 2537
  img:  'http://lh5.ggpht.com/uICg1AgxErKugaXSVrAGclLigtqDUyOsaOIldV_S086SuGvckMN90PIxdZehZMktOsdxW3Ok9k7Hcx5UJSd9ZA'
  lat: 40.102217
  level: 5
  lon: -88.283855
  name:  'Lisa Dodds Memorial'
- ap: 2537
  img:  'http://lh4.ggpht.com/wbrbzDCo3C4qFJyHTWOST5o8B7kwZSWePUWOboIlYrdvxjrhWLqVQ1MqUF5-Hy4nt26x_oHQq9f8EbfdEjVK'
  lat: 40.117382
  level: 7
  lon: -88.243748
  name:  'Days of Venus'
- ap: 2537
  img:  'http://lh3.ggpht.com/CwgYIhVaivHHg_U6yqu5KSGhSh9ipRBDu7G192KiQfrnXc7C8uh7UOh6MP91vhZJ3LZdiTaFwpvFukvIaj6J'
  lat: 40.117445
  level: 7
  lon: -88.243409
  name:  'From Swords to Plowshares'
- ap: 2537
  img:  'http://lh3.googleusercontent.com/tWUxy7KQ-q_qBBIgLzTjjezrBpWPSJ_z3FWnvbB8Y5wIiYZW1I5ioL0Tzq60VyalCaIwOk4UI3agM8tFaykY'
  lat: 40.117427
  level: 7
  lon: -88.243235
  name:  'Cowboy Monkey'
- ap: 2537
  img:  'http://lh5.ggpht.com/AX1hc0zh7ZtN2MoSsNXTKwRtGJWb8EgeHffmjJfZvCLL7wvvjMZ8d0BwESKKrdNM--UUKA09PrLQ9qmTrMw'
  lat: 40.117186
  level: 5
  lon: -88.241556
  name:  'Champaign Limestone Sidewalk'
- ap: 2537
  img:  'http://lh3.googleusercontent.com/DJEd6b3-MwXXA5oX_rKCuAtk2dlQ1yS2p9nG8oDmc86DmbzFvhKsP-KR9nKAzn84UUf_K5LjjTMgrt7AjCoU'
  lat: 40.110853
  level: 7
  lon: -88.238339
  name:  'Boneyard Greenway'
- ap: 2537
  img:  'http://lh6.ggpht.com/0IsQORyEW-bPA7sEbGspygtoI7ixEshm_2fUw5oeh9AeXg6JN5w0ypYIshpuKm-C0nG4Vm2XmpLvtWTZzWzd'
  lat: 40.111607
  level: 5
  lon: -88.233753
  name:  'Chabad Menorah'
- ap: 2537
  img:  'http://lh3.googleusercontent.com/hvoLMUc9UoNVVPttxWTc8PzOWdu5MBmPETnBexH7Alyl20WGCrNa0G_j7DwvD3qbhqpTaeThFhGDV2rCtp8'
  lat: 40.107629
  level: 6
  lon: -88.224484
  name:  'Bucky Balls'
- ap: 2537
  img:  'http://lh5.ggpht.com/Tn5ARN-X6VTc2q6atZ2WYq3c2g3gbSGXu6_vXf1MDwHfLpdTtnQ-CilBAVGvL6R-SHhq3fJ4WZI-yiJKmIId'
  lat: 40.110398
  level: 5
  lon: -88.235143
  name:  'US Post Office, E Green St, Champaign'
- ap: 2537
  img:  'http://lh4.ggpht.com/PmGpygZ2fBs43twk2Y44XZbgGcHWv0YimAq7Fp3vlIRRqUyLpSmDmFwcn1ucfmJarcQrAAXJjYAXAhNyxSrz'
  lat: 40.110049
  level: 5
  lon: -88.231968
  name:  'Potbelly Mural'
- ap: 2537
  img:  'http://lh6.ggpht.com/SboHv2_AWJ6ll559fK1A5a1UIAKf04oIHrgidra_E6L8gDK_mQ-DaM7hKYkv7MT6ZAA8pzgPxv_Vy-eNN7g'
  lat: 40.110608
  level: 5
  lon: -88.231957
  name:  '217 Tattoo Co.'
- ap: 2537
  img:  'http://lh3.ggpht.com/lGjbP2iz0XvlEWLhgCBNqkWukvjrBowKmX-1_O44U1A3_4b3-vuXzkfp7rasqU81TcPBoQO82gAzEGtBBYcR'
  lat: 40.106058
  level: 5
  lon: -88.223672
  name:  'Music Building'
- ap: 2537
  img:  'http://lh3.ggpht.com/rT55OoX-8s-w_ikrqOgpC7QkK-Iqp4ylicElGoWFagKRQ8LX3Uvv8TZ5Xc8BlId1btzo5FTbgddPN72kYwA'
  lat: 40.114327
  level: 5
  lon: -88.224492
  name:  'Siebel Courtyard Structure'
- ap: 2162
  img:  'http://lh4.ggpht.com/6WTMH3liIIuH6pEvRGZOkUNNR84nR8frjFch6yn_4mbGIokY-MajBCG6jZHWU37a8TBI97rYTBlX-ks8m5XJTw'
  lat: 40.112843
  level: 2
  lon: -88.227657
  name:  'Class of 1904 Flagpole'
- ap: 2462
  img:  'http://lh3.ggpht.com/aHqOXq4BX_XXhSNRFJn0768z_1bjWEniMumNJ4FMy9Nv5j3AefPsZDiAGCehCguZ1HFOBMBXxRI4mOXd077e'
  lat: 40.112957
  level: 4
  lon: -88.227127
  name:  'Early Computers Plaque'
