- ap: 14720
  img:  'http://lh3.ggpht.com/rUgM7jkTqL0VHxvsSW0yWuNJF5UrU62ITflghfn4PfKjn6L4WGz0ALkv98fc_q9dmK9SSpU1PXIawGvcRwE'
  lat: 40.098246
  level: 7
  lon: -88.251974
  name:  'Hessel Park'
- ap: 14533
  img:  'http://lh3.ggpht.com/G1CvGhpethi5UmprDWxZN9rTblHa3anSsQz1UPgJtkREkfN7lDFoxFObst0609Cg5mofuZxJKr0ddNKhY4VL'
  lat: 40.098464
  level: 7
  lon: -88.251426
  name:  'Ruth Haasis Memorial'
- ap: 10783
  img:  'http://lh3.ggpht.com/GXyi2ghi2DR3h7uIHNYiEZPYixRhDo7LO0WHQ0PyEzb-150r7ar7JGeVjUoPuObC-GFWf22UWqnYCMtED0M-'
  lat: 40.100341
  level: 7
  lon: -88.249937
  name:  'Alice Marie Weber Plaque'
- ap: 10596
  img:  'http://lh5.ggpht.com/DFa-Mh8ldMlU5wGTYmJIGYKPoSYUfYebRpnom9j15NFNRkwMdU5kDME0GYQUyA_LXnsNi9Jka-xidd302s93'
  lat: 40.099056
  level: 7
  lon: -88.249136
  name:  '"Cricket" and Bob Barger Memorial'
- ap: 10596
  img:  'http://lh6.ggpht.com/S7Utf4_59vQkAP5JhC3mdbzVLKBTt-0zoJ2UjfxUnN10VBbixO-_VwvssWd1LbFSx_yafaijd_U0wTGo870'
  lat: 40.100941
  level: 7
  lon: -88.251314
  name:  'Gabriel Patrick Maxeiner Memorial Plaque'
- ap: 10596
  img:  'http://lh5.ggpht.com/4DJAFPeZ_w65Km7VDnsbOqouQaeBuPuxA0KHPQToT_B6o1hBxzdu3kn89UhHgv22Ygj52Fx9QqcbzOytuw'
  lat: 40.100078
  level: 6
  lon: -88.250683
  name:  'Brian Clark Memorial Plaque'
- ap: 10409
  img:  'http://lh6.ggpht.com/YVbqGVTjJuDMDdj71CP2mWvnUIdgO25PgoDdJwEGnEE_M9I1aDgKyjSr9JOZVU6UQTZQtfUo9RAWyz92n3jtCQ'
  lat: 40.098475
  level: 7
  lon: -88.249208
  name:  'In Fond Memory of William Moore Jr'
- ap: 10407
  img:  'http://lh4.ggpht.com/mlUN5QXAR7rKFvUg7yhxcae3udkR7zCJVaWt5sq_YA47piV6tRi42RNN9fEtT_FafT7lhqg26WM1VETbz5E'
  lat: 40.098239
  level: 7
  lon: -88.25376
  name:  'Hessel Park Christian Reformed Church'
- ap: 10033
  img:  'http://lh3.ggpht.com/lSr_gDGX9o1BHZX9FUPCKAO2VVQjZ_NwTBaSNhNgjVyJ2p6BnLDByC_vIkhu637-W5nKMW2SShi0gXOlXNqY7A'
  lat: 40.097979
  level: 8
  lon: -88.247785
  name:  'Jarling''s Custard Cup'
- ap: 9846
  img:  'http://lh5.ggpht.com/-UWK84I78Sftf7yg-E2pg6xEAWTvyiThgJBJlxbqOZPYKNmzQ8uGgEEMetzplrG1HpXG5kQqNItUeXKxOHDsGA'
  lat: 40.100286
  level: 7
  lon: -88.251747
  name:  'Tennis Anyone'
- ap: 9846
  img:  'http://lh5.ggpht.com/fDRifvVcFT_dKhPuNBN4rR9lNHL0Q6NvbMnGr2-ZdiirR2rJrBcWRi4vyM3-DYNHymUs7bWchaWRaUtBpg'
  lat: 40.098541
  level: 6
  lon: -88.250389
  name:  'Dennis Robert Costello Memorial'
- ap: 9659
  img:  'http://lh6.ggpht.com/5CDidk0pqfUtSW_Yqouuf3diX8drdMu9DoT728QpSz8q6A-WxNhT0yLcgM_7gGpyIAeXrHiTkIzzaVJFgnN9WA'
  lat: 40.099852
  level: 7
  lon: -88.251947
  name:  'Our Friend Tim Palmer'
- ap: 9659
  img:  'http://lh3.ggpht.com/sisvfsphxy7AK_2qrrqb7lNJk3_7ciHSVJyodINYITBc-UqugyNOooCxKupgJKEg5m_x95eZwouSO2WCmN60ew'
  lat: 40.098579
  level: 6
  lon: -88.249603
  name:  'Chef Ra Memorial Plaque'
- ap: 9472
  img:  'http://lh5.ggpht.com/C6wRSaEWO1NYGY5luyYZKHG3Z3aib4aflaPdV7B9G6N6adE890g3QuPRSvCUhsdFHqjoVUjo27mfz9WsjXyuhQ'
  lat: 40.100521
  level: 7
  lon: -88.250864
  name:  'Gabriel Patrick Maxeiner Memorial'
- ap: 9283
  img:  'http://lh6.ggpht.com/bk4dEHQrhHB4CnS-r1oU423YDgPGgV61H809xF_AI-CVJFh8pf1rbOMxcZIfQYEe0W5OLWy-XYtwPUc_n08o'
  lat: 40.068707
  level: 8
  lon: -88.242666
  name:  'Dohme Park Dedication Plaque'
- ap: 8909
  img:  'http://lh3.ggpht.com/KzADjdPRAvwycpfTBdAeDwFJ0AxZJG2dPmbPWkXq55QLV9PfpJ_-DsXWIlVgsISUApRdJ5cAxRWx0k0W2hI'
  lat: 40.09979
  level: 7
  lon: -88.249107
  name:  'Jerome Cook Memorial'
- ap: 8909
  img:  'http://lh6.ggpht.com/BKeORacgeVrG8XzxTuXmpq5UxomWpK-I2n7Xy0PVbdSciNx9MJl869TcibnFIiV5PJHGv5R3QOpX6ZgLUwU'
  lat: 40.099706
  level: 6
  lon: -88.250065
  name:  'Lois Barham Memorial Tree'
- ap: 8832
  img:  'http://lh6.ggpht.com/MzDfG6eMMwVr56zIpVxRJKU2aoUq-95CLeBhoiEQQKzpC2zulq5jFDLv1IK0JcRy5Q0PhRAreZ1p2ElsdnNu'
  lat: 40.108048
  level: 5
  lon: -88.226279
  name:  'Nuclear Magnetic Resonance II Plaque'
- ap: 8722
  img:  'http://lh3.ggpht.com/VLipBehsKPCp8ewQnBV1ZCz7uE75zcY46iGDyFfFHgX1o55t3DONb3wcBcL5RMYSqABRK0TgIW3DluNy8y6WaA'
  lat: 40.101131
  level: 7
  lon: -88.250539
  name:  'Hessel Park'
- ap: 8722
  img:  'http://lh5.ggpht.com/ENeQgqydWbi9-Oyf7vizunoRqJdsZV4o0RA_956wjGI8hqpTCHBPyWMpbTrrkwYpj5tgzDRvevGmvH4eFRU'
  lat: 40.099593
  level: 6
  lon: -88.251724
  name:  'Blessings from Devon Elaine Cattell'
- ap: 8720
  img:  'http://lh5.ggpht.com/WtLGJ5PPeFPGSKegRKCurNiGVHvfV53LdGHbVkCfDXxVvUpneEqngOPUTZJgZL4RdA1_YVGUXlpWs0ZDr6OH'
  lat: 40.086378
  level: 7
  lon: -88.251308
  name:  'Life Lessons from Kimberly Kueffler'
- ap: 8533
  img:  'http://lh5.ggpht.com/BkbaZlRlq44d6DiMOVuIlrel2Hsi_RzzHhhdmJH6BLzJk5RKxAcvh2mMd93BFhKgTKLk-yZsNLTaJiTbZsk'
  lat: 40.086686
  level: 7
  lon: -88.252282
  name:  'Elsie Mattis Springer Memorial'
- ap: 8533
  img:  'http://lh5.ggpht.com/YaIKBanBs_Nk5kstDaA9jBqnvY9vRfXO2YuO21JwbSo1c2OiJZvSlWe3x_6vyCPb-NZKQSBmnkOstTytpNxw'
  lat: 40.079832
  level: 6
  lon: -88.208385
  name:  'Herb Society Garden'
- ap: 8159
  img:  'http://lh4.ggpht.com/S734i_6SihPtJW8WdegLb3gEuKeNx8e1qDm6CXjREzYHohw7XqL82m4EF2K5nS2TixHweLn3EuJ4YoQnrsw'
  lat: 40.107751
  level: 6
  lon: -88.231532
  name:  'Graduate School of Library and Information Science'
- ap: 7972
  img:  'http://lh6.ggpht.com/o-Si4_DCq7Qwa_fFJhaTZ0-zCScbl7wDS4PHIFGMbnP9TuPVe9ZauXV3lAreyYvxN7B7n8mlrOR2SsPzXmU'
  lat: 40.115703
  level: 6
  lon: -88.239504
  name:  'Chester Street Bar'
- ap: 7972
  img:  'http://lh5.ggpht.com/llyW63Gnxl-lT-L_MhXsl4mdbmv29RvYTWcLt1R7JxibVPORq5Wd_UHIdT-vQ0XaUqZVQiN2mXkV4KJpp5sm'
  lat: 40.1159
  level: 5
  lon: -88.238508
  name:  'Dallas & Co: Costumes and Magic'
- ap: 7972
  img:  'http://lh6.ggpht.com/YdeB0EKlsopL39a9YXWj4JBZgXNNLWHgfe4PQzdpWCNWc0fR1YTj8WjARDHnmrusvKWTqKLcGg8U9frhtsw'
  lat: 40.09821
  level: 7
  lon: -88.249879
  name:  'Hessel Park'
- ap: 7970
  img:  'http://lh3.ggpht.com/hZulWSNApQFnDW-rnL3Fu95nMq2pO60CHDwUislaEOwUfLfJymLB8M4-WTugDbUq60zu72Cn2vLHMFFf5IxxNbp6rsbl9bAHHAlqFVlgckw_gJM'
  lat: 40.079765
  level: 6
  lon: -88.206953
  name:  'Connectors'
- ap: 7785
  img:  'http://lh4.ggpht.com/PHV-1ZpFzCAl_ViCKwBY_x2pIDbVyaT7wJH1sTvFJCxrSdRrO1x7NaXq9OdRGwz_Mls4iwk6wuGHMBArfV54'
  lat: 40.098688
  level: 5
  lon: -88.25063
  name:  '"New Holland Yellow Dinosaurs" at Hessel Park'
- ap: 7783
  img:  'http://lh5.ggpht.com/xcqe13f85fuXohGUUBZkNrUU1PunkcZ6xMNmHpAp0GJBtydVqCCGj5MqP3Uax4M7Qq4JzDFGqICFrFb6PNEXRw'
  lat: 40.08932
  level: 5
  lon: -88.251883
  name:  'Boulware Trail'
- ap: 7783
  img:  'http://lh4.ggpht.com/HEEvU2OlgWiV5huAu3cvNKaI-C8YKYTO3qB8WMTO7EbsjTO84KS6jLjbGCq7THZq6l63UiUKCSEqY2IADYns'
  lat: 40.091766
  level: 7
  lon: -88.250003
  name:  '"The Cranes" at Fox Corporate Center'
- ap: 7783
  img:  'http://lh6.ggpht.com/yYW6Egg1lWn6UqqLzlgqwCQhtbuxiZSW4TmvI1XBPs33OTTJ0oh51XZXOIILxGI2juoO-E_YfG5UHmeb34rSOw'
  lat: 40.109165
  level: 6
  lon: -88.230269
  name:  'John Street Plaque'
- ap: 7596
  img:  'http://lh3.ggpht.com/HX3mWBGofQk08Qdp7A6KMK1AnSXlLEPJR-n6oeX69Efiiss29GHsLiDsHhRS5K8DrXh-QXP1T0AMaOsJmx_w'
  lat: 40.106921
  level: 7
  lon: -88.230145
  name:  'University Lutheran Church'
- ap: 7409
  img:  'http://lh3.ggpht.com/gDP5JIyK5XQVuxzTukPDz7JRInXgVqjLvl1SZ1_m_ydC4VzlKAFaG92Jj7kHZGJrhTaK2-bslJBu3rBIoXOX'
  lat: 40.079519
  level: 6
  lon: -88.208849
  name:  'Pascaline Lutete Plaque'
- ap: 7222
  img:  'http://lh5.ggpht.com/Q32BPmFRIQYqXI5gLOV9ifHvFlGdyD_yws2172-sHnSZ-StunhCM0Abqd9rBWSaKBWN7RPpa1h-nok4Mc23i'
  lat: 40.101062
  level: 7
  lon: -88.249275
  name:  'Narayan & Shanti Achanta Memorial Plaque'
- ap: 7220
  img:  'http://lh6.ggpht.com/WtqWBwqpYTSw3g9ru5NwcFn5iK5STxWgy2kv4OUTWqwtzx76-9Msz0eqoiw0qpEYE1U4zdt9rzzNZMDNagNg'
  lat: 40.107943
  level: 5
  lon: -88.226751
  name:  'Class Of 1917 Plaque'
- ap: 7035
  img:  'http://lh5.ggpht.com/T0WLAJf0s4nu2Phxax31eu6pO6zNoA4JpvHMLyfMKttzJALEWB8EAWOziQwgjdWE3YjBbG1XjGYsgihqCSX9'
  lat: 40.100414
  level: 7
  lon: -88.249061
  name:  'Randy William Auteberry Memorial'
- ap: 7035
  img:  'http://lh6.ggpht.com/n0f7lyo15OzZn5IJHsohIGAA58iioentPZGEY4zeMZCCoX4GjEEkqfaTCIbrx9OnezriThnbFV14kYcwKTgL1g'
  lat: 40.098444
  level: 8
  lon: -88.248167
  name:  'Healthcare Not War Mural'
- ap: 7035
  img:  'http://lh5.ggpht.com/3t7XZHqwxLZ8Lc9YomR8FInm74U2PAA-DBk8kmdxXIrcXbKa1CoBDTlgdDJeO-_yVT3qNKRnNLzbdil1eH41iA'
  lat: 40.09935
  level: 6
  lon: -88.249766
  name:  'Jim Bickel Honorary Plaque'
- ap: 7035
  img:  'http://lh5.ggpht.com/q-mJ2EvrjGn2PfbBh3Pl3XIGUyzTqxGjZmTMhn3k9_2Qi0S2hs3k2ZvpKb4kvt60AXHiyQdxqft5ZecPcg7x'
  lat: 40.098959
  level: 6
  lon: -88.250141
  name:  'Bob and Wilma Tinkham'
- ap: 7035
  img:  'http://lh6.ggpht.com/3o0ObAARFV_8mBVCC_QD0iLOPVzNkakXybhLnSVEuXIJfDLKMxeYj-EkWIw9NPoZIVRf5Dkrid2yf_NEQ-iE'
  lat: 40.100347
  level: 6
  lon: -88.249385
  name:  'Travis Marmion Memorial'
- ap: 7035
  img:  'http://lh5.ggpht.com/CRkkFx_9jq2hCt1HtflqZDqCdmSG5MN88FV0rLXk1PZm7maZWzLTKZhjqlSKUx1Tg0tSB62l75w2VFsyUZI'
  lat: 40.09991
  level: 6
  lon: -88.249899
  name:  'Benjamin Biddle Memorial Plaque'
- ap: 7035
  img:  'http://lh5.ggpht.com/8zq5tMevCiipZK8N9-8SZw3vdsA2HwH0E02ormQshGxHVZrB2WPK7OPC8zt6pjLlgpXVuEYHVA_08_Q8fPw-'
  lat: 40.099647
  level: 6
  lon: -88.249648
  name:  'Max Overmyer Memorial Playground'
- ap: 7035
  img:  'http://lh6.ggpht.com/yjfa0jJLjsfLRf9Zn9iafMp3MuIhgCi0WiOCF8GqTGiGvzEnsPGrFa0H1n-uzWhVehLbt44ShthsA32VzHd5iQ'
  lat: 40.099737
  level: 6
  lon: -88.251157
  name:  'Tyler Van Atkins Memorial'
- ap: 7035
  img:  'http://lh5.ggpht.com/6MHa8mHyPoZr8QcAXRVJp6cTJ-Besa5bB801GzhlToXL5ff4Zg6U6VtnrbMINQ441jCzYNZDWNxHIBtf7VXvVw'
  lat: 40.087719
  level: 7
  lon: -88.253446
  name:  'Milla Gross Memorial'
- ap: 7035
  img:  'http://lh4.ggpht.com/vLN74xdc8Mdgab4UjP1QUbyX42bkPBXnIqzYzkmRDi4naHiBk2kM1wUA7Mx3Pxl1dpPoMBAg9pV956MqTDk'
  lat: 40.068391
  level: 8
  lon: -88.242282
  name:  'Dohme Park Flags & Mural'
- ap: 7035
  img:  'http://lh6.ggpht.com/hPutcAvS7zQN-tagfEY-fvkvdlgj7j5sZwUSLY883Twc7tHyslIAp7lzWYciJmCytDfsbFQtavAlzqGwCgFZkw'
  lat: 40.105562
  level: 5
  lon: -88.234991
  name:  'Acacia House'
- ap: 6848
  img:  'http://lh6.ggpht.com/qSCp5fQMlyCQ-GOAgiSFy5gaHJei705Pa3eOlJiYO5wGjZTYtjA8q7QWWfAWcLKjxZSaFiMfXOPR8SO7rWU'
  lat: 40.099353
  level: 7
  lon: -88.251876
  name:  'Raymond B. Cattell Memorial'
- ap: 6848
  img:  'http://lh4.ggpht.com/B_I1b0Jy3vW41RX8jjCNPP68AULplU0Pf8ddolyKmpEWCfBVShQkmjF1HfTPzDjmBBQGgOs0jHW-rUR0mv8BkA'
  lat: 40.098789
  level: 7
  lon: -88.251685
  name:  'Curtis William McKinney Memorial'
- ap: 6848
  img:  'http://lh4.ggpht.com/4LxsGZZMk3DnpJXUvqzrL54CHSP5TDXjUnDJyHmCCTtCJIjGEI7kxT9g4uxfSPh0X6yGLgQo1jfqbu7B8VEr'
  lat: 40.099084
  level: 7
  lon: -88.251826
  name:  'Irina P. Stewart Memorial Plaque'
- ap: 6623
  img:  'http://lh5.ggpht.com/0m1i3CJSj3bKhLj5BgXi8SFpgoihNsBoN6fpccgDU2tjtPcA5BqB1IxvR0yAX9FWkgt3_Q8gbAyGfdJDliGP'
  lat: 40.115142
  level: 4
  lon: -88.238658
  name:  'First Street Antiques'
- ap: 6846
  img:  'http://lh3.ggpht.com/N3joo2vGiOAq-hh0peo2upcDO7iyxx1XC_6L1CBWIQ2PhXEpR1UI3dtCOYHcM8pchVwGj0GyVko-qxrGx3Q'
  lat: 40.078315
  level: 6
  lon: -88.208939
  name:  'Sunstruck'
- ap: 6659
  img:  'http://lh3.googleusercontent.com/__dofGL-oELNLYymrJ5VDONThxrG0oMe5aQcopgTFJgu56wHeV1y-scJDNms_C4LRoqDe-qKwDBNRNkCiJnNUQ'
  lat: 40.127703
  level: 6
  lon: -88.211526
  name:  'Busey Woods Trail - Wet to Dry'
- ap: 6659
  img:  'http://lh6.ggpht.com/dmdoQn_snqIn6BdQ3XJFlx9FymfRalBxsT7fXXRSopbRaxiMoWzdC-LZBD-OymkgnPuGleuDWaQ_Ou_cqX0y'
  lat: 40.112912
  level: 6
  lon: -88.220206
  name:  'Peace Garden'
- ap: 6659
  img:  'http://lh6.ggpht.com/UXx9XSWX3zuym6SdX68IXNFYcpnbhGuF7Zk3taO-TJ2VI_LvwmooNWjUHb8OIgKsjyto3PT7YU0D-Y7HW7c'
  lat: 40.077643
  level: 6
  lon: -88.208694
  name:  'El-Ahrairah'
- ap: 6472
  img:  'http://lh3.googleusercontent.com/hvoLMUc9UoNVVPttxWTc8PzOWdu5MBmPETnBexH7Alyl20WGCrNa0G_j7DwvD3qbhqpTaeThFhGDV2rCtp8'
  lat: 40.107629
  level: 6
  lon: -88.224484
  name:  'Bucky Balls'
- ap: 6472
  img:  'http://lh5.ggpht.com/k_9eqZVvGcr3ZNyeeSNDM1-Y7od35KmnQQptB9usrdpTdpGW2c_5-12rYy9hGazdx7qhlYrEXxaJ_ZIVFywlcA'
  lat: 40.106706
  level: 6
  lon: -88.232116
  name:  'Illini Tower'
- ap: 6472
  img:  'http://lh6.ggpht.com/BzDhCANV_iNTHhKFBGLuaUqOvChRZtPWnJ2Xk4h7NsKJHmTGgCWtFHWv2PpDA2fCsHHKSCRTrUNK8AKrLRnS'
  lat: 40.108066
  level: 6
  lon: -88.230687
  name:  'Community United Church of Christ'
- ap: 6472
  img:  'http://lh6.ggpht.com/rnWumKyBYpVW5hCfQDlvRaT_666UPI5lo3k6HGdxWuLVsDbD8c7l-BU1HwhBqiGeCW28iEghSQtvZFzqK4w'
  lat: 40.109013
  level: 2
  lon: -88.22587
  name:  'Understanding Photosynthesis Plaque'
- ap: 6285
  img:  'http://lh5.ggpht.com/tfAfnmo6mSMc6U0P533NMFJRGwn6lasmx-MLR2JJg1QOizMKkghFU8E7hb2zgYgdQEbgnCJUlvZIMdrrJe4'
  lat: 40.100822
  level: 7
  lon: -88.25193
  name:  'Seeds of Kindness Bench'
- ap: 6285
  img:  'http://lh4.ggpht.com/D5cENdXJQaqvWwCSoOanItF0e3p53vn8qA2cAruOQSuYuD9XmC4q26pJQI7yjA9-6yDTJH0KYTQQwYdcwoTxOA'
  lat: 40.068447
  level: 8
  lon: -88.241045
  name:  'In Memory of E. Lynn Meisenfelter'
- ap: 6285
  img:  'http://lh5.ggpht.com/W3y0aDYTuLZ7E0KYzawIeqddSRPOrY1oAV8peDaDhUsxn_hKEJ1O4XyO_JF2p0ORGwae1oEwE5oTkJ_1TMDA'
  lat: 40.080601
  level: 6
  lon: -88.208399
  name:  'Urbana Parks Department Gardens'
- ap: 6285
  img:  'http://lh6.ggpht.com/k_7DcxCHlkFP0CTNHoTY5V3-yA-EKIuGisBB8E77m940i61vkhvgHMsmxpNBkUhVm6Oy2XzndXI9_HF9MNJt-bahjS2gelImbCJmBrpBHpGW9VvA'
  lat: 40.080794
  level: 6
  lon: -88.203294
  name:  '"Fluke" at Meadowbrook Park'
- ap: 6285
  img:  'http://lh5.ggpht.com/i_8huo_CxMxwTgcukj2dHefx7TgK3uMShcy5UJPAMHS9EfTTWEsWq2FpQew2G7N3KnatQxJjlQekJmvjhqc'
  lat: 40.078738
  level: 6
  lon: -88.208631
  name:  'Open at Meadowbrook '
- ap: 6098
  img:  'http://lh3.ggpht.com/J_h4tdb4wqy8bmmQfDuy5yqTR2IlkzKojfvsMOvlD-3tf1pKxbDlhA6W9Q8RX-JaSxhItMr4bmCxiUQXTLbz'
  lat: 40.10064
  level: 6
  lon: -88.24958
  name:  'Edward A. Cousins Plaque'
- ap: 6098
  img:  'http://lh3.ggpht.com/rlm0tE7Js-ApRSIfi0JxzxMVzrls50Gpr-Dbml7uBn7o0sCMtpiVa81HJc88eD0VlJiuzy9UTBFPebVcw-GK'
  lat: 40.087494
  level: 6
  lon: -88.253476
  name:  'Rotary Club Meditation Garden'
- ap: 6098
  img:  'http://lh6.ggpht.com/pxaCt7clhIXc1RVGMMJZsmnbEWNWjFYJiUrQMev_SeOmXBothvOzmfnirQ5_W8CMa7hpigqydQhKMa4XFCAi'
  lat: 40.108173
  level: 7
  lon: -88.230209
  name:  'Mural on South Sixth Street'
- ap: 6098
  img:  'http://lh5.ggpht.com/NUOCD82iNRGW1NGqEC4FKet1u5_cm4WRNc2c9_YABAjGf6-OSCLz7HgYkP1ZuVAbpMl6Qi10HRW16Oc9jNM2'
  lat: 40.106401
  level: 6
  lon: -88.236182
  name:  'Washington Park'
- ap: 6098
  img:  'http://lh6.ggpht.com/y10QgRCNt0Bsefqp3olKgJp98whQkS0-vWqPskj3421hcSq96BG-b_KROqsO1mBEcNiYtAKhXuXG0EV0eaUW'
  lat: 40.107152
  level: 6
  lon: -88.235244
  name:  'Bromley Hall'
- ap: 6098
  img:  'http://lh6.ggpht.com/ONc6NEwX34IJR8FuaTy8phi9yEoEDMyOn9GRlqJJlv2fU-ky1s4L6OflOmO5pORHew3EOrF0ehzlIv5HFMff'
  lat: 40.118344
  level: 5
  lon: -88.210055
  name:  'Lake House at Crystal Lake Park'
- ap: 6098
  img:  'http://lh6.ggpht.com/0WV0zgKIo2AbnMTwJXYSM-C6nik92XvxsPKcZps2SdFzIWJ2bY4k2dHAqdImb1hTCK910NMvQYoKlwWprt6c'
  lat: 40.12034
  level: 5
  lon: -88.211743
  name:  'Alice Mimi Muller Dedication Plaque'
- ap: 5909
  img:  'http://lh4.ggpht.com/0j8eeTKJgjnYhHpf4qH_70CZHLbujC5v-XP_ndcqh1xIR-5V2K_CGdjIe1ZfMbwvSyISxxYKoZynw1DaQcj8'
  lat: 40.105874
  level: 7
  lon: -88.230562
  name:  'St. John''s Rectory'
- ap: 5722
  img:  'http://lh5.ggpht.com/yK94cjys6dDm62pDsBwEKJP8ioxZEFbb2oelmT5ZMmaNZPkqAXW00NHP3_7fvtyG796u2ZhKGfbY7To9Sdtz'
  lat: 40.088063
  level: 7
  lon: -88.248271
  name:  'Still Waters'
- ap: 5722
  img:  'http://lh5.ggpht.com/qq3QmeyCYxWnJF_DzzI5wVvHF4foNyr_bF3_j5eVPHJ1omSbD2INOifPJEO3pjz4X1l4_wMGD4uOT1_w6Tid'
  lat: 40.086713
  level: 7
  lon: -88.248293
  name:  'Garden Patio'
- ap: 5722
  img:  'http://lh5.ggpht.com/uP38yDCg4dPRI1F0r0ALGArEc8Q9eoRuaxkfxZTafZZr9tMcbLUZek1hZRbLUxHJVGPcLSf_JKbotbTBeR7nfA'
  lat: 40.107226
  level: 4
  lon: -88.22858
  name:  'Class of 1897 Tree'
- ap: 5572
  img:  'http://lh3.googleusercontent.com/O0A6xsiat2O0IjuyckSS9k1cq1UOF3Cie-GIi1L5d58akNeRMYcb7agKQErL26RwfdgTl-W4anRPPhu-lKpy'
  lat: 40.128515
  level: 5
  lon: -88.212038
  name:  'Busey Woods Trail - A Helping Hand'
- ap: 5722
  img:  'http://lh4.ggpht.com/efOG849cf8EKwVLL2BfNKzwBdkrAuNsMeYOZfeR8FYnK3axQJJON0VH191MLBwjJaQ1EeQC9Pt8LMtNI2LEa'
  lat: 40.07718
  level: 6
  lon: -88.203511
  name:  'Denise and Ernest Walker Grove'
- ap: 5535
  img:  'http://lh5.ggpht.com/_gJqtOHLZ9UHsmd_iLjxMsPw5eF5YzqE63qEAzURvSp_3OL9ZrPjM-usiUeYx95b7zTdNodab42cQiyiRRja'
  lat: 40.087835
  level: 7
  lon: -88.251299
  name:  'Amdocs Shelter'
- ap: 5535
  img:  'http://lh4.ggpht.com/H1kV6JSczzSbcCblAHg5ZOgITW1mBAz0_oLbqbzxBlijGTBn7TP6KwA6UI0AAGrCN4VF0DAF79Vcj6_2R4dsB8LRTq6tud6v'
  lat: 40.107753
  level: 6
  lon: -88.228913
  name:  'Zipcar-Wright Street & Daniel Street'
- ap: 5348
  img: http://i.imgur.com/5j1qaiT.png
  lat: 42.401374
  level: '?'
  lon: -86.288005
  name:  '9c168d55307d46deafd3684ceac79063.16'
- ap: 5348
  img:  'http://lh3.ggpht.com/R9_j6Ix3G4wIobXVuK6nhjPbwc4K59mAiAEYBNzlpbhK11ILWcjzXIpL90el567VJkxLA0oHXb244mi3pMUk'
  lat: 40.106459
  level: 5
  lon: -88.262082
  name:  'Everette Rock Garden'
- ap: 5348
  img:  'http://lh4.ggpht.com/vKgqIecJshMQxrhO-ZhMjcIyARuJdyU63wKfzAG0wouZex6LVzO46Qi5zM1N3Jx8xyantDFk9sQGsSEBhb-y'
  lat: 40.101327
  level: 7
  lon: -88.251412
  name:  'Zeus Memorial'
- ap: 5348
  img:  'http://lh5.ggpht.com/AsiP7X99phJsAWWLusxVx9jztxrqq-wjSe7AQS2KrK6muMt4sB3UIjlshPNUA13BR-o8cX70DxvhbxODvrY'
  lat: 40.087526
  level: 7
  lon: -88.253714
  name:  'Plotner Memorial'
- ap: 5348
  img:  'http://lh3.ggpht.com/sMx0P-GO5ovW4D9GxUctotNYCfxZGhdOEhiL1DmdIK6HMtm6Q2YB4GNKL53HBW60hQRizKWO_neyW1gOFt4'
  lat: 40.068464
  level: 8
  lon: -88.243473
  name:  'Savoy Rotary Club Dedication'
- ap: 5348
  img:  'http://lh5.ggpht.com/kElaGOaV9aI8SrnM1D65gx9J0Ky1AKrN9Yo-pXVmDhELt2pee4MwVRiCqCmlqWzUWj5pS33GnEzAiXmiWKsw'
  lat: 40.108111
  level: 5
  lon: -88.229625
  name:  'Illini Sports Mural'
- ap: 5348
  img:  'http://lh3.ggpht.com/A87H2Ev-nSq_HCpnUCxDLdRG04MKhj9Uap_0Ii4kdUx_db5SwcKhAAOey5ls43XiDLYaw7uYymdNMcsAXfNo'
  lat: 40.106182
  level: 5
  lon: -88.235521
  name:  'Evans Scholars'
- ap: 5348
  img:  'http://lh6.ggpht.com/jhMQ5IGo-EB8MiVSEIUKmHbHwagHnJzv5RKZvsbHLes_88gz9Kesj98eZWV29mufV0LSUVjs53V5hMFQOG2Q'
  lat: 40.11067
  level: 2
  lon: -88.220974
  name:  'Astronomy Building'
- ap: 5348
  img:  'http://lh6.ggpht.com/Pvgc8EILl7jWftQ3dvPTZTa98KpCUdaq9yHkecl-ZIKR_whDQCQrKSwrdX56lqH7d7ma5TsbyH70RvcdhLSp-T_4IjJqzXAbRhLMMkEpNo9gayrY'
  lat: 40.080493
  level: 6
  lon: -88.204819
  name:  'Molecular Reflection Statue'
- ap: 5348
  img:  'http://lh6.ggpht.com/UMaVDs4JUJ1obZF_7bkt3YUS02KJCdBmvRnU0gXqrvHeFd-6jyR_VGDBUgiXtVFoAj95F7sZrvFJ1l9fe4S3sBUkt__qi77W2_jm8KR0IU_iwOYcIg'
  lat: 40.080791
  level: 6
  lon: -88.204927
  name:  '"Is It Too Late" @ Meadowbrook'
- ap: 5348
  img:  'http://lh6.ggpht.com/LJB7sU5C-p9Dsf4gZ7RkqrEbfZnlh-rR33SARIHJOOUld5Lhb6_CH4gN1rtHGaLP4sPAsl8gN6mFkpl7ZQ5_'
  lat: 40.081475
  level: 6
  lon: -88.20239
  name:  'Prairie Buoy'
- ap: 5348
  img:  'http://lh3.ggpht.com/3Zmkt--7llPgVt7DBvxcj4VWf2chqeJFGGK3MxoJQUsf4eyqv2iI35GHX8cDE1VJzJcS7rt1tLhm2NSszA4J'
  lat: 40.080946
  level: 6
  lon: -88.20312
  name:  'Jack and Marilyn Memorial Bench'
- ap: 5161
  img: http://i.imgur.com/5j1qaiT.png
  lat: 41.8915
  level: '?'
  lon: -87.598916
  name:  '993519285b884a48b15af8ae52e0fa55.16'
- ap: 5161
  img: http://i.imgur.com/5j1qaiT.png
  lat: 42.588123
  level: '?'
  lon: -87.807579
  name:  'c106cbaedc2348069ff32d60674e1d91.16'
- ap: 5161
  img: http://i.imgur.com/5j1qaiT.png
  lat: 41.891847
  level: '?'
  lon: -87.598637
  name:  '6aed96ebcdef49cb8010e64de9c918eb.12'
- ap: 5161
  img:  'http://lh3.googleusercontent.com/Tixp17uCaP682s77UzvCwWCOE6vg7iB2qEFLjACq7xtVJdHE0K3yKYsl3_SwKbiUfQWwgTQRbvfka3U0NvNc'
  lat: 40.098819
  level: 6
  lon: -88.249214
  name:  'Bette McKown Honorary'
- ap: 5161
  img:  'http://lh5.ggpht.com/HhVreJipNvxPRVFpmsh2BPo9PcpPO2Q2l3jCpDjIKgfKGycoTNPXR4DKiYccBXW4X-4dJf_vV0ESsWAWHcChsg'
  lat: 40.100936
  level: 7
  lon: -88.250855
  name:  'Donald F. Bresnan Memorial'
- ap: 5161
  img:  'http://lh3.ggpht.com/VrbXGwlUosNLEkVdshWUFoVa3KtlJQoEU4yLYygvftYbPCmxo644Uvar_v8Kb9RS53hB0tXgvV44GotrxZyu'
  lat: 40.098592
  level: 6
  lon: -88.251676
  name:  'Ruth and Fred Steigmann Plaque'
- ap: 5161
  img:  'http://lh3.ggpht.com/lzCSS0_tjwUV7JQ2fgLI0e05IrzPxlVUs-6aEPOwUv67IanQJSTi71gkw0SGm8asmoE_r3Xoh048Fd9xRpE'
  lat: 40.099169
  level: 6
  lon: -88.251419
  name:  'Lyman Larson Memorial'
- ap: 5161
  img:  'http://lh5.ggpht.com/mRJ1JU9RyuNozcaCkQ-Egy63KbWTVpSomrieglFdzh1c9eDAoQQCHmWw065GGIQoOFIorPObgHXhGyNjVb6u'
  lat: 40.068762
  level: 8
  lon: -88.243336
  name:  'Rotary Club Dedication Plaque'
- ap: 5161
  img:  'http://lh4.ggpht.com/Nh7M4_i-advmuf0RWReev2TeUAZ57VTRzcf56-U_TuHsKcjIdqXGvbxpOccEx1CaYHKzGwI9mZVmnLdmhryGng'
  lat: 40.115557
  level: 6
  lon: -88.239009
  name:  'Honesty Best Policy  - Vernon A. Roland Building'
- ap: 5161
  img:  'http://lh3.googleusercontent.com/vJ_iyOb44eFzOJUNpRouOPDI8rKgOESn7TWw9U9BR3OcWsb6Oak-SSfVH4iPPmtXJdk30rqet1D0KxVohiBC'
  lat: 40.114712
  level: 5
  lon: -88.238392
  name:  'Mexico Mural'
- ap: 5161
  img:  'http://lh6.ggpht.com/VGq5_qMrAE5FbP2m0Maszw451m-OfbmuUYDIryB0OyOe4-R92nr43XAmU-Rl5GExMkQzJHBA2a45SDWOypA'
  lat: 40.118224
  level: 5
  lon: -88.210862
  name:  'Labor Day Memorial'
- ap: 5161
  img:  'http://lh6.ggpht.com/ip01yZFDdi_w_oQ9qKF40m0xZBcj62odRMMEkBoiO6Pu_WUGqItkR8Dx-sJEgGpNxbTl9zxdS3cKZsDNJl4'
  lat: 40.118411
  level: 5
  lon: -88.210576
  name:  'Civil War Memorial'
- ap: 5159
  img:  'http://lh5.ggpht.com/1fPvqpqXG5PDCkmegoWb9Tv9N5_MZh9XjmZpbyNEs5yPDsCscbrPB1cO_Pf8GT35HYrTF01FZ6s5VPIpjJ_20A'
  lat: 40.107098
  level: 6
  lon: -88.228984
  name:  'Saint Andrew''s Church'
- ap: 4972
  img:  'http://lh6.ggpht.com/ARxGPDwwD9zGWfT9onLvNXRMYpYW0G7tL4osRfuUfWaG2wAJR486QSRQ_1dw-pJZMHccKUnSShoDVMijLRTh5g'
  lat: 40.07961
  level: 6
  lon: -88.209169
  name:  'Wildflower Walk'
- ap: 4785
  img:  'http://lh3.ggpht.com/swF7asGHDD1L9hslewSBg2z-tocpd_HXkIYuOmz739SWxCj8KBqf-kcOPOFPoE8pLXKDxR6Z8jAJ8Kx7Fbnc'
  lat: 40.089334
  level: 5
  lon: -88.253652
  name:  'Mattis Park'
- ap: 4785
  img:  'http://lh6.ggpht.com/-I0G2D5ab8mTsL7xqBbC8ncqUMD5VZFPzUxONYaTcbt6ogXQnVlPsaSqnh7NHJyo89tDr3WOfkV90Mdpo9UTfA'
  lat: 40.106457
  level: 6
  lon: -88.26247
  name:  'Clark Park South Entrance'
- ap: 4785
  img:  'http://lh4.ggpht.com/aXG2XQNJXyPDBz0o8tyfv07VIfskZuFMOWW2ylZpZKkWMnFjoiBmBiWg2VedsjdIorpfX5mtUGnwVLFb7Ga6'
  lat: 40.091438
  level: 7
  lon: -88.25077
  name:  'Fox Development Corporation'
- ap: 4785
  img:  'http://lh3.ggpht.com/KxQsev6i7POmNh1IadCWwWQSMdCuLIYpPwIdenSlVtzum523D1R-1kfeTbuOGTkt_jDwn4jswCu1edkumm2-'
  lat: 40.110037
  level: 7
  lon: -88.23549
  name:  'Red Lion'
- ap: 4785
  img:  'http://lh6.ggpht.com/5FrAAzvYmAM-WLKT5FARCFzegoqjWDbNOkEi5jS2tKCRLbTeSfKuZonDJsFpjSfnQpj_fSJSV6P-msLaTJSk'
  lat: 40.080453
  level: 6
  lon: -88.205614
  name:  'Elaine Regehr  Memorial'
- ap: 4785
  img:  'http://lh4.ggpht.com/Ad3EyxZM9v5cjmOiED5nr8Hf1mHtOMXrJtjU_U63YfE8lgUjAteiDYuYxND-ybx6tARUErULHJBDhgoDIblz'
  lat: 40.077349
  level: 6
  lon: -88.20659
  name:  'Bruno Schielzeth Plaque'
- ap: 4598
  img:  'http://lh6.ggpht.com/duOeXcOSQLWosdD0JJXg3pWWQp4t5sL0x9qDHoTIBFNOzEW0t53Lt2cnwgV2E_Su0l1ajIQxPtVbbK_sDRaS'
  lat: 40.141775
  level: 5
  lon: -88.242671
  name:  'Marketplace Mall Fountain'
- ap: 4598
  img:  'http://lh4.ggpht.com/nWSZEVnpEj78GBs58tujBturUcAqKjsgYU_9v_qXRS_K_ROKLNgBwnqKopJse169VJqqWtn6oo3h_qABlaw'
  lat: 40.117571
  level: 5
  lon: -88.240851
  name:  'The Highdive'
- ap: 4598
  img:  'http://lh5.ggpht.com/6iSvulYqf18jvvkjbKbtokZ1zczL5ZsEsgNJtpDT61eVwi5FIfifwQk2brM7UkcTtJNOdADLVtXIO7HCrlQ'
  lat: 40.068731
  level: 8
  lon: -88.242233
  name:  'Dohme Park'
- ap: 4598
  img:  'http://lh6.ggpht.com/sASzuKZleVbY8UGdZnFzs0GXiOHosiNDf-GldJNSs-w2k410HzHcqBrjuvNoklKZ0G4mwuhXmvFPOMlrFXRZ'
  lat: 40.085468
  level: 4
  lon: -88.251369
  name:  'Mattis Park'
- ap: 4598
  img:  'http://lh3.ggpht.com/ch_nluYT5gzNuJG1bx-wUfhv1JWNmo-DYdwq2rPOJaUrvUFpsWPH07BUuDj9xUKqsN0oIl8bX3iWOys5TuNV1Q'
  lat: 40.084517
  level: 4
  lon: -88.249848
  name:  'Boulware Trail'
- ap: 4598
  img:  'http://lh4.ggpht.com/aFcisvUEjvw8cW_JZB2JIOpPXr_cWq9tGzjT65AMZfaR6Dwevg8S6dfNMTVswut9cKOr9-SCQdSqoOnQ4c1Q'
  lat: 40.087914
  level: 7
  lon: -88.253489
  name:  'In Loving Memory of Robert and Elizabeth Grubb'
- ap: 4448
  img:  'http://lh3.googleusercontent.com/SjusdEZ1n6AkcvHdrM3TfGAqP_W5LJRmm4qEdm5xmdvHcBejD6Jg0kXCZaHyUk5WGeE8Zu0RrSSq_1VDXFU'
  lat: 40.117419
  level: 4
  lon: -88.240991
  name:  'Old News Gazette Offices'
- ap: 4598
  img:  'http://lh5.ggpht.com/f1O8bFXHTg2PTOAUVLvrqk5xx5ps9SeqhpJ1RIPtSxm0I-e7J275e2ujJp3lFQGHUBW_vS90KOsrcdLDJ84l4g'
  lat: 40.110797
  level: 5
  lon: -88.225321
  name:  'Multiphase Fluid Dynamics Plaque'
- ap: 4598
  img:  'http://lh4.ggpht.com/lQtf71rwzXt5zHafbKPm8Czz3n2KwBWlEaNUh3-2JKrXTDueZ_JerHOPeSecqLaxLBWC09dTlPizrDMTafpT'
  lat: 40.105618
  level: 6
  lon: -88.230986
  name:  'Alpha Phi Sorority'
- ap: 4598
  img:  'http://lh6.ggpht.com/dIDmkL7jHZb1am2ptK9LrO6Ht_8jTKb3IOvGamBqIYzLXPgtEoPCV_9dMsqLxrgz8_MSq3UsEy9t49y_pqOd'
  lat: 40.125715
  level: 4
  lon: -88.2091
  name:  'Crystal Lake Park Aquatic Center'
- ap: 4598
  img:  'http://lh4.ggpht.com/MhW7sdKYdOt__Gmefy7CMOI4_Q8_dqGGb_qolwk4Uf7b_fpr8t5QM5QiCFUOe_ZpsgAfLhPSU_lbVTX5DIEX'
  lat: 40.125951
  level: 5
  lon: -88.209474
  name:  'Give Creeks A Chance Street Art'
- ap: 4598
  img:  'http://lh6.ggpht.com/LxVyXEFJmvSZ271mlFfYmCwyb05Kz8cIRxzMt24ZVhRzsH09nxErJw4gKErktjKpCARWfVl4Mla70NoODK2bng'
  lat: 40.11187
  level: 4
  lon: -88.220692
  name:  'Atmospheric Sciences Building'
- ap: 4598
  img:  'http://lh3.ggpht.com/sEtB-WtZgmk9Bt0i07yNcTAXMhYB5KL6O1iQVnxq2V6mW6r89EY67NajUUF9c87CmLtzpwLsF_X2dYEcsDF4wA'
  lat: 40.112935
  level: 6
  lon: -88.220489
  name:  'The HUB Campus Church'
- ap: 4598
  img:  'http://lh3.googleusercontent.com/pYGYCzdOo2RX46MuyUVPGExxz3vVjAYCerSG06O3aGWbr302Vmw6bhoapK9LjwYEuZZ17xDHUfLw765dCYfRUA'
  lat: 40.080163
  level: 6
  lon: -88.207829
  name:  'Windmill at Meadowbrook Park'
- ap: 4598
  img:  'http://lh6.ggpht.com/o5v6x0IS1pBK2dWUvxkTn4pb6FfZnj8RLeXKDhPtC9Db_KQTVRqO-ye9oQATUZIczQsTyfBFXI1KvNsP020ZCc1BpubNrbvzVaKrsMTRErtsBNDb'
  lat: 40.082594
  level: 6
  lon: -88.202694
  name:  '"Here and There" at Meadowbrook'
- ap: 4598
  img:  'http://lh4.ggpht.com/ojeB36C4pFrkpUOLeRf1wlevsVasnc0hxMgCCqBw0bmWLkPKciRkj06rLhJaSpLFbnUhIn2WqKdmVVVYGBw'
  lat: 40.077334
  level: 6
  lon: -88.202929
  name:  '"Marker" at Meadowbrook Park'
- ap: 4598
  img:  'http://lh3.ggpht.com/SGh5Xw4MO1dVvrMemAzgB9RDDBXEv4yPJSQnS537XIPlaVnoge7FriTE0zXjRXDxMtFiaTHXXihwZpbush_dbg'
  lat: 40.077367
  level: 6
  lon: -88.203354
  name:  'Meadowbrook Trail Map'
- ap: 4411
  img:  'http://lh5.ggpht.com/nWEtxuKQdy0teBBue1DYmG7P3SF5-3A6zlB7GwVHBWlolAZYGq6Br78lWcF9ltFy-KeSlozXie2RmU6JfCUX'
  lat: 40.142673
  level: 7
  lon: -88.244603
  name:  'Italian Statue'
- ap: 4336
  img:  'http://lh3.ggpht.com/yeYI3q7rDQLA5xBcWfH-Caw2Uh740ZPRQjjyvOrZz7ZyLI-gxBpi8yqxqDrlOBzG9YHs6YlxdgX0obTpXlQ'
  lat: 40.117681
  level: 6
  lon: -88.241405
  name:  'Jupiter''s Downtown'
- ap: 4036
  img:  'http://lh5.ggpht.com/BPYtoLzDqibtj79fwGYxizNqHsBoJp5OzVO4Z-75rudKppazgw7D0eoXHOpH20iQd2Uc9MHXs72-r7fOJDNzpz3KRHIpZwzmXBope3LI8GA4SfsY'
  lat: 40.117754
  level: 2
  lon: -88.241676
  name:  'Jos. Kuhn and Co. Building'
- ap: 4411
  img:  'http://lh4.ggpht.com/4fOkmPX5YOrfNgs98zKNwIv5kRHJEUoIYouducEDloHlUY2wGAFlCNQxybwM9YRZZEKCxTucl0tqg2eqiW0'
  lat: 40.108017
  level: 5
  lon: -88.262076
  name:  'Clark Park'
- ap: 4411
  img:  'http://lh5.ggpht.com/FSk5On23hkt2tKQwxmnQmTBsfFpI2Fo62zmSDud2TYOwYe4SjDViMIp_ehdmFSJM-i4vLJr7i74gM7L7FXNR'
  lat: 40.107119
  level: 5
  lon: -88.26221
  name:  'Fraker Memorial Fountain   '
- ap: 4411
  img:  'http://lh5.ggpht.com/N1cFx79JwZqPlYPDW3HkNwRX8N4Auriii45qzYkAx9l-cKeK81qgZ6nuBpTBEIOyLzy4aIIhQKt2E7ZiysSjkg'
  lat: 40.10036
  level: 7
  lon: -88.250515
  name:  'Mark Foutch Pavilion'
- ap: 4411
  img:  'http://lh5.ggpht.com/aeGh3iXJqJ7skg-2JHEpngMSfcp1qDIEPoLMxzQNqbS5Y7HcxN7oE789bXiVFoFIcdCn7-3AhLPtxT_WE2E'
  lat: 40.0985
  level: 7
  lon: -88.248681
  name:  'Siti Sculpture'
- ap: 4411
  img:  'http://lh3.ggpht.com/8FqlniFErK7cq59awiT84u8KyV4FIRd5krZzfYa58zJToFps7whdBnriPqvO_kFKeLUE3SWbJhCOPuvUQzaGFA'
  lat: 40.100691
  level: 5
  lon: -88.251337
  name:  'In Loving Memory of Zeus'
- ap: 4411
  img:  'http://lh5.ggpht.com/EaT0PxhOud4vjm0kHYMit1zq4b2aTjV4M2olWNI-rM0oUVFeEI4kgeWGcrbk_EvcGBz6hwrN_wYLDLK3CUBi'
  lat: 40.088861
  level: 7
  lon: -88.251811
  name:  'A Flagstone Garden in Mattis Park'
- ap: 4411
  img:  'http://lh3.googleusercontent.com/awNe0JGlWWAtHv9iiLcqQjVyppWY-io4ybTL_ir2ZKsMLJgkZcW4rdUAuDjOFdWQvIcp5jlTWiROgHANh1Y1'
  lat: 40.087822
  level: 7
  lon: -88.253161
  name:  '"Ice" at Mattis Park'
- ap: 4411
  img:  'http://lh4.ggpht.com/DJiaqGgwCaKSjYczELIcjQOeBtoEqd--7TZYBJWO9_Nd16vjKwlco9tKatJTdAKT1CPoO7Cj39_rZvp8p0Ch'
  lat: 40.087241
  level: 7
  lon: -88.248222
  name:  'NCSA Blue Waters'
- ap: 4411
  img:  'http://lh5.ggpht.com/FeahTnHcc-Tb0sWOd6cQiYz5QrczzT5-Behz0KlyeiGyzYhvAlNlhPI72BVkREal1tU_4g4r2UklF7lcQgKr'
  lat: 40.087292
  level: 6
  lon: -88.253528
  name:  'Agnes Sweikar Memorial'
- ap: 4411
  img:  'http://lh5.ggpht.com/X-Tq3QbQ3JvCApWIGFxRwDJId7aLa8hY_ka0eU3QySTcZBgXcbPC4UXEQ9VVMsA-dYRxGqAdCotw-q7dby8f'
  lat: 40.088412
  level: 7
  lon: -88.251667
  name:  'French L. Fraker Memorial'
- ap: 4411
  img:  'http://lh3.ggpht.com/dlNcqhZvSXijpkfvwOrcW3aTD-ILaZMONMnmaEZv35uhdz7QbonCx9poCoucdHPTAu4q8P67w-GccKI-V7n2'
  lat: 40.068578
  level: 8
  lon: -88.241988
  name:  'Ernest R & Marian Adair'
- ap: 4411
  img:  'http://lh4.ggpht.com/wyM69v5COeXPWWt_LnfNM6UlZe8vhGenr3i6cKAsnyELc0kC82jEE4kljcMgjf5IByJFesORVLdjdKjLoAON'
  lat: 40.068553
  level: 8
  lon: -88.243226
  name:  'Nolda and Carl Dohme Memorial'
- ap: 4411
  img:  'http://lh3.ggpht.com/ykBYPl8Bo1p_kEXn-mEqhg3k6_885_hOQ2G2hi9b_kDcmiGHWz3L0t1c_Gi2ZIkzlHhyfqh0hgIM_uuZ4Dk'
  lat: 40.117519
  level: 6
  lon: -88.240577
  name:  'Spiral Flight'
- ap: 4411
  img:  'http://lh4.ggpht.com/d3UqrcK5M1wuOe19dIaBUOkrXF4C9IxhOWfxqzM4zIHkGsUIRb1mckNapOMRkkCtVIe0rzJumb1OVDVc1_Y'
  lat: 40.108055
  level: 7
  lon: -88.233688
  name:  'University Baptist Church'
- ap: 4411
  img:  'http://lh6.ggpht.com/c2I39IJvSBKmCLonmhP_RN1vLEpYY1recBXFm8xpGHxES4bAN2kvAcda8ZzvT75uq0yWQCv7N_dzP6ce5-Tu'
  lat: 40.108043
  level: 5
  lon: -88.22469
  name:  'Building of Molecular and Cellular Biology Sculpture'
- ap: 4261
  img:  'http://lh3.ggpht.com/F-cwL1kpN8KTxTiRAdaaAFictKYDbMRhPltdDuO0_6jhG8_6fxg1_yHzy1kBs1WXPRZ8UQDrxqY1fCdmHXFU'
  lat: 40.108042
  level: 4
  lon: -88.22808
  name:  'Earl W Porter Memorial Tree'
- ap: 4411
  img:  'http://lh3.googleusercontent.com/IL1IY2pEoa4vQNpzLwvTQY2XdPSKTnAOTyAaJle-S-3FAQF1BJqAxI5mRqem75ioMEmfTui9CLSzjwbI8P5C'
  lat: 40.128772
  level: 5
  lon: -88.211041
  name:  'Busey Woods Trail Shifting Views'
- ap: 4411
  img:  'http://lh3.googleusercontent.com/hF5kZFrZGRZkYYPDY8q06SkEPkSLljkbEbCI4gcyZ1QU1-wpfBV_Cma3GT6YE6PTdRBZr-7NuaDvVEm7oQU'
  lat: 40.128105
  level: 4
  lon: -88.210924
  name:  'Busey Woods Trail - A Change of Scenery'
- ap: 4411
  img:  'http://lh4.ggpht.com/zAxC11GCLRrj5wlF-U0mbjaisXjS5ukHSkGR5sVCfSWYKSlV2kxvtrD04m3n_XzT59XQ1xyf4ctzShUNem0'
  lat: 40.080381
  level: 6
  lon: -88.209174
  name:  'Meadowbrook Park'
- ap: 4259
  img:  'http://lh5.ggpht.com/YrrWNVDbF2PvWks7XHMzdNnH29Fm_9w3w-XsfCu_aNeRWe3yogvbKL0L2xuhUlUcT_FrvGouyLbPNDe37GVk'
  lat: 40.132123
  level: 5
  lon: -88.277273
  name:  'American Revolution Bicentennial Plaque'
- ap: 3922
  img:  'http://lh3.ggpht.com/oHMQr2Z5LayQFbZOwOZK4ZbYQ1OVxs85-qNTvSj8epsP72vQiOdrzVmkuMPFQtCSf9Rr0oqcnSLFjLn-sPw'
  lat: 40.116592
  level: 3
  lon: -88.243236
  name:  'Champaign City Bldg. Landmark Plaque'
- ap: 4035
  img:  'http://lh3.ggpht.com/whrVudLIelW8yHGGZa7geAVXvbkevW5Vc4DbMBSrMTYN38-Cce_sYnEFxEDWHJQouK3L-LjMbbADmlyYto_D'
  lat: 40.131036
  level: 6
  lon: -88.2778
  name:  'AISC Steel Teaching Sculpture'
- ap: 4035
  img:  'http://lh5.ggpht.com/Lup2et0i5h8oHqtBffIdoyX5uclC2MBn9ZnnKnYPr4RIFSflf9bi78zBHK7QqycA0qgEev9qOk0zU-1o1hg'
  lat: 40.108451
  level: 6
  lon: -88.228733
  name:  'The Centennial Colophon'
- ap: 3848
  img:  'http://lh5.ggpht.com/zk2PoLrNJK2jAfA0HGQo37eMuSz1YwubD7DuFfadgkLsY_DmoY37jprPnm75I212dvrFjl_O2PQbZOLJL4Y'
  lat: 40.107914
  level: 6
  lon: -88.262811
  name:  'Russell and Louetta Reed Memorial in Clark Park'
- ap: 3848
  img:  'http://lh4.ggpht.com/T04oZ0k13H90w4QZ7f_QTFH-yrHJNyKsJ-hRWmNk2YnqBSy8KwGZrO0fb-YN5RhCi3vg_903yE64_J-JZu4Z'
  lat: 40.092883
  level: 5
  lon: -88.26295
  name:  'Temple Baptist Church'
- ap: 3848
  img:  'http://lh5.ggpht.com/jz0XvZSSYKqKSa4lJDK-rludOns_o36jZ8ZTzfEr42piZamiTjSASTLdII6pkxgjZgnCwKirjhEouS77BPB8Dg'
  lat: 40.094288
  level: 7
  lon: -88.248914
  name:  'Boulware Trail'
- ap: 3848
  img:  'http://lh4.ggpht.com/3_LELG2r-A5s2d-x2dWyz6h7HzfjVR_KZn9AG0vhih9EalQIG43iL6LdKqKNpnGdGwguP9ZfnGF0KMq_KDE'
  lat: 40.105799
  level: 7
  lon: -88.230188
  name:  'Color Glass Windows at the Newman Center'
- ap: 3661
  img:  'http://lh3.ggpht.com/EGYOVzf1FmU6Mz8ck5GAJFFgeuTA6oTO3IOT84oXeO7EDtQ1lVD7VMiAxfWmaaW4Tg0x8IJ3GJnW-66LEgTN'
  lat: 40.107237
  level: 6
  lon: -88.262891
  name:  'Donna & Otis Myers Memorial'
- ap: 3661
  img:  'http://lh3.googleusercontent.com/hJZWoErzM-MuXulq4FlhlZwMbJX1Isd81GBUBVKayd57jVIVxUle3itd-1DRKo2VaNXznWr1X639fa44Etk'
  lat: 40.141919
  level: 6
  lon: -88.244611
  name:  'Marketplace Mall Carousel'
- ap: 3661
  img: http://i.imgur.com/5j1qaiT.png
  lat: 40.152792
  level: '?'
  lon: -88.253532
  name:  'Toalson Park'
- ap: 3661
  img:  'http://lh5.ggpht.com/KYppjeOoIlb4lbowRrrC5qRdYW7_KU8rzjtDMpvhh-Q_c6VZOTtVmOqmmxChJA2hjlpS5dJ1JnhUQcKUAXDWHA'
  lat: 40.117976
  level: 6
  lon: -88.242642
  name:  'Stevick Building'
- ap: 3661
  img:  'http://lh4.ggpht.com/vUhKhmK0pteJi8_0n25xIa4EpgpVSS432OxXv1UQBDLjju5SEGcm_2WWl99OUPtDyNLlXirJu--KDbCoYjM'
  lat: 40.08956
  level: 5
  lon: -88.257733
  name:  'Good Shepherd Lutheran Church'
- ap: 3661
  img:  'http://lh3.ggpht.com/ahylfFHnKd7tl8EDQopVPlqhdiJblx_p3TWsELUFACXM_9qS9N8agb-ypr7EOOemNFMUrRGaUQ23LY6F1ssb'
  lat: 40.095094
  level: 7
  lon: -88.257764
  name:  'Faith United Methodist Church'
- ap: 3661
  img:  'http://lh4.ggpht.com/aQomBYYXuWBUbnpgDH92zk4VBmLMOuf5n6WXkMHGTzf1DUlyXL-u4a9ulFUrqE5AO82s_LFM126E-B0HqONp'
  lat: 40.088127
  level: 6
  lon: -88.253036
  name:  'Peggy and Robert White Garden'
- ap: 3661
  img:  'http://lh5.ggpht.com/jQxBvX2jWXZCQP5ap9HmKaDDgG40pdH5nPpBNcYppZdxce6GWdxMRTYyqKrLxnk_TsmMAd7G6gRwJ6YI7S-v'
  lat: 40.107574
  level: 6
  lon: -88.227843
  name:  'Iconic Pillars'
- ap: 3661
  img:  'http://lh5.ggpht.com/ucFkWovrZBr6wFMicSGD78p44tqzcyfJCvQuAocYo0do3ODoHsOeAMphZZferoOLkGfuJPQVlILRzKG1vAPg'
  lat: 40.109172
  level: 7
  lon: -88.231151
  name:  'Illini Life Christian Fellowship'
- ap: 3661
  img:  'http://lh4.ggpht.com/KS4k0iDFceOcG_wEnQeqAeJpCkwjbjTItb2FUsyUJGsnhDizNqvrXmfee70SUhCcQ10_m1vv1vtcNRrFhIc'
  lat: 40.126039
  level: 5
  lon: -88.209117
  name:  'Water Sculpture'
- ap: 3661
  img:  'http://lh4.ggpht.com/JVNlRlxb-5k_pDpi5lUduOZu2NO-CKdaVaa4Jj_IHDLIxC31OEc6zpyO8qklRI58_wB2fH1m8LUHOJW_GME'
  lat: 40.125389
  level: 5
  lon: -88.209627
  name:  'Crystal Lake Tree House Club'
- ap: 3661
  img:  'http://lh4.ggpht.com/BL7RVMX7ZBl59uh3qjTqPi1OQTCLnWHiY3GLhCR_f8oAL1PmddwJq3mnTe-UN1IYkQSOR5i2cgpaA6oNdny6'
  lat: 40.12807
  level: 5
  lon: -88.215897
  name:  'Busey Woods Trail Entrance'
- ap: 3661
  img:  'http://lh3.ggpht.com/V-oTVbkji_q7V9k0WGhQyDum7PEtruXdbp6e-PzZq3sFNxGWdA79FLEv8uGaZrcSwWE15UhTtBB0ZMW0Ig3j'
  lat: 40.127466
  level: 5
  lon: -88.216274
  name:  'Lincoln Bindery'
- ap: 3661
  img:  'http://lh4.ggpht.com/n7S7CjMfxfFwYHpq5HrRc6lFaFZYFVb4vYJAcTAc8MZgOgDNYI7QBChMeKIY-OSJkDSdwCf5KsJYmDesbHhq'
  lat: 40.127017
  level: 4
  lon: -88.209948
  name:  'Busey Woods Gateway Trail'
- ap: 3661
  img:  'http://lh6.ggpht.com/jEub4RTtKqfEcjYNQDMtrj2tUL_R6e1kqZRi-xU7lZ00Gkn309unaXkzNzft6a67crWBUzDCb21a5HTTuCc'
  lat: 40.113065
  level: 5
  lon: -88.207546
  name:  'American Legion Post 71'
- ap: 3661
  img:  'http://lh6.ggpht.com/FsUBggh0M3sjncoth6JaamkCglQtDsuiR89k30B2sMp7srgh0Hz6trgv7BhNRSJA6qI7OvipV8B3XEhzHmaNxA'
  lat: 40.113513
  level: 6
  lon: -88.207559
  name:  'Black Dog Smoke & Ale House'
- ap: 3661
  img:  'http://lh3.ggpht.com/pSjbhtlYxUKJ7DAhIfw-L5rTjo3YJd0aVDlQWVWf1Nhpy75H-xsx_e3pykgTmN7RJ7s9PPBglL3WEexII2zoIXi3iSI5j1ht573t3HM_y3ZlIMKy'
  lat: 40.111715
  level: 4
  lon: -88.207738
  name:  'Urbana''s Bell'
- ap: 3661
  img:  'http://lh3.ggpht.com/3rw0YLp6-Ui3LAecadtTtTgoMRU7Q6vPRiNiSCod3Qb-bGjOJxf34EEnZP89KvnrTILkQM3PIE9-CIdmasz-'
  lat: 40.112897
  level: 5
  lon: -88.219672
  name:  'Mennonite Church'
- ap: 3661
  img:  'http://lh5.ggpht.com/9T9y0bpvBrwNNyvb142IyTeakSgjhepOOFAf15hGx0cHg_jgDEhSwReqANYrDhl7giaXpGBSRLV2dRn0Or3R'
  lat: 40.077839
  level: 6
  lon: -88.209091
  name:  '"Niantic" at Meadowbrook'
- ap: 3474
  img: http://i.imgur.com/5j1qaiT.png
  lat: 40.550486
  level: '?'
  lon: -88.060609
  name:  '0c60429ffcd645039beb5317456807b2.16'
- ap: 3474
  img: http://i.imgur.com/5j1qaiT.png
  lat: 41.169958
  level: '?'
  lon: -87.66323
  name:  '8e28e9deb7fe4b19a6c42eb953694ba0.16'
- ap: 3474
  img: http://i.imgur.com/5j1qaiT.png
  lat: 41.118478
  level: '?'
  lon: -87.853541
  name:  '2b8749bd0dab49799007a6ef6cc1853c.16'
- ap: 3474
  img:  'http://lh4.ggpht.com/h3t9nwbrudSHJ4Ll-zBceLi_U0iwpgbsVd8Wjzy_JgqMiXIqIu4CILUiFnKdayIi0htMXQ5CNowcXO7XUqI'
  lat: 40.13401
  level: 6
  lon: -88.28239
  name:  'Eddie Albert Gardens'
- ap: 3474
  img:  'http://lh6.ggpht.com/lcnaor8q6SYRZYMm-tUZtz1sXP81Bdwoa9Pf8LC0Vfggxa8JP98UTcgToQqXfmu99JegLd6L3Pb3aG6XjSQH'
  lat: 40.106714
  level: 5
  lon: -88.267574
  name:  'St. Peter''s United Church of Christ '
- ap: 3474
  img:  'http://lh5.ggpht.com/tuo_ByFTbwLitFP5cBseOibqRxENxbCwOJ30dCnja5ijBI_qBv5vqNP7ZuZXnxhYM6ms_GbExZEwwKVUtwV2'
  lat: 40.093712
  level: 5
  lon: -88.281583
  name:  'Brownfield Dedication'
- ap: 3474
  img:  'http://lh6.ggpht.com/p2F3xw4xL4UdiMM9aSy628ISSglrvjPexpF3j340tMAP9MX07yh_sJv7kHVkeud8lyFf2ZwDohw3zsRS2PSd'
  lat: 40.093914
  level: 5
  lon: -88.281531
  name:  'Terry M. Warmbier Memorial'
- ap: 3474
  img:  'http://lh6.ggpht.com/Jz3ahY5LQ13wKWLY9SEvexiinJa3GeO1eB_FynplikRpa77swLST6cUAJjPpqKDSq2KU4Dcyui-QBstz_Z3k'
  lat: 40.094624
  level: 3
  lon: -88.282953
  name:  'Greenbelt 2'
- ap: 3474
  img: http://i.imgur.com/5j1qaiT.png
  lat: 40.152192
  level: '?'
  lon: -88.252279
  name:  'Toalson Park South Entrance'
- ap: 3474
  img: http://i.imgur.com/5j1qaiT.png
  lat: 40.152342
  level: '?'
  lon: -88.252345
  name:  'Toalson Park Basketball Hoop'
- ap: 3474
  img:  'http://lh3.ggpht.com/07XrBN-er6Ecleor0n9RJ4DfGO6B2yn-ZxjI-Uy8Ba46Jtb6cXNVmATPiPiGyk-1jZ4wxa7-EeIWbWUqArCG'
  lat: 40.142554
  level: 6
  lon: -88.243468
  name:  'Dog Heart'
- ap: 3399
  img:  'http://lh6.ggpht.com/oTEawnC2cPnZ7T10vs9tiueaLsN0ILM7tgPLWVfa0njwvTDrUvS-w8x5SK4iMDd0tuHYP2w5a-H0AQ4NaAyU'
  lat: 40.116388
  level: 6
  lon: -88.243702
  name:  'Cycles of Love'
- ap: 3249
  img:  'http://lh6.ggpht.com/btym2_WGYuFNu2SNiR8qif7GXLMOPT7XpuHE7RPOipPC9Q5lEPfImKAzf2vm9RUe2rN0u3TePq4pM0IuZiLS'
  lat: 40.116436
  level: 4
  lon: -88.243459
  name:  'Champaign City Building'
- ap: 3474
  img:  'http://lh4.ggpht.com/W2chhQwPqSJEkl57NVoIL-OE4KFvJfp7Bsrrxza1apCYltcT3npz95LJxqHxvT9ZZu7wxF2gQy-5bpKal2p2'
  lat: 40.115838
  level: 6
  lon: -88.241338
  name:  'Illinois Terminal'
- ap: 3174
  img:  'http://lh6.ggpht.com/yoVMhDWju7bkAa8CImnlTqi4n2uH0odsX-LgEGeq_lqcXSmf2HQxX-c00NB1noOlmnFs51tZqBQXBLIJRfr8'
  lat: 40.117495
  level: 3
  lon: -88.241616
  name:  'Lincoln Building'
- ap: 3099
  img:  'http://lh5.ggpht.com/kcTMx3CqTnXQqNvx00fF4K5HQ34eOunlWHiU7JEB4nKyl3U14EbEpsqxVT2opoz78bQFDtIZR0IKDuewhKCG'
  lat: 40.119409
  level: 2
  lon: -88.242244
  name:  'Vintage Orpheum Artwork'
- ap: 3474
  img:  'http://lh5.ggpht.com/qXsP4-THlaQ8DmIiopsvR0dY2hqwPjIHoy1A1b_CUmqmADgED0FAkXDjkBzS-PY4jNfThICrCaXGja5OH8bWF4ghh7lBwJz0FzKz_zOvaiwHohU_'
  lat: 40.11945
  level: 5
  lon: -88.243175
  name:  '"Stride", Downtown Champaign'
- ap: 3474
  img:  'http://lh4.ggpht.com/mrFIlt7StuloTop3ci5DRg10i06ivamSn69PgqYPZfkV23dOzf-DhDdDUjeOOzy1ILR9xOOdLX_NBsMOH9FO'
  lat: 40.124377
  level: 7
  lon: -88.25297
  name:  'Spalding Park'
- ap: 3474
  img:  'http://lh4.ggpht.com/mnyMwxXghZOmxdJw2eJk5U9A5sfO_QLi0eKc2knF3RS3bJhiIa0N7N75KIzjEehKD3ChMFgaOHVRltiOVAw'
  lat: 40.125074
  level: 4
  lon: -88.251776
  name:  'Spalding Recreation Center'
- ap: 3474
  img:  'http://lh3.googleusercontent.com/zcTaX3OHcGZu7CzBV1HvsKtB5RiAW7oMwxS_7phps0tjr70eNr8xbxrJ_P6agi_uXJtMNdHPnks9rZcrR6mG'
  lat: 40.127267
  level: 6
  lon: -88.253451
  name:  'Champaign Fire Department'
- ap: 3474
  img:  'http://lh3.ggpht.com/POVqVDorpNyT78a1jNBYargU2WzX94oR7tmPRWdJpIYV2w5OZwXO5M0mJU_sIMCB-b3l1-mcCmck-f87iAw4'
  lat: 40.090059
  level: 7
  lon: -88.219342
  name:  'Illini Nellie Memorial'
- ap: 3474
  img:  'http://lh3.ggpht.com/DpFBT6YsInBvoo-6DUZeryDpITUgNnrw3j-iMPdeg6S2h9pL4DSqJLbMzsMqmLRwgJKLHa-xMVjHKDoSqwE'
  lat: 40.089107
  level: 5
  lon: -88.251579
  name:  'Donald M. Decker Memorial'
- ap: 3474
  img:  'http://lh3.ggpht.com/Jjm7ZUINFebdUQM0ZQth9oP9Uyw8xFVkOvgyZHQPHJ1pHk0-WPWHpdBULljg6f9GLhbmItzSwpavqyrf1zXwIQ'
  lat: 40.087721
  level: 7
  lon: -88.248276
  name:  'Work And Play'
- ap: 3474
  img:  'http://lh4.ggpht.com/vxjetUOC6_S8Ru3Q1ivzG4NE4bAAWg7_opiMwStExCoUHiRaIab8NyXLypEOAo7KBtsRQRzJX-TimhsOlBu3'
  lat: 40.087121
  level: 6
  lon: -88.251406
  name:  'Amdocs Shelter'
- ap: 3474
  img:  'http://lh6.ggpht.com/PrKWQe_StHjP7QQeyxlKiMSxAelIQlmbHzFMejewhMdVT0J-uvMpZCUGvQy_dZfrqfDnkmrIZYWkZORSGrnp'
  lat: 40.088449
  level: 7
  lon: -88.251396
  name:  'Boots''s Garden'
- ap: 3474
  img:  'http://lh4.ggpht.com/qWLIT-3GsQkC5f1iLdtWdxCs7cZzyMqqwXBViIYnN7Hvp6UFp3JqYe_qFKGGCSM1cWWbZZZh2X2uS3fS2lE'
  lat: 40.068474
  level: 8
  lon: -88.241437
  name:  'Dohme Park Shelter'
- ap: 3474
  img:  'http://lh4.ggpht.com/QwsEAxJxXih3pk0pVFqxU5BqHCY0sPesI5cs9qmw4rX55HG6-kHZC-0O_JV-ksx0rkRV7vbv4cNoCCqUGKe6NA'
  lat: 40.117334
  level: 5
  lon: -88.240517
  name:  'Glory Pipes 2.0'
- ap: 3474
  img:  'http://lh6.ggpht.com/3F-W_tWjI9to9yO9QFciZhrR-g69gAfObkgheBu6KlCyrjO3-yU1e6v7ziRZ5toBoJYzhhsInOPwyvIAQcQrDg'
  lat: 40.103603
  level: 2
  lon: -88.230999
  name:  'Legacy Stone Class of 2013'
- ap: 3474
  img:  'http://lh4.ggpht.com/lHmHpXRMH_OkQ_ZaCBKOe_1H4uKjbGtrlIrp1IWJE3ziHuH5jCVNEfDGTtuhBxGehg_MsT9WcAUXhpI692Y6_Q'
  lat: 40.103269
  level: 4
  lon: -88.231487
  name:  'Culture on the Prairie'
- ap: 3474
  img:  'http://lh4.ggpht.com/tLX-6Ub72fZQHiUgdDlTCFdgJMzvyICnd3BUZ2CkMd1kPhODSr7FDW_rVkZTBZ11U6gjZULvMZGnHcm4p1wo'
  lat: 40.10309
  level: 2
  lon: -88.23142
  name:  'Gelvin Garden'
- ap: 3474
  img:  'http://lh4.ggpht.com/7U0YXCB_DIhnqPJyjyLpNn6kg4lU8HvKL87ddBKWq1sptvVLvCEiCuNEnghQtqDGSN2OBNcOUK9nZcYjY4Vr'
  lat: 40.107887
  level: 5
  lon: -88.225998
  name:  'Lifesaving Antibiotic Plaque'
- ap: 3474
  img:  'http://lh5.ggpht.com/dgQfoxxVeHT5ODqLiUYHV45qvkC_BMS0kIFRqvHvE2GO0TduZ0-XzhW8RE80LtPDK0Ay5xwA6PtjM7G3C9U8'
  lat: 40.108947
  level: 5
  lon: -88.232251
  name:  'McKinley Church'
- ap: 3474
  img:  'http://lh5.ggpht.com/Zoidr1eUAO2UEM6SyifBpkC3K42Ctl355Krd3S2ZU3BbbIMt1XFKF4C35huJT7a-K1PMF6JCK3ztTnr2Wbc9zw'
  lat: 40.109178
  level: 2
  lon: -88.22945
  name:  'Pineapple Pillar'
- ap: 3474
  img:  'http://lh4.ggpht.com/9hzMj8KV-HraIucojjHAEgyMZsJAR9TWvNS-QSBB5LTYBOTwwqfTQySJ_Sz88eP3eyFWFYhx5qDVY93t8fk'
  lat: 40.108032
  level: 5
  lon: -88.225702
  name:  'Centennial Court'
- ap: 3474
  img:  'http://lh4.ggpht.com/g5bf6n8J6ugyF8pztcWZWnGyNmzIDQhskzXCDf2dJbuiqbub_xApqggrQrqn6WCy2yYmLnGrcmuQkqeQKx2IwA'
  lat: 40.126769
  level: 5
  lon: -88.215041
  name:  'Busey Woods Swampland Overlook'
- ap: 3474
  img:  'http://lh5.ggpht.com/iDnRVHEUQ_oEftSG905WfGP5gvywEV_sy95JNynoRZLVqnq6DEs6AxRZ-WPN1ChuOont-KtW0W_OuMCRK04'
  lat: 40.121037
  level: 5
  lon: -88.21093
  name:  'A Fountain in the Forest'
- ap: 3474
  img:  'http://lh6.ggpht.com/Qfyp6BK43B93Oo5kazv7b-62q_5cx5GKxXPyw6Juss-A6AgPx81B0lyWhzW7Ava9ztLzedt07gEh3ia2PPFDwQ'
  lat: 40.113636
  level: 6
  lon: -88.208146
  name:  'Jolly Roger'
- ap: 3474
  img:  'http://lh4.ggpht.com/jSz2CxoxUTCD1-qpHHu_6jtdCngFAYA2Ex-nNx-uEvRBtsBmmqhT7ogZI_ZTarMG8NrQs7M1EQzKjZhqGjyZrIw_TvFm885uc6c31FSL3bihglbs'
  lat: 40.111538
  level: 5
  lon: -88.206591
  name:  'Independent Media Center'
- ap: 3474
  img:  'http://lh6.ggpht.com/hf2-XzERtSQhHYqpfkmEoUelpEes9pxtJ5gINRWSZ6NTzyKQI3lTEEq-UDBSvbmADpUd1ScID47hMvXgmHo'
  lat: 40.111432
  level: 5
  lon: -88.207259
  name:  'US Post Office'
- ap: 3474
  img:  'http://lh4.ggpht.com/kRHQwpjarX7HfwQLr4A30xQMO7de9l3eYpGLma1L5s-RekStFVQR9wmELAfa5uJPMOlf5gV2dSJD3kGjJYz1SLzbacRg2RpKXPScnDHAk2ncu1s'
  lat: 40.082189
  level: 6
  lon: -88.202575
  name:  '"Position 1" @ Meadowbrook Par'
- ap: 3474
  img:  'http://lh6.ggpht.com/OeWiEqijQeAf256S5XDmv8VIj-SUQ0QHnet5J28ThcRwPEYY7-uk4CXixqualhlYxTcgKYe55FOcK_Ov7BE30jWvWzeBabSEra5jDLx3ZGj-XSs'
  lat: 40.08069
  level: 5
  lon: -88.20463
  name:  'Swift'
- ap: 3474
  img:  'http://lh3.ggpht.com/RDi9dMy3Df-Cf9VWDSaCohsnVa-bidVWXN6ZXu_h9yJGuQ22MI8MFwt1iA55QHtTIq5sHU6hZWbydWYFqr5PqQ'
  lat: 40.077419
  level: 6
  lon: -88.208069
  name:  'Walker Grove'
- ap: 3474
  img:  'http://lh4.ggpht.com/pTt4-DDT1cwTbzZEeKmOdZaGiy-eSWxNd6UttqXGqJNsFXd38QwCsiHKDTcWeMDbhCt8ddLDZsyBcpNW6aGnLA'
  lat: 40.078858
  level: 6
  lon: -88.200763
  name:  'Prairie Overlook'
- ap: 2911
  img:  'http://lh4.ggpht.com/ZevI283-hdNmxCDG58ggAccDFE_BgYgPK-Hwc6pMCOMdhClXrMtmBtTONxbI0Y_iV-SVdkgRT28tdz-T-6Vt'
  lat: 40.146982
  level: 5
  lon: -88.28914
  name:  'Champaign Kingdom Hall of Jehovah''s Witnesses'
- ap: 2911
  img:  'http://lh4.ggpht.com/HuvshlWthM50za1mc2WfWSCI8Lw1ExcCABPQ73kYwv_LJ0bx4gs0WgpHgX5KDNhypmHCVdiPvxnIXRIsYr_TkA'
  lat: 40.113728
  level: 7
  lon: -88.276582
  name:  'Seventh-Day Adventist Church'
- ap: 2911
  img:  'http://lh5.ggpht.com/WgDPQ47lNn2nlvNDPgwM_c-1MpVvxdVZtjZmFtixtr3rIi91xqYhgtSbyJGqRFnSXCUHy_RjABgEj2LSzOs'
  lat: 40.113343
  level: 6
  lon: -88.290525
  name:  'Fish Chimes at Kaufman Lake'
- ap: 2761
  img:  'http://lh4.ggpht.com/xS51--rXA9M_IHpXWgFQxKZU-YbD-1zk-nug6k7RyKl8rYeam_YFwMmLNWRRHHzI-rOTGyhTJQQ314WudSQJ'
  lat: 40.117132
  level: 4
  lon: -88.243009
  name:  'Fountain in the Alley'
- ap: 2911
  img:  'http://lh3.ggpht.com/NfRR7PyM2-UNoQGKgRsf6sUZdUTMp0sWqha9caVs49hYb0AnT9OznQX0dQGxKJNP6KiHWJ0WRUMSQh1m4-rwvg'
  lat: 40.117976
  level: 7
  lon: -88.245082
  name:  'Robeson Building '
- ap: 2649
  img:  'http://lh5.ggpht.com/zdaFJ-aI4Re55DtEiADt-qd1MMBuWZqEByU3BbT-0eYI80maTD-8JB5vJgtwKPFsFk-V75s-itU-cBisa-W9'
  lat: 40.132819
  level: 5
  lon: -88.286151
  name:  'Dodds Park'
- ap: 2724
  img:  'http://lh6.ggpht.com/y9bxecO9Wm4VrE6p2LRWA8XIIUlHlYWbTSZJ6GrJrTpeVtxB7wI7cWjdLkM6gjq_eOk7n-nJOlSJ9WzGjgfG'
  lat: 40.137123
  level: 4
  lon: -88.277784
  name:  'US Post Office'
- ap: 2724
  img: http://i.imgur.com/5j1qaiT.png
  lat: 40.285989
  level: '?'
  lon: -88.127072
  name:  'Paul Fraser Kent Memorial'
- ap: 2724
  img:  'http://lh6.ggpht.com/f3cOUn1gqLkJZQzs4-Y9j6j2ZXbb1Kmzf3klCFzF8zmFSlZZ-B6O4-5t1KIX95jbYUjeqMgOohEf1ilF75Uqyw'
  lat: 40.132777
  level: 6
  lon: -88.287351
  name:  'Parkland College Prairie Restoration Reserve'
- ap: 2724
  img:  'http://lh5.ggpht.com/S_72RqBcpwyaqDotOOM3zyRvzzZXNgZUSEfOLLDYY9tEvWcEksixMnIL7N-7FO1EpE-CXGydpsChqEkBjX_I'
  lat: 40.131279
  level: 6
  lon: -88.290872
  name:  'Stone Hand Sculptures'
- ap: 2724
  img:  'http://lh5.ggpht.com/TwKxvDv1ImbH5RTs7GHqqK_rPohVtqtgToH7YuDkkwa5BRFiMEcY1vWcFrJLkhaXW6cd2YVL0_Vro2JaA3K1'
  lat: 40.131575
  level: 5
  lon: -88.314062
  name:  'Mark L. Rambow Memorial'
- ap: 2724
  img:  'http://lh6.ggpht.com/TtWbekdbsTWA9hOrt2dc1ID1DnRuGoRbAle9mL9aZvc_aJygqJ9jAMjqrWtVr87WnELkFrSVIpO_4VVZQ67P'
  lat: 40.113103
  level: 6
  lon: -88.290672
  name:  'Kaufman Lake'
- ap: 2724
  img:  'http://lh6.ggpht.com/8_R0pnNTQT-uPiI9xeaPyYDmeMcnxaXImr4VqMnz2F_aNrFJ7wlemeLAXHdvRZ4XyYZnScYGhpFFs_XS9dJ1'
  lat: 40.11727
  level: 5
  lon: -88.286997
  name:  'Kaufman Lake'
- ap: 2724
  img:  'http://lh6.ggpht.com/yyeYUYh4CQUjDkChdMYxhBGtyVNFeOxie-Qo2rFmwnp6dxmIx6wYlfyU88vIxtwULKprz84mi2fmqu2vMOo'
  lat: 40.114764
  level: 5
  lon: -88.20772
  name:  'Station Theatre Memory Bench  '
- ap: 2724
  img:  'http://lh4.ggpht.com/u_MtizNv_keIXM4ITgtjqC8nr5JvB8UpDBg_5_08uQDTsQr44mwr6ZlkhTp0iKbvcV9xCJqXDeN66xYWaI0'
  lat: 40.116227
  level: 7
  lon: -88.233833
  name:  'Haley-Walker-Ginza Building'
- ap: 2724
  img:  'http://lh3.ggpht.com/9aQBG-poFARclK9XL7iFIvWePkawZwWhv4Sh0zQhQ0Sy9gdDD508d4gCtpcUP9UNoYM6uztea0aQ05RPd9rZLg'
  lat: 40.115412
  level: 7
  lon: -88.245046
  name:  'Eddie Thorpe''s Memorial Rock And Tree'
- ap: 2724
  img:  'http://lh3.ggpht.com/4NvHbplhArQJrKIkJMw4Ia0q_OtktXP-jC6FtPlgn6V49hv8LJbu0RC2ff0eTy3bF3ihXL12v5CPGwvlRNBF'
  lat: 40.127538
  level: 5
  lon: -88.199119
  name:  'Perkins Historical Site'
- ap: 2724
  img:  'http://lh3.ggpht.com/qkbAVT5J9ZNQHzzLNSiw9MN3XrDX3B8bj-xJzu8jKrFdykdTZdsEIlzOKXKVfJ5dZNrhJmG8VHZNeF5pR1G6'
  lat: 40.119977
  level: 7
  lon: -88.242247
  name:  'Seed House Historic'
- ap: 2724
  img:  'http://lh4.ggpht.com/0_lttD-fOe2BDVH-yBzmdjjauGr0BB0_D-EX45pREU6IpJNWdGeoC4QnuUb1qCmYXoPN8LP_P-Q1IV9KeGE1'
  lat: 40.121964
  level: 5
  lon: -88.229008
  name:  'Zion Hill Church'
- ap: 2724
  img:  'http://lh6.ggpht.com/C7ThuP5fwrDTu5cMDpoeGmRjotNh6eUnPf3ksvSsUj5NkHZ0yKbIUnF8cSikhX-I_7O42CTwqjhLq9z3jkIL'
  lat: 40.111844
  level: 7
  lon: -88.228609
  name:  'Talbot Labs '
- ap: 2724
  img:  'http://lh3.ggpht.com/aHqOXq4BX_XXhSNRFJn0768z_1bjWEniMumNJ4FMy9Nv5j3AefPsZDiAGCehCguZ1HFOBMBXxRI4mOXd077e'
  lat: 40.112957
  level: 5
  lon: -88.227127
  name:  'Early Computers Plaque'
- ap: 2499
  img:  'http://lh4.ggpht.com/1LUozaukItxu6cHk_7wORzYYNvskCHi_wUxbNOAcIXNbgLuYn7VElFG0tzY02e6pY-AEL8nNHAL6ewLCaLMH'
  lat: 40.10567
  level: 2
  lon: -88.228634
  name:  'Public Broadcasting Plaque'
- ap: 2724
  img:  'http://lh6.ggpht.com/3fVcmJ2u-5Mnni1a2NQuYee7Li3LXX1-Iih3NUqXYB8H0qCYAU7OEXBG0ysoYX44R9K5zwbI6c4G8fRDoZJY'
  lat: 40.101768
  level: 7
  lon: -88.234922
  name:  'Snyder Hall'
- ap: 2724
  img:  'http://lh4.ggpht.com/6WTMH3liIIuH6pEvRGZOkUNNR84nR8frjFch6yn_4mbGIokY-MajBCG6jZHWU37a8TBI97rYTBlX-ks8m5XJTw'
  lat: 40.112843
  level: 7
  lon: -88.227657
  name:  'Class of 1904 Flagpole'
- ap: 2724
  img:  'http://lh4.ggpht.com/L3_3bdFGcwi5zvNhxvPnMFZZEm1bKFSEVI3DOlF-FaUcX4jDGEwZ8xezrXUq6-71tbPP7kIe9PT1CTTY-ZjJ7A'
  lat: 40.114539
  level: 3
  lon: -88.224663
  name:  'Bench of Opportunity'
- ap: 2724
  img:  'http://lh4.ggpht.com/ezHSw_hRdts3U3bzkEEn46LneS1miDpbSGoxg0v1TqG_W82bvfR2uSTZeDFfhG0kmPJAkOblWP_ZilA6TP8'
  lat: 40.112523
  level: 7
  lon: -88.227765
  name:  'Bardeen Quadrangle - North Side'
- ap: 2724
  img: http://i.imgur.com/5j1qaiT.png
  lat: 40.084939
  level: '?'
  lon: -88.168778
  name:  'Stone Creek Fountain 2'
- ap: 2424
  img:  'http://lh4.ggpht.com/GsF83mQilY6LIEvSeaGzU2sGjQnFmNgTzi6gPFGKt1K-Yd40nunFYDQs97tOMf-RgMbeGBl2pwi33cd0L11U'
  lat: 40.126708
  level: 3
  lon: -88.208946
  name:  'Busey Friendship Grove'
- ap: 2724
  img:  'http://lh5.ggpht.com/3mE32dJLH9WsEctr1UHzE0G5QN_4V0vcLCldzmPU_WRufBLcaKzAgprPRfGQDOytzwAYwWfLfWxqWYl7hMqA'
  lat: 40.125757
  level: 5
  lon: -88.20788
  name:  'Nature Center / Family Aquatic Center'
- ap: 2537
  img: http://i.imgur.com/5j1qaiT.png
  lat: 42.534493
  level: '?'
  lon: -86.23473
  name:  '3ea04f14cc494f0fb185af3d30d226ac.16'
- ap: 2537
  img: http://i.imgur.com/5j1qaiT.png
  lat: 44.607633
  level: '?'
  lon: -87.43205
  name:  '8e6a8255e7c342e8806313a728bf9918.12'
- ap: 2537
  img:  'http://lh5.ggpht.com/RsXj0S9rbD_i4VFZmhxJtNtmwEeJOoYsmM8wyu90kB6srZMfUskP6iqrTY9eqFNQhhQrU50k92lCH4JEQ2w'
  lat: 40.127358
  level: 6
  lon: -88.243851
  name:  'Stanchion'
- ap: 2537
  img:  'http://lh3.ggpht.com/STEfnDDHEff3fffoWiEjvWm4SETgCRyRIvPgf92kzrsxo3sdh1SNg1AmGiFqvspDfSx0OXri-AXVfOZRWRMe'
  lat: 40.13156
  level: 6
  lon: -88.239027
  name:  'Human Kinetics Park'
- ap: 2537
  img: http://i.imgur.com/5j1qaiT.png
  lat: 40.441099
  level: '?'
  lon: -89.313489
  name:  'fa303e162e1349c7ac2d93cf3df18bf0.16'
- ap: 2537
  img: http://i.imgur.com/5j1qaiT.png
  lat: 41.112054
  level: '?'
  lon: -87.883585
  name:  'b77131828e74423c974ee333c99d565c.16'
- ap: 2537
  img:  'http://lh5.ggpht.com/93SMm7gYjGLu_6bFOqGL5MXKxKF_NsnHuxiDyywI_Jrhz-LaQoNlm0yw7lG0I9rhp5vnHkATk01A_CNYmYf-'
  lat: 40.128358
  level: 6
  lon: -88.243471
  name:  'Champaign Church of the Bretheren'
- ap: 2537
  img:  'http://lh5.ggpht.com/6W_b3aoHNnxViA4TkycmE5hhV5q_VHfypLNlgG4sAyw2eJ5Meyzi2-vwTA8miyKA5pZApxbfpAa7uc0zlCM'
  lat: 40.134758
  level: 7
  lon: -88.313172
  name:  'Sunset Ridge Prairie '
- ap: 2387
  img:  'http://lh3.ggpht.com/j0Yx7yuvUTJbnHtY38VFaty8xpyZMMDS_bSmvbHQx_2nQBiLqF4PGpLNdTGXkRgA3-OANQgASvn1mPGcuJi6HA'
  lat: 40.131715
  level: 3
  lon: -88.31369
  name:  'Mark L. Rambow Tree'
- ap: 2537
  img:  'http://lh5.ggpht.com/7MD3uqic9NvHKG2s5NBkAL6kdsBT10BzFJ6jTSaOfZS8mbyTlRDRYtizrxfH8ZvyqpRWXJHgmC5bk9imHqQf'
  lat: 40.114042
  level: 5
  lon: -88.289889
  name:  'Optimist Club Dedication 1991'
- ap: 2537
  img:  'http://lh6.ggpht.com/5R8z1wwducaGMkvLFryu9HzC91eX02E3KDY04s9Il7Qrdw8efQiRGZ_vbgqW0Fuvp4-I_d9ugFC6lPc7lxia'
  lat: 40.113465
  level: 6
  lon: -88.291684
  name:  'Anna Jean Russell Memorial Tree'
- ap: 2537
  img:  'http://lh5.ggpht.com/V9AFUiWKES88x0FruZILBXEBv1d476XQMgH8JsCHDQgvjDvk95Mgjf5vcl-Nx7CkPvfhwVGIrvB1EA5Tlh2j'
  lat: 40.132437
  level: 5
  lon: -88.29022
  name:  'Dr. Ray Braun Memorial'
- ap: 2537
  img:  'http://lh4.ggpht.com/a1FVYK5FqYQAl_d_TEIbk8PE4kKJVyIHNjJiJWlhHcozcrVi9qVZ137z5mYYlOeePqk0aqBqWwdZxEIgkxz0HA'
  lat: 40.132588
  level: 6
  lon: -88.279491
  name:  'Ronald D Schafer Plaque'
- ap: 2537
  img:  'http://lh5.ggpht.com/-aOZyLFNK96FhUdQBYhmRPZrs_PB1oiLRcrPjKwFBANQ42LxLbbHfTZVw_F01meecQXfNQwJYy7qqVh8Q0gR9g'
  lat: 40.133768
  level: 6
  lon: -88.281275
  name:  'Butterfly'
- ap: 2537
  img:  'http://lh4.ggpht.com/vKkSwERLa3zQO2UUIiYl1AEruAx1QTPcP4jSmPt89PG4AviJ1WhlVVH8qmqJ0aY2gqJmHcqdZFcM2pQconc'
  lat: 40.139375
  level: 6
  lon: -88.272793
  name:  'Salt And Light Ministries'
- ap: 2537
  img:  'http://lh5.ggpht.com/B8Rn2SSli9Gp6boevvgCFQmdAqu5SZyleVSIDEBfrAA-2kYvtvM5aI756gykEkV4Ycy7BQvvS-3_O-nAMllfhg'
  lat: 40.113028
  level: 7
  lon: -88.276537
  name:  'The New Fellowship Corner'
- ap: 2537
  img:  'http://lh4.ggpht.com/BDVsIEWOaH0zZsTgU8IbvmVNJTrl3EljfhNXeVt4C2BILNtXm5hpAq_6mLrTl66aJcUyYv4hFJKhxedLkKo'
  lat: 40.11679
  level: 7
  lon: -88.281854
  name:  'International Society of Arboriculture'
- ap: 2312
  img:  'http://lh6.ggpht.com/g4DT6SGoajyo3AEVQR_e1LuxmgdTecqzlqjxrY3qYL6mnr6FHMUAtS6E9ZnWczuWrf7WWRNC0XRF5iVTWdS-uQ'
  lat: 40.132002
  level: 4
  lon: -88.277467
  name:  'Dodds Park'
- ap: 2312
  img:  'http://lh6.ggpht.com/sKSzA4z89tx-wuf_ZXPMUbbcby-cUt9TlsI3QLYdgPpRPqDqjOm2DKkXhZ8Zrr04Kz8XKxhvdu-xVRYyeAoonA'
  lat: 40.084468
  level: 3
  lon: -88.265892
  name:  'In Memory of Robert E Abbuehl'
- ap: 2537
  img:  'http://lh6.ggpht.com/cspFto0a9XfDVdl-Fqidc8Tfmq6jiYzEy-EH3_4t9noc0VwvurrqO2f0LBQ7OnHhVmZ4xvw0gRZBYmgSTFKK'
  lat: 40.08388
  level: 5
  lon: -88.265186
  name:  'Shield of Chichen Itza'
- ap: 2387
  img:  'http://lh4.ggpht.com/ZEK-DXu7TJqsrt7cbLRjXyr3JbENJCn1FaKxH4Oi6kEvo4K0Yzm5qzMddhRLNlXvokAwQoeG4EKaNkXnJDA'
  lat: 40.114015
  level: 5
  lon: -88.245256
  name:  'Firefighters Park'
- ap: 2162
  img:  'http://lh5.ggpht.com/KuDVZqnpBQnne0a_UqpN4wpsQFlw3nVXAWtRKP_AdZ3CjQ0MHUBgU_2hE8hb71h31FTQbduYmB6DNuVKA0s'
  lat: 40.116822
  level: 2
  lon: -88.243445
  name:  'Remembering Horeb'
- ap: 2162
  img:  'http://lh3.ggpht.com/GGBe9Hug3fUbRCRAMs_kO1fg2HHQ95ZDBdW0S2tAHakvhQbWxlttanjhGNJJcyVRruUlL7zjQnPGI2bu8Wc4'
  lat: 40.117905
  level: 2
  lon: -88.242149
  name:  'Read All About It'
- ap: 2462
  img:  'http://lh5.ggpht.com/v26lJtVx6k_bS8UIv0cuwFV2H-bR_kPwjkydaZjqk7BOG1VyLpoQFvuFB7ZmKZpWB_uCHi70HLzZoI4xZgo1'
  lat: 40.116491
  level: 6
  lon: -88.246701
  name:  'Emmanuel Memorial Episcopal Church'
- ap: 2462
  img:  'http://lh6.ggpht.com/cnBQN3RYcZFSdxYB52bvMYRD2aTSlDG0_cqBQ8coo0ueKTtGxldE0xGjNPF6xlYJtnba8oUyEKwBeYbO8CY5'
  lat: 40.116631
  level: 5
  lon: -88.246951
  name:  'Lyle Blue Memorial'
- ap: 2462
  img:  'http://lh3.ggpht.com/WDQ55kRMYCIrw9Pm69IuV6cBTI2nx7Z1gU9yxX2oE2oH9EdPnO1ltxSROAjUmHmBu84SEtHmLKregkDqlLYzUg'
  lat: 40.117126
  level: 6
  lon: -88.240623
  name:  'Depot Barber Shop'
- ap: 2537
  img:  'http://lh6.ggpht.com/TwC89nGrBzJ04y3Sg9V93v2G1oFzqJ-bZzRxnsFKM-THGVa5DqKX5Wd0kovQtOOSv-KqO5qjLITC9ITAr4O2fw'
  lat: 40.119588
  level: 6
  lon: -88.238445
  name:  'Allen a Rivers Memorial Plaque'
- ap: 2462
  img:  'http://lh6.ggpht.com/4K7T7_gGrfag_-Hep7ygH_rklKsjale4oo2CqJAFTpPB5EM4Dv8ZGyz7i_qUOuLnt16GWxDSJWCS8TZYyGY'
  lat: 40.115421
  level: 5
  lon: -88.243168
  name:  'Walnut Street Tea Co.'
- ap: 2537
  img:  'http://lh6.ggpht.com/NH1CnJnblS1bpZxZJ0VxAHy0tYw7BiYdVK5V9KnTw0N1KMf8OFR6FZP01shVet9ha4cEfSYufO9a1bv8Sqyd'
  lat: 40.12142
  level: 7
  lon: -88.243105
  name:  'US Post Office, N Neil St, Champaign'
- ap: 2237
  img:  'http://lh5.ggpht.com/9XV46K2cUd84oc6HPyqlj53LKJS8lVs0f0gPHSCBkkTwiHaxivu36dlAj5M38EzK-2U4xhvZJ7AiVvGM5yk'
  lat: 40.118175
  level: 3
  lon: -88.244562
  name:  'The Russell Building'
- ap: 2537
  img:  'http://lh5.ggpht.com/BK5TjuMzuJgDVPz4C8HRjfZKeaoISnPJ-H7VaYeMNUYmxvvUY7RzIIlR13FjW9HHF_i5-znqs3O6nMxKPfcj'
  lat: 40.102188
  level: 4
  lon: -88.251507
  name:  'Little Free Library Charter 5753'
- ap: 2537
  img:  'http://lh4.ggpht.com/dIZMnnUykBHkwUGA_tGi7tq4m0qCooVejZqueoqq9NjBXvZgz1QUEqS-vJhsYu3v7pW_0xejLfH9QeziW28I'
  lat: 40.097472
  level: 5
  lon: -88.259842
  name:  'Indian Acres Swim Club'
- ap: 2537
  img:  'http://lh4.ggpht.com/-2q6p_jcZ5xVswdwpO98pGsMWXnqxUlsBmhWA2F6xs0MbwejV7FTN7-kHSb4nlsfg3uUsrvdDmUM5v1lQ-Ia'
  lat: 40.086252
  level: 5
  lon: -88.249351
  name:  'A Lady Waiting for the Bus'
- ap: 2537
  img:  'http://lh3.ggpht.com/M_7h0Ki3Lg0amDbE4TUpTotyGkAdYk7xDRIr6-eTAXwOJQJatUpTrB0j-kizii5hEZFuD8unaxcEhdVKRJs'
  lat: 40.122955
  level: 5
  lon: -88.231892
  name:  'Grove Street Church of God in Christ'
- ap: 2537
  img:  'http://lh3.ggpht.com/UQuHsiMeCPMbwNsd_6oQD7ZvYbGu8RJFkxo5LW4ixmtiaJZlrMJg7RTE7vmvbQxhHx8hTXzj4HiOfkiA8VGn'
  lat: 40.121364
  level: 5
  lon: -88.227323
  name:  'Dublin Street Church of Christ'
- ap: 2537
  img:  'http://lh6.ggpht.com/cYQLNtCsiRGXd_y7-ZdI4jGlNRpC4oiy2Z7UT7etDH3FBvBRQDtOW_rY0NBvKLJMnTw_EXH75NDGMcI6UkeV'
  lat: 40.105618
  level: 5
  lon: -88.229005
  name:  'The Chapel of St. John the Divine'
- ap: 2537
  img:  'http://lh4.ggpht.com/Zom5xkViTBf5wGkPFjYta7PfPZDicQD2VL2bQItgdzMxvQ1x7zqM3Zgynd7a6XBMT6qMAMKagxWMdpMlPcveaw'
  lat: 40.105849
  level: 3
  lon: -88.227679
  name:  'Lincoln Scholarship Plaque'
- ap: 2537
  img:  'http://lh5.ggpht.com/fHd4PN9y6K8vITWYf02HBqZwj7gTOYz9XqUVbI3_bHVW0KUAbFgY_jdyXgwKOFRz8VeKMD2BkELNjIedp5Le'
  lat: 40.108821
  level: 4
  lon: -88.228411
  name:  'John Milton Gregory''s Grave'
- ap: 2387
  img:  'http://lh3.ggpht.com/pVUYGCf7vsAndVd4vhK_pC9p6e9OvGa4ZiWuZg0ELOFDWptBba4H2N4PNZPjQdHXnV1GQyLTpCXQWDMKDUqn'
  lat: 40.108875
  level: 3
  lon: -88.227835
  name:  'Lion''s Head Planter'
- ap: 2537
  img:  'http://lh4.ggpht.com/m6NugtNnF8mim1fUMFDjmScu99lS5PjmUlCT9kKOOsIMqCH5uu5MRPhMusl6BPPpZ7Z3hnYTQZALmqSpLHxs'
  lat: 40.103652
  level: 7
  lon: -88.230025
  name:  'Pillars at Wohlers Hall'
- ap: 2537
  img:  'http://lh6.ggpht.com/2Rx43j2Btq5GI7Atdo-QNNLuFVJkY-7DiyLMNbg2kD1wjE77IXmedVtWOjr6wu_mgieNLBnA0GJLZ6zNF3s'
  lat: 40.110735
  level: 6
  lon: -88.236736
  name:  'Park Place Tower'
- ap: 2537
  img:  'http://lh6.ggpht.com/yE7aPklOUj6Y4vlNLUrqm7uJbj0TAVjhl_vSEgy7CHGlkTo5yyJGeTCUnRsHYe2UAZq2h_Y3AD_m3y3i2B8'
  lat: 40.106876
  level: 4
  lon: -88.228565
  name:  'Lincoln Hall Sigil'
- ap: 2537
  img:  'http://lh5.ggpht.com/gkIcCbfmQWyJ7s9ryhzfOOn1K-oa8huqzZN80X2psVjx_6Iur5egjGncbUIAMLiAJAf9qG1Ac8lX2MomHYY'
  lat: 40.108185
  level: 4
  lon: -88.225203
  name:  'Statue at Medical Sciences'
- ap: 2537
  img:  'http://lh3.ggpht.com/wOZOXhKOnhbKEPMQke-zGIG_vheDkHM8q19B1n_is5H7t1whBcQxBIGZI6VIPNw8mdCNXG6EUZeSjd1YLdngdg'
  lat: 40.108965
  level: 5
  lon: -88.227184
  name:  'U of I Mother''s Association Plaque'
- ap: 2537
  img:  'http://lh3.ggpht.com/rT55OoX-8s-w_ikrqOgpC7QkK-Iqp4ylicElGoWFagKRQ8LX3Uvv8TZ5Xc8BlId1btzo5FTbgddPN72kYwA'
  lat: 40.114327
  level: 4
  lon: -88.224492
  name:  'Siebel Courtyard Structure'
- ap: 2537
  img:  'http://lh4.ggpht.com/Mr8XeGiDafWk47NSkxDW3WManlpDnqzQWOT1VE2j0f0jFdh3tCvvntj45n1BJEnHylldZRnpPEOJ8OLeFZI'
  lat: 40.114405
  level: 4
  lon: -88.224198
  name:  'Siebel Center for Computer Science'
- ap: 2537
  img: http://i.imgur.com/5j1qaiT.png
  lat: 40.881288
  level: '?'
  lon: -88.62847
  name:  'da722e9eea0d45c59f4f37ea3fa27cd5.16'
- ap: 2537
  img: http://i.imgur.com/5j1qaiT.png
  lat: 40.10185
  level: '?'
  lon: -88.174527
  name:  '9954258935ea42f9bd9810e31497110e.16'
- ap: 2537
  img:  'http://lh4.ggpht.com/Hh8nntyxb361BGSJYy1ZxuMtkf5y1GXg3rEVqwI-1uwEH4MdL3b4JBnHLsxsMX1rCbbIWWVPDeDEsK6nvnyBGQ'
  lat: 40.124947
  level: 5
  lon: -88.210509
  name:  'Trail Marker in Busey Woods'
- ap: 2537
  img:  'http://lh4.ggpht.com/VZT9NM5dfGAaJAZj9cFhDmCgknQCF0UI4Hv3AwcaZedRlXhGb2wfVLTFOWjtoSJRG7MEsjv784wAB1XZgQqpBA'
  lat: 40.126642
  level: 6
  lon: -88.198163
  name:  'Armored Gopher Games'
- ap: 2537
  img:  'http://lh6.ggpht.com/Ka3_jVwGHc3wyrranDgkb0UqVN7M7Nbduod4wPmrn2Z51l0LRk5C3Pqg-Ml443gh9dYYglolVJmLLA8ZZcF90CPY5mu8fVkZyRifcuECtQnRhlBCGA'
  lat: 40.111685
  level: 4
  lon: -88.208653
  name:  'Iron Post'
- ap: 2537
  img:  'http://lh4.ggpht.com/g8tAznMB64NxNMd4eYtF27DhNprtAqnBEt_llGcKp1qpKQeUvyHBi8p5QuGURqAGieaeJscmQPi6Wosmutg'
  lat: 40.111328
  level: 4
  lon: -88.209207
  name:  'Urbana Free Library'
- ap: 2537
  img:  'http://lh5.ggpht.com/QcZWhJ6PHqlFbRPyy8x-CemMxNqKv0ngHIxYEGgicR7xBROfOWR28wittvm_uNNbVlRjL_v5sajlLmdW8Zk0'
  lat: 40.084308
  level: 5
  lon: -88.180201
  name:  'Calvary Baptist Church and Christian Academy'
- ap: 2537
  img:  'http://lh6.ggpht.com/XqG3n3J3bCj61mM2c6ByPJaWYXv51nQkx7me8714asRsez8kx_rSW4mwH2Rm8Y6Yibx71YB6kMcbAYpGch4'
  lat: 40.079324
  level: 6
  lon: -88.209124
  name:  'Timpone Family Ornamental Tree Grove'
- ap: 2537
  img:  'http://lh5.ggpht.com/tVkUyAJPzoQiIilJCSPpwPCqNYSC70DZydpa07fwbCQM-10lVGa41u-oM_7ZXsORl1gYlycrI78KlMpubKMg'
  lat: 40.079691
  level: 6
  lon: -88.208765
  name:  'Bruno Schielzeth Memorial'
