- ap: 5160
  img:  'http://lh6.ggpht.com/MsCeiBKy8tV3-ziINPCBPzkisfwOnBClSPr68FUxT1uMHlVmqtyTYYxNAZapU8bvWdcmm0lsmIzjMyv0CTJ2tQ'
  lat: 40.095364
  level: 2
  lon: -88.217386
  name:  'Miles C Hartley Selection Garden'
- ap: 4598
  img:  'http://lh3.ggpht.com/bVNaflT1bCgFsUDizKeHZFExlTyUFdVVpjEqrpacNh843YeRnU98IEQb8a02eE36XmEJXAkBC-FG1_3ezYP7'
  lat: 40.095365
  level: 5
  lon: -88.216784
  name:  '1867 Garden'
- ap: 4186
  img:  'http://lh4.ggpht.com/ZIOjKYlH2wMvdRD5A5HKGJPgBUYAaA7xHjGYnoXNzhzPIE6KR05FBciTJcN-AojoLyuwRlp3SF3TR1PXBrUPjw'
  lat: 40.094935
  level: 3
  lon: -88.216986
  name:  'Leroy Hubble Honorary Bench'
- ap: 3661
  img:  'http://lh4.ggpht.com/u_MtizNv_keIXM4ITgtjqC8nr5JvB8UpDBg_5_08uQDTsQr44mwr6ZlkhTp0iKbvcV9xCJqXDeN66xYWaI0'
  lat: 40.116227
  level: 1
  lon: -88.233833
  name:  'Haley-Walker-Ginza Building'
- ap: 3661
  img:  'http://lh5.ggpht.com/ftmAzbnKocZkda7k1ZC-3gMqr3UiOKXsS9qFSxN8V4C6_DEZr79lkSpPL00EmiZn50-ZPzTQZZlBLlOdL4Rd'
  lat: 40.116219
  level: 5
  lon: -88.23253
  name:  'Skyward Railway'
- ap: 3474
  img:  'http://lh6.ggpht.com/wucaQM-REDZu6ZBHVOIE5T1apjBrc_Fk_qdbyLPPCmXafFHKlIC0w--Wrd507L8Jh2CgIKpFz9loqhrmmVzG'
  lat: 40.117429
  level: 2
  lon: -88.231914
  name:  'Salem Baptist Church'
- ap: 3099
  img:  'http://lh5.ggpht.com/W2upB0MQ9l_1Z1JYjKFslTSSU-oi3b_kOidwTlG4pOCZRHWiD52CzcX2WMquuVEnMpxhtSRQOuAdLgDn8rs'
  lat: 40.096671
  level: 2
  lon: -88.217873
  name:  'Skull And Wagon Wheel'
- ap: 3474
  img:  'http://lh4.ggpht.com/jEbgkWj4jIpuTGF0BsLL3Qhx62u2Xh7IFfVmCspv6e6FjmSfbeTYkwQgAZ75wN8NpO2Lus14Khr5O4f9jvup'
  lat: 40.094517
  level: 5
  lon: -88.217269
  name:  'White Oak'
- ap: 3285
  img: http://i.imgur.com/5j1qaiT.png
  lat: 39.289356
  level: '?'
  lon: -89.871417
  name:  'eb1433647db244a0b124825cf049a034.16'
- ap: 2911
  img:  'http://lh5.ggpht.com/jQxBvX2jWXZCQP5ap9HmKaDDgG40pdH5nPpBNcYppZdxce6GWdxMRTYyqKrLxnk_TsmMAd7G6gRwJ6YI7S-v'
  lat: 40.107574
  level: 5
  lon: -88.227843
  name:  'Iconic Pillars'
- ap: 2537
  img: http://i.imgur.com/5j1qaiT.png
  lat: 41.835853
  level: '?'
  lon: -89.480623
  name:  '17882b9b6e3140739dc93df9bd849dec.12'
- ap: 2537
  img: http://i.imgur.com/5j1qaiT.png
  lat: 41.360718
  level: '?'
  lon: -88.991258
  name:  'bd5ea812a7ab407fad92afc09c9bc4b0.16'
- ap: 2537
  img: http://i.imgur.com/5j1qaiT.png
  lat: 40.006827
  level: '?'
  lon: -89.848069
  name:  'd58af787d56f4b89a2f9daea471228ed.16'
- ap: 2537
  img: http://i.imgur.com/5j1qaiT.png
  lat: 40.008375
  level: '?'
  lon: -89.84896
  name:  '55ce703460e343bb9d513d85b8175120.16'
- ap: 2537
  img: http://i.imgur.com/5j1qaiT.png
  lat: 40.009969
  level: '?'
  lon: -89.850482
  name:  '0a080cf683854673b637717c6c7bbdc4.16'
- ap: 2537
  img: http://i.imgur.com/5j1qaiT.png
  lat: 39.912869
  level: '?'
  lon: -88.271225
  name:  '7ae31819d59a42a286e4aba7926a74ac.16'
- ap: 2537
  img: http://i.imgur.com/5j1qaiT.png
  lat: 40.273821
  level: '?'
  lon: -88.676394
  name:  'Blue Star Highway Memorial'
- ap: 2537
  img: http://i.imgur.com/5j1qaiT.png
  lat: 40.010301
  level: '?'
  lon: -89.85082
  name:  '2120da95c2534ca79288df6c926bd90e.16'
- ap: 2537
  img: http://i.imgur.com/5j1qaiT.png
  lat: 40.010912
  level: '?'
  lon: -89.851023
  name:  '4b6c148368a24a89a9c543ad6de2b07d.16'
- ap: 2537
  img: http://i.imgur.com/5j1qaiT.png
  lat: 40.152737
  level: '?'
  lon: -88.962796
  name:  '390e5deafc2d49f8a5a35fe8bfa5cbe1.16'
- ap: 2537
  img: http://i.imgur.com/5j1qaiT.png
  lat: 40.477976
  level: '?'
  lon: -89.797635
  name:  '4c524c84bbb547f59b1ea35096b4e9ae.16'
- ap: 2537
  img: http://i.imgur.com/5j1qaiT.png
  lat: 42.482133
  level: '?'
  lon: -87.80197
  name:  '79b9ada5198248c1aa34ae25454ca493.16'
- ap: 2537
  img: http://i.imgur.com/5j1qaiT.png
  lat: 41.900604
  level: '?'
  lon: -87.624363
  name:  '16c4b27ef6344334a2f8f2ea262120cc.16'
- ap: 2537
  img:  'http://lh4.ggpht.com/T6VoVDge6344GK3Vri5Uf2d902pq2ZBJE7UnLB2cPfRhZSqnnlleRRy2IlO70H7UHzhoxXcmSVEtTJnl6iHiKg'
  lat: 40.108256
  level: 5
  lon: -88.285924
  name:  'Bresnan Meeting Center'
- ap: 2537
  img:  'http://lh6.ggpht.com/amW2e5ycP7FvjZ3krW-9lGBG3opwCMW_jITPOqV2E_woJYL5_s2UUaxHMN9PYWWD0p7-2CKYtMsk141rldj_'
  lat: 40.10884
  level: 5
  lon: -88.284078
  name:  'Bert Seaman Memorial Field'
- ap: 2537
  img:  'http://lh5.ggpht.com/Lup2et0i5h8oHqtBffIdoyX5uclC2MBn9ZnnKnYPr4RIFSflf9bi78zBHK7QqycA0qgEev9qOk0zU-1o1hg'
  lat: 40.108451
  level: 4
  lon: -88.228733
  name:  'The Centennial Colophon'
- ap: 2537
  img:  'http://lh3.ggpht.com/oSQ_YOHo2mfYjOa8bPK9ellznKK29UluW-SeXoGYra9VFg8dJp6YQRdHbHHaTExqXs1qUMBNmpI2hUPcC4GI'
  lat: 40.106789
  level: 6
  lon: -88.222992
  name:  'Beginnings of Computer Music Plaque'
- ap: 2537
  img:  'http://lh4.ggpht.com/hJDi8J7CZU-933hT0Culp2nhslv6p8rDRPdTFz6FwNaAjB5CmfkaQzj9sM--E-QBvI8yvIJn1F2jxy7ZKWlh'
  lat: 40.10816
  level: 5
  lon: -88.234245
  name:  'Stratford House'
- ap: 2537
  img:  'http://lh4.ggpht.com/OFVPvdgB3GVpaQknHdnt2okgP3xcQksAH3wvOGYVuP85MMlxo3bQ2SRpBb0hzNfjQoC_5LlRqaE6jLB-h9Gr'
  lat: 40.108092
  level: 5
  lon: -88.234589
  name:  'Koinonia Plaque'
- ap: 2537
  img:  'http://lh4.ggpht.com/H1kV6JSczzSbcCblAHg5ZOgITW1mBAz0_oLbqbzxBlijGTBn7TP6KwA6UI0AAGrCN4VF0DAF79Vcj6_2R4dsB8LRTq6tud6v'
  lat: 40.107753
  level: 4
  lon: -88.228913
  name:  'Zipcar-Wright Street & Daniel Street'
