- ap: 7035
  img:  'http://lh5.ggpht.com/ZBaYXHOKUz2Vxe_dieY9xFrO4KgTUtaLB91ggoRg5ypkxwdZOdAbLLO0ZJl8gH1FuR5TuvtWg0i5GJI4_TmiCw'
  lat: 40.11676
  level: 3
  lon: -88.194563
  name:  'Pavilion in the Woodland'
- ap: 5348
  img:  'http://lh6.ggpht.com/EiNXerTyRNFVC9pti48SExCtqR9p6t3-Xne_jw2YB90-VjUeJ3KGX8Se436SNVkFb5wOw0N7CKCz9brOeVg6WQ'
  lat: 40.117802
  level: 6
  lon: -88.249547
  name:  'Warren and Mary Filer Memorial'
- ap: 5348
  img:  'http://lh6.ggpht.com/0WV0zgKIo2AbnMTwJXYSM-C6nik92XvxsPKcZps2SdFzIWJ2bY4k2dHAqdImb1hTCK910NMvQYoKlwWprt6c'
  lat: 40.12034
  level: 4
  lon: -88.211743
  name:  'Alice Mimi Muller Dedication Plaque'
- ap: 5348
  img:  'http://lh6.ggpht.com/xxeIna-Mp_s6sWP2q0pQb8ArgRjTHMAPs_70QPHu6125M3ToW1y8q40xpyyMdqzNrz8XipF7ZIQUKsy1fBtX'
  lat: 40.116846
  level: 3
  lon: -88.19223
  name:  'The Ambucs Park Woodland'
- ap: 5348
  img:  'http://lh5.ggpht.com/HecdcuIKHPW3-6JCUlxHgv4kdBv7MXPpXBiWEczpoqzICIiFGkoPXGYJlGZLUCRJGjph6toVnnVWKVoXijhZIA'
  lat: 40.115947
  level: 3
  lon: -88.192222
  name:  'Ambucs Park'
- ap: 4972
  img:  'http://lh5.ggpht.com/THzk1iE4eBFdHkEgW_OGBWS54BbJw46faUZQS1Ad_IROHGgmVaXrphXJuL1O8N9k4G8_jaDT4P9tmLxMNi0W'
  lat: 40.131713
  level: 4
  lon: -88.29276
  name:  'Campus Solar System - Sun'
- ap: 4785
  img:  'http://lh4.ggpht.com/nxDeNwbXxYuo1VyX_qnfxvSql7bfLS5wokO9KwPy6x9CPdTsbILpEr9jM-sXHDsic6WPJnbvWci9eDEcNOWo'
  lat: 40.129554
  level: 5
  lon: -88.286025
  name:  'Dodds Park Soccer Fields'
- ap: 4785
  img:  'http://lh3.googleusercontent.com/Mh4TvEgm1KD2791bMhS_5scn90I7ItecDK_4cR71DUp3IcAnByKuziSm_RiBIqMb7QWx5NyyJtv3Wfvv5o7e'
  lat: 40.117555
  level: 4
  lon: -88.21334
  name:  'Carle Wind Sculpture'
- ap: 4598
  img:  'http://lh5.ggpht.com/EKJxNTFOuD40jrzyfaaZo27LcnbJVBBxKH8MoiDi1tC4TahCXMGYOMqy4lUVaR-z2Z4Guhp4berNdA0t0x0'
  lat: 40.117598
  level: 4
  lon: -88.212604
  name:  'Urbana Crystal Lake SW Marker'
- ap: 4598
  img:  'http://lh6.ggpht.com/yD7CHjpaf-cL3AcbXXrUaGWgMnfw38K3EZbqWYVBmyEzzCK6wRavKxcIWhEcpyTBDiX61ttCH_wg2oJbEwQt'
  lat: 40.11671
  level: 3
  lon: -88.192622
  name:  'The Ron Meyer Express'
- ap: 4411
  img:  'http://lh4.ggpht.com/6iTxW6HC8WFx3nf6xEGhZryWVxW9NNijqTsEKvcBCBkmkmLZdUjaDHKReKT58cl8RUaCwDCL7pMFmBEyj3Fc'
  lat: 40.117602
  level: 5
  lon: -88.249943
  name:  'Megan Schneider Patel Honorary Plaque'
- ap: 4411
  img:  'http://lh3.ggpht.com/5iH9kzVECg-dsKRPYTzLzAT5eoYnDhGrcJB1N-hLShal9eEun1_Ml0oFX2c42cGNjKj8-yvsEnUn2j4C_90'
  lat: 40.11792
  level: 5
  lon: -88.249845
  name:  'Thomas R. Sandrock'
- ap: 4411
  img:  'http://lh5.ggpht.com/0Ll2ab4pgOcvmpTrWmn4pfXaPEf2myKfU4AJY7_vKquWsFLrHBYTczg-A6Z96aQQu83na1h1jmcUN88wcd6H'
  lat: 40.117139
  level: 3
  lon: -88.191974
  name:  'Ambucs Express'
- ap: 3661
  img:  'http://lh3.googleusercontent.com/Nj5Ai888qxXriCQAeWkG8SbHbFuOlsYYCL3FjX-pCkblSOg30VuNF9lK9SQj4UDlg9R8XMYXpAcWyE9xIcA'
  lat: 40.135716
  level: 5
  lon: -88.291946
  name:  'Campus Solar System - Jupiter'
- ap: 3661
  img:  'http://lh4.ggpht.com/0pYkppjw5D-G0gCZ1pULK83NAqN9qsyzbBnG8K8YMyMekJwqUrZQDRpTqgqB3rrRD6zJezplE_wlFOTPLovb'
  lat: 40.127745
  level: 5
  lon: -88.287039
  name:  'Parkland College'
- ap: 3661
  img:  'http://lh5.ggpht.com/5n6ialkb-Y9eoGArdLzCAPCffrXVqL23DwAgk5_9lpKiUhDCIPnFMEDPXDx_cgawzU3afGhZK8hNkijTeoOiAw'
  lat: 40.054801
  level: 2
  lon: -88.239184
  name:  'Cornerstone Baptist Church'
- ap: 3661
  img:  'http://lh6.ggpht.com/OtlonltGS6Pz9b6NWq7-jxU1qZJ3MetYMMtgCTfM5rDRk8Nl15jBAn5NTsti7IVdxP7xqynLCkqcD-lf-pcHHw'
  lat: 40.056007
  level: 2
  lon: -88.24125
  name:  'Travis Field And Dedication Plaque'
- ap: 3661
  img:  'http://lh4.ggpht.com/8AjeZD8uLKBGqzwnDcp2t-wWRFmqZ03RVBIV2jccyPae0uVMwvjHgEmRfdS_lvnxJTIwosCM3Xlfpw-vIwZOdw'
  lat: 40.118549
  level: 5
  lon: -88.212935
  name:  'Francis and Hermenia Kruidenier Memorial'
- ap: 3474
  img: http://i.imgur.com/5j1qaiT.png
  lat: 42.589428
  level: '?'
  lon: -89.623785
  name:  '0eeaee667d23412a82aeffc6f5ca7ca9.16'
- ap: 3474
  img: http://i.imgur.com/5j1qaiT.png
  lat: 42.1272
  level: '?'
  lon: -89.250752
  name:  'b4dc03b667b94cbbaa7ca3e1ab6a110c.16'
- ap: 3474
  img: http://i.imgur.com/5j1qaiT.png
  lat: 42.101598
  level: '?'
  lon: -89.094017
  name:  '2622c0cfaf2c460eb88b2f5c1f72cf4f.16'
- ap: 3474
  img: http://i.imgur.com/5j1qaiT.png
  lat: 40.57641
  level: '?'
  lon: -89.043165
  name:  '4ded71f07ee04e5889dbcc9407158a9f.16'
- ap: 3474
  img: http://i.imgur.com/5j1qaiT.png
  lat: 41.308448
  level: '?'
  lon: -88.145495
  name:  '84a3ec9768534b00944a6eb29d3907ec.16'
- ap: 3474
  img: http://i.imgur.com/5j1qaiT.png
  lat: 41.001924
  level: '?'
  lon: -89.133999
  name:  '574e012a4643469ea4bc51ee5228218b.12'
- ap: 3324
  img:  'http://lh4.ggpht.com/GH0L77ajJqdeWLVc2Mn_FFhT4HGW8EMC3C1us7H_4f8LxWfQRnYQL6J8MDPNvomSwZP9gl8yMqo0qmwuOphB'
  lat: 40.098826
  level: 4
  lon: -88.284599
  name:  'Bocci Ball Court'
- ap: 3249
  img:  'http://lh3.ggpht.com/M4bKZ-CKQxZ9kYbwoDe79j6v5hIrWVwAcRzAUm9hg6fREm0ubCBwul695BAa_BhnyxOXdXIub7UvBaqxHnk'
  lat: 40.098803
  level: 3
  lon: -88.283425
  name:  'Taylor Memorial'
- ap: 3474
  img:  'http://lh5.ggpht.com/7iVmAcVyJIn8L3igZXGYGwViTb9r4HAzVxhWliawC7ufMhOhxXGx2_JlRghvetTHkNn8Wisk718zIFRlEDquGA'
  lat: 40.099194
  level: 4
  lon: -88.283703
  name:  'Children''s Prairie Farm'
- ap: 3474
  img:  'http://lh4.ggpht.com/GO8F5d9Gz5q0tize1_1NxJ51SfmjJESFilw1OhfyI3I0RcdLFN2uKHr8prPX1KAdmabYL8PNJNjyqlgn7r9o'
  lat: 40.117537
  level: 1
  lon: -88.249445
  name:  'Buerkett Family Memorial'
- ap: 3474
  img:  'http://lh4.ggpht.com/LukOnZPQdxTvyW2kKwpCrzH9PWuOtO6LZyu0jeZSt8ijAhlA0l-3oYZ_m0HbPoF316Mhgbh-SaZNKtmX82c'
  lat: 40.11814
  level: 4
  lon: -88.249887
  name:  'Silver Cloud Oakley Washburn, Jr.'
- ap: 3474
  img:  'http://lh3.ggpht.com/ZNkPqwMl66d8rWeX1GymLZKCMlnPUpbtprtKAZvDiBGUT-YhABoAQr60zv0TpoCrpBOhHO2q3ShocFKAn-1u'
  lat: 40.056616
  level: 2
  lon: -88.242475
  name:  'Prairie Fields Park'
- ap: 3474
  img:  'http://lh3.ggpht.com/jW-2Ce-dZ1Q0ljxUo3Cv-jckhBnpc4tF_LgZS1keMALkHV6RdWqDFJ2IDEj9bbeUrZbHubk7zNmzoHoLXmA'
  lat: 40.121037
  level: 5
  lon: -88.21093
  name:  'A Fountain in the Forest'
- ap: 3474
  img:  'http://lh6.ggpht.com/ONc6NEwX34IJR8FuaTy8phi9yEoEDMyOn9GRlqJJlv2fU-ky1s4L6OflOmO5pORHew3EOrF0ehzlIv5HFMff'
  lat: 40.118344
  level: 4
  lon: -88.210055
  name:  'Lake House at Crystal Lake Park'
- ap: 3474
  img:  'http://lh6.ggpht.com/ip01yZFDdi_w_oQ9qKF40m0xZBcj62odRMMEkBoiO6Pu_WUGqItkR8Dx-sJEgGpNxbTl9zxdS3cKZsDNJl4'
  lat: 40.118411
  level: 5
  lon: -88.210576
  name:  'Civil War Memorial'
- ap: 3474
  img:  'http://lh6.ggpht.com/VGq5_qMrAE5FbP2m0Maszw451m-OfbmuUYDIryB0OyOe4-R92nr43XAmU-Rl5GExMkQzJHBA2a45SDWOypA'
  lat: 40.118224
  level: 5
  lon: -88.210862
  name:  'Labor Day Memorial'
- ap: 2537
  img: http://i.imgur.com/5j1qaiT.png
  lat: 40.341303
  level: '?'
  lon: -88.525734
  name:  'baa4782d579a4b15b184b207abe0257e.16'
- ap: 2537
  img: http://i.imgur.com/5j1qaiT.png
  lat: 40.275273
  level: '?'
  lon: -88.353476
  name:  '28272aaee3234a039246a4282f96c916.16'
- ap: 2537
  img: http://i.imgur.com/5j1qaiT.png
  lat: 40.263925
  level: '?'
  lon: -87.608076
  name:  'f1f811b49e824fa58e35d5ab4911f801.12'
- ap: 2537
  img: http://i.imgur.com/5j1qaiT.png
  lat: 41.496461
  level: '?'
  lon: -87.70693
  name:  'd122a2dd890c48f9932421391be4109c.16'
- ap: 2537
  img: http://i.imgur.com/5j1qaiT.png
  lat: 45.038827
  level: '?'
  lon: -87.128633
  name:  'effaa78694de43a2a8fb1b5893e66a7d.16'
- ap: 2537
  img: http://i.imgur.com/5j1qaiT.png
  lat: 42.781389
  level: '?'
  lon: -87.757824
  name:  'f1b338e3321c46a3b934d916b9212aa6.16'
- ap: 2537
  img: http://i.imgur.com/5j1qaiT.png
  lat: 40.247118
  level: '?'
  lon: -88.631854
  name:  'Woodlawn Country Club'
- ap: 2537
  img: http://i.imgur.com/5j1qaiT.png
  lat: 40.873822
  level: '?'
  lon: -88.646106
  name:  '48c9d6133823423796c94e34eab373eb.16'
- ap: 2537
  img:  'http://lh4.ggpht.com/0UzQDuaKLiiPhEgEmKghfkzvXj6lROhxPIDJuI4nWLJFvdxJwGNcJZ1va0K_9cy4L2u0Zyeqv_qlIAwch5o'
  lat: 40.133475
  level: 6
  lon: -88.293988
  name:  'Parkhill Applied Technology Center'
- ap: 2537
  img:  'http://lh5.ggpht.com/3RfiPeOzF67ubNX-vkwUJ6-EYld6BKuoBernq0_9kOjlIsSPr3saR9FIQzN7uiw7ouF0CpNflOnL0mUj9zbqdQ'
  lat: 40.109452
  level: 5
  lon: -88.229031
  name:  'Illini Hall'
- ap: 2537
  img:  'http://lh5.ggpht.com/1yq3oFq9p_Yl5cUf5h7IEfZPAbae2MT7lA0DFo1DHwPWPZJJ-Ez-2AE2oTzHEHWsEJQVUcUwh3j_d3kOYgDS'
  lat: 40.110095
  level: 6
  lon: -88.22862
  name:  'Alma Mater Plaza'
