- ap: 3474
  img: http://i.imgur.com/5j1qaiT.png
  lat: 40.778321
  level: '?'
  lon: -89.67447
  name:  '649a82519808467ba90055d73673616e.16'
- ap: 3474
  img: http://i.imgur.com/5j1qaiT.png
  lat: 40.778755
  level: '?'
  lon: -89.674026
  name:  '6b83342c4fde4298bdb186836bb418c2.16'
- ap: 3474
  img: http://i.imgur.com/5j1qaiT.png
  lat: 41.302375
  level: '?'
  lon: -90.19526
  name:  '8af4452cb459425d982b7bb24dd90914.16'
- ap: 3474
  img:  'http://lh5.ggpht.com/KadNuhjGK6FUXezGHW1W1kfPOQV5l7gJP594EQm5nPZFLTgcTsjl4ixa-j7XitgtyJyou3q0pTfMr4i2E_avIA'
  lat: 40.118013
  level: 4
  lon: -88.243445
  name:  'Clock at Neil and Main'
- ap: 3474
  img:  'http://lh4.ggpht.com/tLO2wjyCgyune3KDOlQMV_oiDRxVsHqO1gAG_0xs9TvKOiuWRVmJcO29WI7jELxoxncaXpy91kMa89Uj65JVNw'
  lat: 40.11784
  level: 4
  lon: -88.24286
  name:  'Kaufman Memorial'
- ap: 3474
  img:  'http://lh3.ggpht.com/bltQwmnzp2vSKYhLpzNLqB4iddy6ie0kWk9G7Wce4U9qmW3CABxbXAhF7v0oG9QLFD2q57UZuVqZCMgN3MHZfA'
  lat: 40.118335
  level: 4
  lon: -88.243408
  name:  'Downtown Fountain'
- ap: 2537
  img: http://i.imgur.com/5j1qaiT.png
  lat: 40.779221
  level: '?'
  lon: -89.673801
  name:  '684444e63a55494fa0ed03c633d231dd.16'
- ap: 2537
  img: http://i.imgur.com/5j1qaiT.png
  lat: 41.303135
  level: '?'
  lon: -90.19288
  name:  '0583d678e29c42389aa92f8982096fc1.12'
- ap: 2537
  img: http://i.imgur.com/5j1qaiT.png
  lat: 39.809612
  level: '?'
  lon: -89.398152
  name:  '389b2d3460584fb58c24cb38556cbddc.16'
- ap: 2537
  img: http://i.imgur.com/5j1qaiT.png
  lat: 40.026078
  level: '?'
  lon: -88.783718
  name:  'edce8f4594c948e790402f25987eea45.16'
