- ap: 17155
  img: http://i.imgur.com/5j1qaiT.png
  lat: 41.440995
  level: '?'
  lon: -88.692458
  name:  '56ab53918c1847ec92dcd48f3e005a4d.16'
- ap: 12844
  img: http://i.imgur.com/5j1qaiT.png
  lat: 41.714859
  level: '?'
  lon: -89.333239
  name:  'd029df58c91a40b888cb8a88d984ac53.16'
- ap: 8722
  img:  'http://lh4.ggpht.com/MvwoDsxwfyNLHzfGkFJl-4VFeX7OvqB0hsMCrZ2D9Olh8GSghAJDfFfDh7a7cOtMIGwEDMyesZoKvKCXAGj4'
  lat: 40.116553
  level: 6
  lon: -88.242268
  name:  'Esquire Lounge'
- ap: 7409
  img:  'http://lh6.ggpht.com/SCYK-XeMmOyfRrTt1-aQNoDA-2Sib4m5Ch26mTwo6XNdVeVnfi7W74Ik6IRLAPSoKzSS97pgwt50Jl9oSgGfP029USxZzQWKNJo3rbs-6YHBPBif'
  lat: 40.116792
  level: 5
  lon: -88.241752
  name:  'WEFT 90.1 FM Community Radio'
- ap: 7035
  img:  'http://lh3.googleusercontent.com/5FkLhIMVmAJJSslAXVxY1RNxi-4q5mNAVPK2XgU5LwRM8qcB8BGXOK0GmF6Y_xfgPOhwF_CrbcgVZlJx-Pza'
  lat: 40.11652
  level: 5
  lon: -88.241845
  name:  'Mike ''N Molly''s'
- ap: 6659
  img:  'http://lh6.ggpht.com/BY965mN-IwRRa-jZ2gbLPDtjHyKpATG3VbP3LyHuDo6pU0R8wDi5gANnRox6DEA_ZgB0Xqi-p6k0SYPnSIs'
  lat: 40.115883
  level: 2
  lon: -88.232238
  name:  'Artwork at Fifth'
- ap: 6659
  img:  'http://lh4.ggpht.com/ryDcZUJK2aQ_fI0-hY850_t4ZmG2hNmtCx7cxbX83w3cnUWdI-ywpTuQrUVQNxGl3_DcxxNr6bupfDTsagRa'
  lat: 40.117107
  level: 6
  lon: -88.242467
  name:  'Radio Maria'
- ap: 6472
  img:  'http://lh5.ggpht.com/ftmAzbnKocZkda7k1ZC-3gMqr3UiOKXsS9qFSxN8V4C6_DEZr79lkSpPL00EmiZn50-ZPzTQZZlBLlOdL4Rd'
  lat: 40.116219
  level: 5
  lon: -88.23253
  name:  'Skyward Railway'
- ap: 6285
  img: http://i.imgur.com/5j1qaiT.png
  lat: 41.300918
  level: '?'
  lon: -89.062532
  name:  'afe8a8f0bcb74e5998364098a14ccbb9.16'
- ap: 6285
  img:  'http://lh4.ggpht.com/3gTAX6rKgNjLmBOYvAVTgSPQej5yRF_38uRllp9H4n5N6pvwWo5kDMDwlIkFVPPl30BXPSGAlZ9pO9B4DMk'
  lat: 40.116218
  level: 4
  lon: -88.242141
  name:  'Live Action Games'
- ap: 6098
  img:  'http://lh4.ggpht.com/H1kV6JSczzSbcCblAHg5ZOgITW1mBAz0_oLbqbzxBlijGTBn7TP6KwA6UI0AAGrCN4VF0DAF79Vcj6_2R4dsB8LRTq6tud6v'
  lat: 40.116164
  level: 4
  lon: -88.241661
  name:  'Zipcar-45 E. University Avenue'
- ap: 6096
  img:  'http://lh5.ggpht.com/OjHvATZsWSqcIG4MCHe5lUc8sE12iGmAJiQ_pp4ttXXy6QR3QTJ9OiFqGfdFxEbY6WMTgh_Vl2WcqFK0ptEn'
  lat: 40.086227
  level: 1
  lon: -88.332388
  name:  'Spiral the Gate'
- ap: 6096
  img:  'http://lh6.ggpht.com/Nv0tMktEkkuoGtg1QEPS1N2nTcBPg8ipu31i72XPDTGQ4HQI5oL58Ig8kofXUH_aCC2aaJ-NylWKPkC3hIBS'
  lat: 40.116218
  level: 6
  lon: -88.228757
  name:  'The Presidents'' Walk'
- ap: 5909
  img:  'http://lh4.ggpht.com/ykcBOYTGpoR392b8KhoJ1HeCMQKdls6__qGzmBtOaVho1L5T2KYhV8130wLVGDT_Hr-dhJX4tl1qSQdDtLZj'
  lat: 40.085955
  level: 1
  lon: -88.332754
  name:  'Robert C. Porter Family Park'
- ap: 5722
  img:  'http://lh6.ggpht.com/BUOz_9K6aZgOtyRb54zlioQbwPYQWrkeajX_5CubckGvYT-40T53nOZ5XVVrgNBMugNEjPHA0GgfWv5csos'
  lat: 40.08433
  level: 2
  lon: -88.32355
  name:  'Pipeline Trail'
- ap: 5722
  img:  'http://lh6.ggpht.com/0IsQORyEW-bPA7sEbGspygtoI7ixEshm_2fUw5oeh9AeXg6JN5w0ypYIshpuKm-C0nG4Vm2XmpLvtWTZzWzd'
  lat: 40.111607
  level: 4
  lon: -88.233753
  name:  'Chabad Menorah'
- ap: 5535
  img:  'http://lh5.ggpht.com/BUGNnLReyCBJJj9_zpqgwv5_CAyiW8fWBpyVs0ip1hT5NEE6YKCYzlc8ahldKzk_xv-4uckNJNb6NrJd6r33qg'
  lat: 40.116989
  level: 6
  lon: -88.242255
  name:  'Blind Pig'
- ap: 5348
  img: http://i.imgur.com/5j1qaiT.png
  lat: 41.710477
  level: '?'
  lon: -89.32551
  name:  'db2dfb860dfb4a59b57d515183f91926.16'
- ap: 5348
  img:  'http://lh4.ggpht.com/ETgOsKlMmsv5wRT-aM33VVVEgFvp3ZoMxqXmYKxROpFAYnfPqjWhltqYBG7ajEuM8XKf3mVeSaF7r9grm2t8'
  lat: 40.113448
  level: 5
  lon: -88.237188
  name:  'Boneyard Creek Second Street  Basin'
- ap: 5348
  img:  'http://lh6.ggpht.com/ea6HxAw7m0OhhPqJJkZR9u60pR1sab_JdxaOyEltqmQd-63FFJzPY72jEnu08g9Gcjjj5cf3jyyS_M1E7OIbfg'
  lat: 40.11616
  level: 5
  lon: -88.241422
  name:  'It''s A Mistree'
- ap: 4972
  img:  'http://lh6.ggpht.com/duOeXcOSQLWosdD0JJXg3pWWQp4t5sL0x9qDHoTIBFNOzEW0t53Lt2cnwgV2E_Su0l1ajIQxPtVbbK_sDRaS'
  lat: 40.141775
  level: 6
  lon: -88.242671
  name:  'Marketplace Mall Fountain'
- ap: 4972
  img:  'http://lh4.ggpht.com/PmGpygZ2fBs43twk2Y44XZbgGcHWv0YimAq7Fp3vlIRRqUyLpSmDmFwcn1ucfmJarcQrAAXJjYAXAhNyxSrz'
  lat: 40.110049
  level: 5
  lon: -88.231968
  name:  'Potbelly Mural'
- ap: 4785
  img:  'http://lh5.ggpht.com/cu2etg0fuCXE5105PXn-TXZ8NCus2roavRLIVgCeWnpc1cWicMkM7GVERquc10f1XdnsU66f9JYV86pKL3RC'
  lat: 40.082596
  level: 3
  lon: -88.312425
  name:  'Kiwanis Sports Complex'
- ap: 4785
  img:  'http://lh3.googleusercontent.com/EvLov_3eYLGHotkWec9w3T1VCPQri5SR8JLZjbJUaxRsyGPLS4YQNXf90xlPoKjxGYlml9N8IDYKwpNvVIWlVA'
  lat: 40.114563
  level: 2
  lon: -88.228735
  name:  'End Caps Sculpture at ECE'
- ap: 4785
  img:  'http://lh5.ggpht.com/fGRHfMAqdWrUnPE8GStKSdMkgQmu9qvuxAC4VzcU1v2KyxQu2BeuJKhvhefSeFNTkgFh6YdR-F4P6plMbh0'
  lat: 40.110194
  level: 6
  lon: -88.231488
  name:  'Fighting Illini Memorial'
- ap: 4598
  img:  'http://lh3.ggpht.com/07XrBN-er6Ecleor0n9RJ4DfGO6B2yn-ZxjI-Uy8Ba46Jtb6cXNVmATPiPiGyk-1jZ4wxa7-EeIWbWUqArCG'
  lat: 40.142554
  level: 6
  lon: -88.243468
  name:  'Dog Heart'
- ap: 4598
  img:  'http://lh5.ggpht.com/dRrlHXlT2nMNgZNHiYo52ha9L-Xay9DyOJR2Cpqs74hgAJ09abn9OTAtMzRVedt1_R9ObZllLO98vRhNMfgTgVsJCk1S-HJwX_XgiGpG4lz3a328'
  lat: 40.11671
  level: 6
  lon: -88.24263
  name:  'Cafe Kopi'
- ap: 4598
  img:  'http://lh5.ggpht.com/k51dyIcq_VT8S0cGsHhfgbItaWCMpBfJ9wjHrms0zYNSVH5gfV5-gmxjVatlchfenHsCBRl1uE8AzYJTf8dN'
  lat: 40.117449
  level: 3
  lon: -88.23557
  name:  'Park Avenue Seventh Day Adventist Church'
- ap: 4411
  img: http://i.imgur.com/5j1qaiT.png
  lat: 41.713517
  level: '?'
  lon: -89.331409
  name:  'f96ba33c86d44ceda5a09f4e7ba2114b.16'
- ap: 4411
  img: http://i.imgur.com/5j1qaiT.png
  lat: 41.71379
  level: '?'
  lon: -89.331936
  name:  'e4ea31093fd34c1eb80ea546c0b632fd.12'
- ap: 4411
  img:  'http://lh4.ggpht.com/W2chhQwPqSJEkl57NVoIL-OE4KFvJfp7Bsrrxza1apCYltcT3npz95LJxqHxvT9ZZu7wxF2gQy-5bpKal2p2'
  lat: 40.115838
  level: 6
  lon: -88.241338
  name:  'Illinois Terminal'
- ap: 4222
  img:  'http://lh3.ggpht.com/mH9oKWk-phPYmQF0ge48xB3OAch9161ZF0yJS5uGLtF8Hv4c7JZjcHweRyEF7yWhjzuN4sLJzH5MIu2dLa_F'
  lat: 40.084503
  level: 2
  lon: -88.332162
  name:  'Flamenco Revisited'
- ap: 4035
  img: http://i.imgur.com/5j1qaiT.png
  lat: 39.985257
  level: '?'
  lon: -88.259769
  name:  'daadc7b7a95447cab0d5353a7f7c6b46.16'
- ap: 3848
  img:  'http://lh5.ggpht.com/AmsS7GEfFX-_Icem2DP6mjQahV1jeut1CGdeqLqfpyzx0m5SqhVY4eoAohizF0xsevPQufmLRMoVj2rW7Fe8'
  lat: 40.111689
  level: 5
  lon: -88.231193
  name:  'Koi Building Art'
- ap: 3661
  img:  'http://lh6.ggpht.com/prg5Oedqi1_YJMN9GAesf7bmbUwbMGc9v7E3SYkm-TYdudfpX9SwuC1J4D4zkb1K4yrvF2ZPNWDoUniixORu'
  lat: 40.086493
  level: 2
  lon: -88.330828
  name:  'Environmental Plaque - Prairie '
- ap: 3661
  img:  'http://lh4.ggpht.com/CYtXDlK6MB-Yl-FmKw6yaRt-LGUdQqAdRp3LsWV1JUYwC8qrVWWJaGEaqMtMtRpANFpNeD4z82iGL54nIARL'
  lat: 40.141919
  level: 5
  lon: -88.244611
  name:  'Marketplace Mall Carousel'
- ap: 3661
  img:  'http://lh3.googleusercontent.com/3nkY0B9PDqzlWJ_EKh5GnTZ8z0U6X9-2dI5dapKA5Q3F4iKrE99AJZoy6NSvh2nU1WTG2hL70276yJjJ0G8'
  lat: 40.141598
  level: 5
  lon: -88.238817
  name:  'Red Shield Center'
- ap: 3661
  img:  'http://lh3.googleusercontent.com/ryRMzj5c3ls-s5Gocd2-IM_oonInNzjPIbCGJVps6JmZxYcG165NabHKNZW7wAepNc8rtLf3A3E0U1mbq-I'
  lat: 40.109923
  level: 6
  lon: -88.239141
  name:  'Circle K 59 E. Green'
- ap: 3661
  img:  'http://lh4.ggpht.com/lmmAipLLlemZCx_GvFWKPFhu7DSZrKSc3OxReeZJ15aabG51w3_L9IdcpKrku-QUoKanND7aZEBZIToeu8ha'
  lat: 40.120805
  level: 3
  lon: -88.201892
  name:  'American Veterans Memorial'
- ap: 3661
  img:  'http://lh6.ggpht.com/s0NjKuARUySFKyN76g9Vr1UymiO5a-Ev822C0UEiLqAFzFggW39lRKoYierDtj89xVWRDioyodaQ1Ve0SGBBXA'
  lat: 40.121861
  level: 2
  lon: -88.198042
  name:  'Chief Shemauger Park'
- ap: 3661
  img:  'http://lh4.ggpht.com/vKiU-Z9PbuWMTBST_ry96h11Nf1d5ooex1Fl5imVUtCPpaeGwy3JDVmhziEnAAySe8NXWHfT5stQGA2BQg9J1g'
  lat: 40.122111
  level: 4
  lon: -88.200203
  name:  'Dane Michael Sherr Memorial '
- ap: 3474
  img: http://i.imgur.com/5j1qaiT.png
  lat: 41.290836
  level: '?'
  lon: -89.062258
  name:  '2ed4ff2e61e94784a8361d1718a20b25.16'
- ap: 3474
  img: http://i.imgur.com/5j1qaiT.png
  lat: 41.299729
  level: '?'
  lon: -89.062401
  name:  '957f51d3cda2457ea351a66c4d3bf215.16'
- ap: 3474
  img: http://i.imgur.com/5j1qaiT.png
  lat: 41.295
  level: '?'
  lon: -89.062587
  name:  'bc74b2c5551a4ef8ba6918a67d396416.12'
- ap: 3474
  img: http://i.imgur.com/5j1qaiT.png
  lat: 41.294018
  level: '?'
  lon: -89.062653
  name:  '40e327c07c1a492590849246721f36d3.12'
- ap: 3474
  img: http://i.imgur.com/5j1qaiT.png
  lat: 41.30017
  level: '?'
  lon: -89.062425
  name:  '363d381c144f4166a502308ef54fb033.16'
- ap: 3474
  img: http://i.imgur.com/5j1qaiT.png
  lat: 41.299318
  level: '?'
  lon: -89.062417
  name:  'f027ea030eb549afb6aeea6502a75ce3.16'
- ap: 3474
  img: http://i.imgur.com/5j1qaiT.png
  lat: 41.292781
  level: '?'
  lon: -89.062536
  name:  '116276c1042e4e1091bbbde44ba15583.16'
- ap: 3474
  img: http://i.imgur.com/5j1qaiT.png
  lat: 41.643088
  level: '?'
  lon: -89.227868
  name:  '2f1a9e500a544845abb21954a8684910.12'
- ap: 3474
  img: http://i.imgur.com/5j1qaiT.png
  lat: 39.985169
  level: '?'
  lon: -88.259496
  name:  '41dd0bbf2c604d7a8eb6bf9863231d7b.16'
- ap: 3474
  img: http://i.imgur.com/5j1qaiT.png
  lat: 41.297992
  level: '?'
  lon: -89.062659
  name:  'e6756fa4155e41b79af77bcd0b803b34.16'
- ap: 3474
  img: http://i.imgur.com/5j1qaiT.png
  lat: 41.298273
  level: '?'
  lon: -89.062759
  name:  'e2474c3d3e3048b4b1bd5e7b6871d81f.16'
- ap: 3474
  img:  'http://lh4.ggpht.com/1LzO6yLZvWb6_g3FLduNKYb6d5TVljqsdNnQggC6Idh7XbUSLf4TOcuWChcYsVve_pt7N5f77mEJLTqUmA'
  lat: 40.085878
  level: 2
  lon: -88.331166
  name:  'Porter Family Park Dedication'
- ap: 3474
  img:  'http://lh4.ggpht.com/x4szinl46UCjQ4FiOKdsQrr5OuNhuiDz-N7Hudes1XwubFw49qnWwOghJQ2JU1MSNUX_GD0u0pzbSP3sHwM4yw'
  lat: 40.082475
  level: 2
  lon: -88.313826
  name:  'Zahnd Park'
- ap: 3474
  img:  'http://lh4.ggpht.com/nYT8xXu54e_RpOMwge0741LJV8TXmsU6JtJkw4-eNbTQlG51DA0s20v0xTmtkvREh1GrXuaasrkSJL5c3E_K2Q'
  lat: 40.082248
  level: 3
  lon: -88.312376
  name:  'Pony League Field'
- ap: 3474
  img: http://i.imgur.com/5j1qaiT.png
  lat: 40.199222
  level: '?'
  lon: -88.382509
  name:  'baa170273cd749acb5338139770e8f70.16'
- ap: 3474
  img: http://i.imgur.com/5j1qaiT.png
  lat: 40.199138
  level: '?'
  lon: -88.385786
  name:  'dbf3b4e9041a4a01af2e803c4a7296c6.16'
- ap: 3474
  img: http://i.imgur.com/5j1qaiT.png
  lat: 40.197114
  level: '?'
  lon: -88.38528
  name:  'Elks Lake Pavilion'
- ap: 2911
  img:  'http://lh5.ggpht.com/Dnxa0uyF4RKoIJbGj2tdvyDNb0rGtuO_uRKbU5rlo_G2o90ZQh1TJPY85qrIuM3pseJmLtXNbo0wS6tvowaz'
  lat: 40.08479
  level: 5
  lon: -88.331095
  name:  'Butterfly Bridge'
- ap: 2724
  img: http://i.imgur.com/5j1qaiT.png
  lat: 40.011563
  level: '?'
  lon: -89.278425
  name:  '93ee049f33d544d78fc4ce1dc2b491fc.12'
- ap: 2537
  img: http://i.imgur.com/5j1qaiT.png
  lat: 39.405035
  level: '?'
  lon: -88.79382
  name:  'f72aba674dac4a16992c5a05c398375e.16'
- ap: 2537
  img: http://i.imgur.com/5j1qaiT.png
  lat: 39.407259
  level: '?'
  lon: -88.793832
  name:  'd4bd15de84eb48f5983ff1ef09eb8246.12'
- ap: 2537
  img: http://i.imgur.com/5j1qaiT.png
  lat: 39.988142
  level: '?'
  lon: -88.257132
  name:  'St Patrick Church'
- ap: 2537
  img: http://i.imgur.com/5j1qaiT.png
  lat: 39.91497
  level: '?'
  lon: -88.273264
  name:  '5d2d71d0f909459c9004cd99890c964c.16'
- ap: 2537
  img: http://i.imgur.com/5j1qaiT.png
  lat: 39.912869
  level: '?'
  lon: -88.271225
  name:  '7ae31819d59a42a286e4aba7926a74ac.16'
- ap: 2537
  img:  'http://lh6.ggpht.com/gSkiCCAxYwrqFAngG83B_LFqd6Nhlw0xIRsGwVPkAD2N-u-qOYoHAUbgxP6laZhFqbIoQevsE0daWcUAMtbW'
  lat: 40.085688
  level: 2
  lon: -88.330182
  name:  'Metal Mesh '
- ap: 2537
  img:  'http://lh6.ggpht.com/xmgP6_TbSrlLRJsCZSQjC_DLNjFvpQZvEQ1HG5OqrNlNx6ze282h78In-2DEf_6Czi85r3XRa99MH0Ird8qu'
  lat: 40.085035
  level: 2
  lon: -88.33118
  name:  'Environmental Plaque - Pond'
- ap: 2387
  img:  'http://lh6.ggpht.com/tEtHQ3gjXHp940OLn9txVBSOCdT8UfYUs3C29Cgx6HiCLrS3KBboU3Wms2rEVMQWEf7lf67xfK7MIUmimDw'
  lat: 40.116631
  level: 3
  lon: -88.247334
  name:  'Jack C. Richmond Lion''s Club Bench'
- ap: 2537
  img:  'http://lh5.ggpht.com/77v6DfPMOKjAUzTfAuqZzYtMmpFMJV7lPr7FgQb_Fa46w1xmepHb0h-0CpG5WZy1b9vd5_DZ0uLxxZw9-DhJ'
  lat: 40.117163
  level: 5
  lon: -88.246602
  name:  'Garden for the Gardener Plaque'
- ap: 2537
  img:  'http://lh5.ggpht.com/BKHQBYKq1WHplCUxjyl6ZyElMZVN9SFIPmdKwffI6avqoyvbXRxFSFwn-RrmpqLRdSu6LntKwTDnQvCc1n0x'
  lat: 40.110358
  level: 5
  lon: -88.230181
  name:  'Murphy''s Pub '
- ap: 2537
  img:  'http://lh3.ggpht.com/1Z3mCRroEUysinW4hlDhAFNnfog3gwBM_aM8wYT6tQPiXMMmaRE9CrO5XM6QMe3UPHzMQSoxFmvWlkwOTRAv'
  lat: 40.111111
  level: 4
  lon: -88.230176
  name:  'U of I Mural'
- ap: 2537
  img:  'http://lh3.googleusercontent.com/ryRMzj5c3ls-s5Gocd2-IM_oonInNzjPIbCGJVps6JmZxYcG165NabHKNZW7wAepNc8rtLf3A3E0U1mbq-I'
  lat: 40.116071
  level: 4
  lon: -88.229243
  name:  'Circle K 609 E University'
- ap: 2462
  img:  'http://lh6.ggpht.com/iVHoGDIqnjdRupoPTpZLPtrzaCpEGW6HV4QHZ5WW185rmkrOxvl-C7uIN_gNZnCrm-djktoPC1J-9vjBZfCb1w'
  lat: 40.115718
  level: 1
  lon: -88.228521
  name:  'Red Lines Sculpture'
- ap: 2537
  img:  'http://lh5.ggpht.com/ZBaYXHOKUz2Vxe_dieY9xFrO4KgTUtaLB91ggoRg5ypkxwdZOdAbLLO0ZJl8gH1FuR5TuvtWg0i5GJI4_TmiCw'
  lat: 40.11676
  level: 5
  lon: -88.194563
  name:  'Pavilion in the Woodland'
