- ap: 10596
  img:  'http://lh6.ggpht.com/S7Utf4_59vQkAP5JhC3mdbzVLKBTt-0zoJ2UjfxUnN10VBbixO-_VwvssWd1LbFSx_yafaijd_U0wTGo870'
  lat: 40.100941
  level: 7
  lon: -88.251314
  name:  'Gabriel Patrick Maxeiner Memorial Plaque'
- ap: 9659
  img:  'http://lh3.ggpht.com/lzCSS0_tjwUV7JQ2fgLI0e05IrzPxlVUs-6aEPOwUv67IanQJSTi71gkw0SGm8asmoE_r3Xoh048Fd9xRpE'
  lat: 40.099169
  level: 7
  lon: -88.251419
  name:  'Lyman Larson Memorial'
- ap: 7972
  img:  'http://lh4.ggpht.com/PHV-1ZpFzCAl_ViCKwBY_x2pIDbVyaT7wJH1sTvFJCxrSdRrO1x7NaXq9OdRGwz_Mls4iwk6wuGHMBArfV54'
  lat: 40.098688
  level: 7
  lon: -88.25063
  name:  '"New Holland Yellow Dinosaurs" at Hessel Park'
- ap: 7409
  img:  'http://lh6.ggpht.com/BzDhCANV_iNTHhKFBGLuaUqOvChRZtPWnJ2Xk4h7NsKJHmTGgCWtFHWv2PpDA2fCsHHKSCRTrUNK8AKrLRnS'
  lat: 40.108066
  level: 7
  lon: -88.230687
  name:  'Community United Church of Christ'
- ap: 7222
  img:  'http://lh6.ggpht.com/XsUl74M1oxj6ptAvGEBOMH2wivRhxBNns62UJSGcPiQkuJIgPrmUYxMpSZZUfXRMMjrwoxlFK_DbAM78UrOh'
  lat: 40.113499
  level: 6
  lon: -88.244374
  name:  'Shatterglass Studios Mural'
- ap: 7222
  img:  'http://lh4.ggpht.com/vKgqIecJshMQxrhO-ZhMjcIyARuJdyU63wKfzAG0wouZex6LVzO46Qi5zM1N3Jx8xyantDFk9sQGsSEBhb-y'
  lat: 40.101327
  level: 7
  lon: -88.251412
  name:  'Zeus Memorial'
- ap: 7222
  img:  'http://lh5.ggpht.com/ENeQgqydWbi9-Oyf7vizunoRqJdsZV4o0RA_956wjGI8hqpTCHBPyWMpbTrrkwYpj5tgzDRvevGmvH4eFRU'
  lat: 40.099593
  level: 7
  lon: -88.251724
  name:  'Blessings from Devon Elaine Cattell'
- ap: 7222
  img:  'http://lh4.ggpht.com/4LxsGZZMk3DnpJXUvqzrL54CHSP5TDXjUnDJyHmCCTtCJIjGEI7kxT9g4uxfSPh0X6yGLgQo1jfqbu7B8VEr'
  lat: 40.099084
  level: 7
  lon: -88.251826
  name:  'Irina P. Stewart Memorial Plaque'
- ap: 7035
  img:  'http://lh3.ggpht.com/G1CvGhpethi5UmprDWxZN9rTblHa3anSsQz1UPgJtkREkfN7lDFoxFObst0609Cg5mofuZxJKr0ddNKhY4VL'
  lat: 40.098464
  level: 7
  lon: -88.251426
  name:  'Ruth Haasis Memorial'
- ap: 7035
  img:  'http://lh5.ggpht.com/4DJAFPeZ_w65Km7VDnsbOqouQaeBuPuxA0KHPQToT_B6o1hBxzdu3kn89UhHgv22Ygj52Fx9QqcbzOytuw'
  lat: 40.100078
  level: 7
  lon: -88.250683
  name:  'Brian Clark Memorial Plaque'
- ap: 7035
  img:  'http://lh5.ggpht.com/-UWK84I78Sftf7yg-E2pg6xEAWTvyiThgJBJlxbqOZPYKNmzQ8uGgEEMetzplrG1HpXG5kQqNItUeXKxOHDsGA'
  lat: 40.100286
  level: 7
  lon: -88.251747
  name:  'Tennis Anyone'
- ap: 6846
  img:  'http://lh5.ggpht.com/QruW49d2dc1uhQlK1BaZIeo6ruDNkqQfmvZz83eQ-1aC9ytGUcpFaHnKRTnXRc70F2EZ0-pVKGr9Slo0_9RfxA'
  lat: 40.139749
  level: 4
  lon: -88.273955
  name:  'Northside Church of Christ'
- ap: 6472
  img:  'http://lh3.ggpht.com/rUgM7jkTqL0VHxvsSW0yWuNJF5UrU62ITflghfn4PfKjn6L4WGz0ALkv98fc_q9dmK9SSpU1PXIawGvcRwE'
  lat: 40.098246
  level: 8
  lon: -88.251974
  name:  'Hessel Park'
- ap: 6285
  img:  'http://lh6.ggpht.com/5CDidk0pqfUtSW_Yqouuf3diX8drdMu9DoT728QpSz8q6A-WxNhT0yLcgM_7gGpyIAeXrHiTkIzzaVJFgnN9WA'
  lat: 40.099852
  level: 7
  lon: -88.251947
  name:  'Our Friend Tim Palmer'
- ap: 6098
  img:  'http://lh4.ggpht.com/B_I1b0Jy3vW41RX8jjCNPP68AULplU0Pf8ddolyKmpEWCfBVShQkmjF1HfTPzDjmBBQGgOs0jHW-rUR0mv8BkA'
  lat: 40.098789
  level: 7
  lon: -88.251685
  name:  'Curtis William McKinney Memorial'
- ap: 6098
  img:  'http://lh3.ggpht.com/VrbXGwlUosNLEkVdshWUFoVa3KtlJQoEU4yLYygvftYbPCmxo644Uvar_v8Kb9RS53hB0tXgvV44GotrxZyu'
  lat: 40.098592
  level: 7
  lon: -88.251676
  name:  'Ruth and Fred Steigmann Plaque'
- ap: 6098
  img:  'http://lh3.ggpht.com/8FqlniFErK7cq59awiT84u8KyV4FIRd5krZzfYa58zJToFps7whdBnriPqvO_kFKeLUE3SWbJhCOPuvUQzaGFA'
  lat: 40.100691
  level: 7
  lon: -88.251337
  name:  'In Loving Memory of Zeus'
- ap: 5909
  img:  'http://lh5.ggpht.com/pSVHjk6puyYdv3ztHlpJGnbkZyGsGsirMnxkDhlt8UMko4AhtTQbrzwInBCu5lK4Ttf7furE5pNW2AZh8HuSZQ'
  lat: 40.138109
  level: 4
  lon: -88.270158
  name:  'Glory Center International Church'
- ap: 5535
  img:  'http://lh5.ggpht.com/kElaGOaV9aI8SrnM1D65gx9J0Ky1AKrN9Yo-pXVmDhELt2pee4MwVRiCqCmlqWzUWj5pS33GnEzAiXmiWKsw'
  lat: 40.108111
  level: 7
  lon: -88.229625
  name:  'Illini Sports Mural'
- ap: 5161
  img:  'http://lh6.ggpht.com/yjfa0jJLjsfLRf9Zn9iafMp3MuIhgCi0WiOCF8GqTGiGvzEnsPGrFa0H1n-uzWhVehLbt44ShthsA32VzHd5iQ'
  lat: 40.099737
  level: 6
  lon: -88.251157
  name:  'Tyler Van Atkins Memorial'
- ap: 4972
  img:  'http://lh5.ggpht.com/ulBje3DZHcOGkPDTXihNL1tamRAm_GO1CREW8fA5fV0Znq1eF2J1hnbSZh35emEA1h9cL1qTj9FqGtb8VywgXQ'
  lat: 40.13765
  level: 5
  lon: -88.273074
  name:  'Garden Hills Park'
- ap: 4785
  img:  'http://lh3.ggpht.com/tXuCgd1tvCtlonW_e1jLC_5DH6g4Qh6zIUKhJeoBZuLvyB0ql69PlymRU3Ywf5lq_8PFYNylEKOiC_qJnnzJpg'
  lat: 40.138006
  level: 6
  lon: -88.272375
  name:  'Jericho Missionary Baptist Church'
- ap: 4598
  img:  'http://lh4.ggpht.com/9hzMj8KV-HraIucojjHAEgyMZsJAR9TWvNS-QSBB5LTYBOTwwqfTQySJ_Sz88eP3eyFWFYhx5qDVY93t8fk'
  lat: 40.108032
  level: 5
  lon: -88.225702
  name:  'Centennial Court'
- ap: 4373
  img:  'http://lh6.ggpht.com/yYW6Egg1lWn6UqqLzlgqwCQhtbuxiZSW4TmvI1XBPs33OTTJ0oh51XZXOIILxGI2juoO-E_YfG5UHmeb34rSOw'
  lat: 40.109165
  level: 1
  lon: -88.230269
  name:  'John Street Plaque'
- ap: 4411
  img:  'http://lh3.googleusercontent.com/vMuPZQrBjsuqibkb-FCbuVrZzyuUSOhjlXxxxRc9hq0Y7prkP-Fpk1Hh6o5Eq8BhT6s7GRP5S5z2KFUL7hJY'
  lat: 40.113606
  level: 6
  lon: -88.243766
  name:  'Mural on South Neil St.'
- ap: 4411
  img:  'http://lh3.ggpht.com/LunaMtSKD9yiLQClolDY-Iqh0ENm9AgJdL4D1QxGs0j6TXPgqxDZea35x5ilAfeI5_0TGh5x1q1EqRsJsLFi'
  lat: 40.114111
  level: 5
  lon: -88.243697
  name:  'Champaign Surplus'
- ap: 4411
  img:  'http://lh3.ggpht.com/9aQBG-poFARclK9XL7iFIvWePkawZwWhv4Sh0zQhQ0Sy9gdDD508d4gCtpcUP9UNoYM6uztea0aQ05RPd9rZLg'
  lat: 40.115412
  level: 5
  lon: -88.245046
  name:  'Eddie Thorpe''s Memorial Rock And Tree'
- ap: 4411
  img:  'http://lh5.ggpht.com/wX6-mbTE7nT00T6ildapKbI5ZrnhPIt4l91DhMseyo3GYFrgQIuqbjh8ntZY6NxGZ-qa6fKWlyoBOPdIdNIt'
  lat: 40.114653
  level: 5
  lon: -88.243729
  name:  'The Phoenix'
- ap: 4411
  img:  'http://lh5.ggpht.com/tfAfnmo6mSMc6U0P533NMFJRGwn6lasmx-MLR2JJg1QOizMKkghFU8E7hb2zgYgdQEbgnCJUlvZIMdrrJe4'
  lat: 40.100822
  level: 7
  lon: -88.25193
  name:  'Seeds of Kindness Bench'
- ap: 4411
  img:  'http://lh5.ggpht.com/HhVreJipNvxPRVFpmsh2BPo9PcpPO2Q2l3jCpDjIKgfKGycoTNPXR4DKiYccBXW4X-4dJf_vV0ESsWAWHcChsg'
  lat: 40.100936
  level: 5
  lon: -88.250855
  name:  'Donald F. Bresnan Memorial'
- ap: 4411
  img:  'http://lh6.ggpht.com/qSCp5fQMlyCQ-GOAgiSFy5gaHJei705Pa3eOlJiYO5wGjZTYtjA8q7QWWfAWcLKjxZSaFiMfXOPR8SO7rWU'
  lat: 40.099353
  level: 7
  lon: -88.251876
  name:  'Raymond B. Cattell Memorial'
- ap: 4411
  img:  'http://lh5.ggpht.com/C6wRSaEWO1NYGY5luyYZKHG3Z3aib4aflaPdV7B9G6N6adE890g3QuPRSvCUhsdFHqjoVUjo27mfz9WsjXyuhQ'
  lat: 40.100521
  level: 5
  lon: -88.250864
  name:  'Gabriel Patrick Maxeiner Memorial'
- ap: 4411
  img:  'http://lh6.ggpht.com/c2I39IJvSBKmCLonmhP_RN1vLEpYY1recBXFm8xpGHxES4bAN2kvAcda8ZzvT75uq0yWQCv7N_dzP6ce5-Tu'
  lat: 40.108043
  level: 6
  lon: -88.22469
  name:  'Building of Molecular and Cellular Biology Sculpture'
- ap: 4411
  img:  'http://lh5.ggpht.com/k_9eqZVvGcr3ZNyeeSNDM1-Y7od35KmnQQptB9usrdpTdpGW2c_5-12rYy9hGazdx7qhlYrEXxaJ_ZIVFywlcA'
  lat: 40.106706
  level: 7
  lon: -88.232116
  name:  'Illini Tower'
- ap: 4411
  img:  'http://lh4.ggpht.com/S734i_6SihPtJW8WdegLb3gEuKeNx8e1qDm6CXjREzYHohw7XqL82m4EF2K5nS2TixHweLn3EuJ4YoQnrsw'
  lat: 40.107751
  level: 7
  lon: -88.231532
  name:  'Graduate School of Library and Information Science'
- ap: 3848
  img:  'http://lh4.ggpht.com/vKkSwERLa3zQO2UUIiYl1AEruAx1QTPcP4jSmPt89PG4AviJ1WhlVVH8qmqJ0aY2gqJmHcqdZFcM2pQconc'
  lat: 40.139375
  level: 4
  lon: -88.272793
  name:  'Salt And Light Ministries'
- ap: 3661
  img:  'http://lh3.ggpht.com/xSCQSCRT6pHyQi9LDI3OamMdZnhLQ06OSlHRHnJC0FkDo93VgOcr3gyAV0aPAKagwq9V5iViSSCgIr6_fWCB'
  lat: 40.134441
  level: 5
  lon: -88.314067
  name:  'Seasons Within the Wetland Environmental Sign'
- ap: 3474
  img:  'http://lh3.ggpht.com/g1H1SJintXK5Zb7ng6DN7wix1q5otnzMK5JCJDnecwuIiohJmhXLJs1XzItxaTSYEuPPOqd4x-dGqd0WK5YU'
  lat: 40.13349
  level: 5
  lon: -88.313072
  name:  'Sunset Skate Park'
- ap: 3474
  img:  'http://lh5.ggpht.com/6W_b3aoHNnxViA4TkycmE5hhV5q_VHfypLNlgG4sAyw2eJ5Meyzi2-vwTA8miyKA5pZApxbfpAa7uc0zlCM'
  lat: 40.134758
  level: 5
  lon: -88.313172
  name:  'Sunset Ridge Prairie '
- ap: 3474
  img:  'http://lh3.googleusercontent.com/ZyXHLNlediISMVLqM9sUeZ0FEft3El4ni5P7GPOy5UF2YYBkTywnN5g1lkaer_lDNSvBUvg7bQ5yA_4Wd9qRWg'
  lat: 40.113521
  level: 5
  lon: -88.244122
  name:  'Artistic Graffiti at MCS'
- ap: 3474
  img:  'http://lh6.ggpht.com/Jltxi7PZ9OVi8hBCUxdt9oxXQk9zmbrtHpM_jru2WhVYyY0UkNZ8h5SU3CdwMRNzZ1ZKabPR8hDCPz7p3Ms'
  lat: 40.114439
  level: 5
  lon: -88.245013
  name:  'New Covenant Fellowship'
- ap: 3474
  img:  'http://lh3.googleusercontent.com/hvoLMUc9UoNVVPttxWTc8PzOWdu5MBmPETnBexH7Alyl20WGCrNa0G_j7DwvD3qbhqpTaeThFhGDV2rCtp8'
  lat: 40.107629
  level: 6
  lon: -88.224484
  name:  'Bucky Balls'
- ap: 3474
  img:  'http://lh5.ggpht.com/gkIcCbfmQWyJ7s9ryhzfOOn1K-oa8huqzZN80X2psVjx_6Iur5egjGncbUIAMLiAJAf9qG1Ac8lX2MomHYY'
  lat: 40.108185
  level: 6
  lon: -88.225203
  name:  'Statue at Medical Sciences'
- ap: 3474
  img:  'http://lh6.ggpht.com/pxaCt7clhIXc1RVGMMJZsmnbEWNWjFYJiUrQMev_SeOmXBothvOzmfnirQ5_W8CMa7hpigqydQhKMa4XFCAi'
  lat: 40.108173
  level: 7
  lon: -88.230209
  name:  'Mural on South Sixth Street'
- ap: 2724
  img: http://i.imgur.com/5j1qaiT.png
  lat: 40.312242
  level: '?'
  lon: -88.201368
  name:  '2012 Employee Dedication Bench'
- ap: 2724
  img: http://i.imgur.com/5j1qaiT.png
  lat: 40.106513
  level: '?'
  lon: -88.5585
  name:  'Lodge Christian Church'
- ap: 2724
  img: http://i.imgur.com/5j1qaiT.png
  lat: 41.179831
  level: '?'
  lon: -90.320602
  name:  '7900c25ce4c349f5a896d6119a0fbbcd.16'
- ap: 2724
  img:  'http://lh5.ggpht.com/n-WJVk4VFfgCVfLuyItrEjDCHgOd5YN1Z1ts6qT6-RmXvFyDeNKYarXwzwHKyd5B9tGmezRoEzKX4EFKmaY'
  lat: 40.124947
  level: 5
  lon: -88.210509
  name:  'Trail Marker in Busey Woods'
- ap: 2724
  img:  'http://lh6.ggpht.com/Jz3ahY5LQ13wKWLY9SEvexiinJa3GeO1eB_FynplikRpa77swLST6cUAJjPpqKDSq2KU4Dcyui-QBstz_Z3k'
  lat: 40.094624
  level: 2
  lon: -88.282953
  name:  'Greenbelt 2'
- ap: 2724
  img:  'http://lh5.ggpht.com/28al1CSkHNCrM9Sb57TYmawr1uFh6r5raWMJKD4QjLCj6N5YHEYIIizONs_hHF3pHuIppLjqxbTFcvrI9Dq9'
  lat: 40.111205
  level: 2
  lon: -88.227583
  name:  'Theory of Superconductivity Plaque'
- ap: 2724
  img:  'http://lh3.ggpht.com/fxsMa6MK6sWcY8fyTRPmRixomHagKag2YrMZjovxjujmavVawLdmU0Mi0HpNq5kH7UUoXfELEoBOFTkzeRwV2hp9PknjajWlvhX6jYIyUSrrH76k'
  lat: 40.10952
  level: 1
  lon: -88.228288
  name:  'Altgeld Hall'
- ap: 2724
  img:  'http://lh5.ggpht.com/VYMooLhz51W3fCgti3L9LEQNMJjmFeW30saxIYK34yGEReG1naEKEd3eW1uyFgSlzpu-P5KertNDe4Z6qu8'
  lat: 40.109913
  level: 1
  lon: -88.228393
  name:  'Alma Mater Statue'
- ap: 2724
  img:  'http://lh6.ggpht.com/pYay9oPZwUNKfLdWJ1JMI5tA9-Gd0vsBddLTz7fXN6wUW7F23hLMWRwFZNnXyomRkc2f9sqCGMxNWuYHPFZx'
  lat: 40.109142
  level: 1
  lon: -88.228748
  name:  'Kappa Alpha Psi Plaque'
- ap: 2724
  img:  'http://lh4.ggpht.com/CuRKYla63wCvLaTdKqGMMAd1Mr0_HK3v2iQjltrJwmsOownFtry6TsHMkAeHmOP6ULUYA53u4MUP61rgLzs6'
  lat: 40.1097
  level: 1
  lon: -88.228059
  name:  'Liza Kotz Memorial Plaque'
- ap: 2724
  img: http://i.imgur.com/5j1qaiT.png
  lat: 40.205206
  level: '?'
  lon: -88.393464
  name:  'ffb1c8830f184f8b9886fbf7c7604a37.12'
- ap: 2537
  img: http://i.imgur.com/5j1qaiT.png
  lat: 41.378117
  level: '?'
  lon: -88.77581
  name:  '839fab18414a4569b7c1a09968a07751.16'
- ap: 2537
  img: http://i.imgur.com/5j1qaiT.png
  lat: 40.124247
  level: '?'
  lon: -88.926356
  name:  '774e54070f3d48e3804045a925ac7c05.16'
- ap: 2537
  img: http://i.imgur.com/5j1qaiT.png
  lat: 40.154669
  level: '?'
  lon: -88.298035
  name:  'New Horizon Methodist Church'
- ap: 2537
  img:  'http://lh4.ggpht.com/ZevI283-hdNmxCDG58ggAccDFE_BgYgPK-Hwc6pMCOMdhClXrMtmBtTONxbI0Y_iV-SVdkgRT28tdz-T-6Vt'
  lat: 40.146982
  level: 5
  lon: -88.28914
  name:  'Champaign Kingdom Hall of Jehovah''s Witnesses'
- ap: 2537
  img: http://i.imgur.com/5j1qaiT.png
  lat: 39.772536
  level: '?'
  lon: -88.87563
  name:  'e7e5f76ee6ef4bceaf54487740c1594e.12'
- ap: 2537
  img: http://i.imgur.com/5j1qaiT.png
  lat: 41.76942
  level: '?'
  lon: -89.682978
  name:  'cc70963df7744aa7ac3e5f731ea32565.16'
- ap: 2537
  img: http://i.imgur.com/5j1qaiT.png
  lat: 41.562534
  level: '?'
  lon: -89.650933
  name:  '3a45fd306eda4e65b42f9e07672cd0cf.12'
- ap: 2537
  img:  'http://lh4.ggpht.com/YMDDyyJpIhe7xeYVGH048CFQDr7lX1SIPXzk4kXWr6zVgpUv6D1YGTLKwyg3DrhDoCuv-knBgF2gKZTylVRQ'
  lat: 40.132912
  level: 5
  lon: -88.314568
  name:  'Sunset Ridge Park'
- ap: 2537
  img:  'http://lh6.ggpht.com/8xR11KYEi2D1gcNqy1KNK_EGDGo3JbHOYXjXP_zTNk4AIqUwf0pZrSSkt9bx8xccXhiMSzvt-qFnVq-CGEOxbw'
  lat: 40.055189
  level: 5
  lon: -88.256113
  name:  'Event Notice Board'
- ap: 2537
  img:  'http://lh3.ggpht.com/W8FBEELyDwLQMeanXFx-Fgunxvd31WdpPq5IhpOEXVv-NygLJqO5o8a74hVaiQzxEGWm3XPPu4IWJEUcJQzN'
  lat: 40.055019
  level: 5
  lon: -88.295155
  name:  'Savoy United Methodist Church'
- ap: 2537
  img:  'http://lh3.ggpht.com/waYCvQnciDHIQoBYQqAoe2ioBs3DAhMQQsBboKyfNVNSWibmmRTf0SLvaoU5EwCFyWydn7rCCfrLXtLqQfA8'
  lat: 40.135683
  level: 5
  lon: -88.27634
  name:  'Champaign Fire Department'
- ap: 2537
  img:  'http://lh4.ggpht.com/XmQtS5vWS277-auG5r5x80jUieF2311Xfv6rWkYqVBZ3wz2cqxRtgabyzOhXn0fCpSpDD6Y_CFd9Rzti4eqj'
  lat: 40.148874
  level: 5
  lon: -88.268577
  name:  'Newt Dodds Tennis Center'
- ap: 2537
  img:  'http://lh6.ggpht.com/p2F3xw4xL4UdiMM9aSy628ISSglrvjPexpF3j340tMAP9MX07yh_sJv7kHVkeud8lyFf2ZwDohw3zsRS2PSd'
  lat: 40.093914
  level: 2
  lon: -88.281531
  name:  'Terry M. Warmbier Memorial'
- ap: 2537
  img:  'http://lh5.ggpht.com/tuo_ByFTbwLitFP5cBseOibqRxENxbCwOJ30dCnja5ijBI_qBv5vqNP7ZuZXnxhYM6ms_GbExZEwwKVUtwV2'
  lat: 40.093712
  level: 2
  lon: -88.281583
  name:  'Brownfield Dedication'
- ap: 2537
  img:  'http://lh6.ggpht.com/duOeXcOSQLWosdD0JJXg3pWWQp4t5sL0x9qDHoTIBFNOzEW0t53Lt2cnwgV2E_Su0l1ajIQxPtVbbK_sDRaS'
  lat: 40.141775
  level: 5
  lon: -88.242671
  name:  'Marketplace Mall Fountain'
- ap: 2537
  img:  'http://lh3.ggpht.com/07XrBN-er6Ecleor0n9RJ4DfGO6B2yn-ZxjI-Uy8Ba46Jtb6cXNVmATPiPiGyk-1jZ4wxa7-EeIWbWUqArCG'
  lat: 40.142554
  level: 5
  lon: -88.243468
  name:  'Dog Heart'
- ap: 2387
  img:  'http://lh6.ggpht.com/nbUJivBo0zF8f8aBbk1GwakUpPbLUVOoEovTTETYwJvfNIHXwG9XUbwoV0x-ly4ZO5Hsyv5KPo3c9cE6Nh8'
  lat: 40.118832
  level: 3
  lon: -88.243643
  name:  'Tesla Ball'
- ap: 2537
  img:  'http://lh4.ggpht.com/0JuC7vEVtmbgkx1FUhaTylcKfKuYoGNdW2P5GNZzGbeOzxEH0Q-9gP9gmmBzx2bkLNA0dnw9FiEJYiHjWXM'
  lat: 40.121329
  level: 4
  lon: -88.24558
  name:  'The Gregory'
- ap: 2537
  img:  'http://lh4.ggpht.com/ZwDzLvPP0KTL_mUj9ta-0DRkbA4q3X7b-r02bm3rTibFkPbu00GKehClddYfSkXbwVuJ4pjt4T7yo7ou54ov'
  lat: 40.111869
  level: 3
  lon: -88.227932
  name:  'Talbot Lab Mural'
- ap: 2312
  img:  'http://lh3.ggpht.com/b9HBD2zL4T02YqqDOnuBzYEU0UECTZDRgjLjZJV7cnX75wbmiWtc5yBUo_FZrZ8yBH69UsrbeJlq-VS-mPmi'
  lat: 40.109438
  level: 1
  lon: -88.226301
  name:  'Illite and Clay Mineralogy Plaque'
- ap: 2537
  img:  'http://lh3.googleusercontent.com/JtDKcaLvXa-az4aUAoga4ikpwAKEsCsSIgnN9eVPp7q2Tiynz0iyg5e2mk0InXRsJclU6axBXOMi3NcfABUd'
  lat: 40.110065
  level: 2
  lon: -88.225155
  name:  'Wesley United Methodist Church'
- ap: 2537
  img:  'http://lh6.ggpht.com/TXVMllOHjnPSJgg_7oE4ZuY82xJs56TE9AbaxAFxXWiD5yKwlOZUHfx74BaxCzczl9hTtaKqkaDsA4LeZ94'
  lat: 40.110617
  level: 1
  lon: -88.228248
  name:  'Everitt Lab'
- ap: 2537
  img:  'http://lh3.ggpht.com/o6_RpCgHFDA4MceKnIqFkksRYWZkhEKsAZE3VNGl5iS5zkkQWJdBKOY-gNca5iB37jbgnoYsbc1ROtZ-bQhJIw'
  lat: 40.108833
  level: 1
  lon: -88.228125
  name:  'Class of 1902 Memorial'
- ap: 2537
  img:  'http://lh5.ggpht.com/3RfiPeOzF67ubNX-vkwUJ6-EYld6BKuoBernq0_9kOjlIsSPr3saR9FIQzN7uiw7ouF0CpNflOnL0mUj9zbqdQ'
  lat: 40.109452
  level: 1
  lon: -88.229031
  name:  'Illini Hall'
- ap: 2537
  img:  'http://lh5.ggpht.com/2PB1u3cNuASfw9D_MIUzI1JvNofebK7zsuGqKoUApr-nUWYZ8y5CzxH6g7CdcY7ShBaVGrBrurkbwrdUPD7JBk55TH0Ouao5b_g2jUI1saBNUE8'
  lat: 40.106744
  level: 6
  lon: -88.225347
  name:  'The Red Herring Vegetarian'
- ap: 2537
  img:  'http://lh3.googleusercontent.com/__dofGL-oELNLYymrJ5VDONThxrG0oMe5aQcopgTFJgu56wHeV1y-scJDNms_C4LRoqDe-qKwDBNRNkCiJnNUQ'
  lat: 40.127703
  level: 5
  lon: -88.211526
  name:  'Busey Woods Trail - Wet to Dry'
- ap: 2537
  img: http://i.imgur.com/5j1qaiT.png
  lat: 40.205583
  level: '?'
  lon: -88.394066
  name:  'Champaign Countys Lincoln'
- ap: 2537
  img: http://i.imgur.com/5j1qaiT.png
  lat: 40.205076
  level: '?'
  lon: -88.39379
  name:  '88b22f723d954699bdb089ff05d12bf6.16'
- ap: 2537
  img: http://i.imgur.com/5j1qaiT.png
  lat: 40.203721
  level: '?'
  lon: -88.39221
  name:  'dd9c9d84f4934d84a0769ff14c381db2.16'
- ap: 2537
  img: http://i.imgur.com/5j1qaiT.png
  lat: 40.203973
  level: '?'
  lon: -88.393369
  name:  'Mabery Gelvin Botanical Garden'
