- ap: 11346
  img:  'http://lh5.ggpht.com/-UWK84I78Sftf7yg-E2pg6xEAWTvyiThgJBJlxbqOZPYKNmzQ8uGgEEMetzplrG1HpXG5kQqNItUeXKxOHDsGA'
  lat: 40.100286
  level: 8
  lon: -88.251747
  name:  'Tennis Anyone'
- ap: 10031
  img:  'http://lh5.ggpht.com/QruW49d2dc1uhQlK1BaZIeo6ruDNkqQfmvZz83eQ-1aC9ytGUcpFaHnKRTnXRc70F2EZ0-pVKGr9Slo0_9RfxA'
  lat: 40.139749
  level: 5
  lon: -88.273955
  name:  'Northside Church of Christ'
- ap: 9657
  img:  'http://lh3.googleusercontent.com/Nj5Ai888qxXriCQAeWkG8SbHbFuOlsYYCL3FjX-pCkblSOg30VuNF9lK9SQj4UDlg9R8XMYXpAcWyE9xIcA'
  lat: 40.135716
  level: 5
  lon: -88.291946
  name:  'Campus Solar System - Jupiter'
- ap: 9472
  img:  'http://lh5.ggpht.com/C6wRSaEWO1NYGY5luyYZKHG3Z3aib4aflaPdV7B9G6N6adE890g3QuPRSvCUhsdFHqjoVUjo27mfz9WsjXyuhQ'
  lat: 40.100521
  level: 8
  lon: -88.250864
  name:  'Gabriel Patrick Maxeiner Memorial'
- ap: 8909
  img:  'http://lh3.ggpht.com/rUgM7jkTqL0VHxvsSW0yWuNJF5UrU62ITflghfn4PfKjn6L4WGz0ALkv98fc_q9dmK9SSpU1PXIawGvcRwE'
  lat: 40.098246
  level: 8
  lon: -88.251974
  name:  'Hessel Park'
- ap: 8909
  img:  'http://lh6.ggpht.com/yjfa0jJLjsfLRf9Zn9iafMp3MuIhgCi0WiOCF8GqTGiGvzEnsPGrFa0H1n-uzWhVehLbt44ShthsA32VzHd5iQ'
  lat: 40.099737
  level: 7
  lon: -88.251157
  name:  'Tyler Van Atkins Memorial'
- ap: 8720
  img:  'http://lh6.ggpht.com/SCYK-XeMmOyfRrTt1-aQNoDA-2Sib4m5Ch26mTwo6XNdVeVnfi7W74Ik6IRLAPSoKzSS97pgwt50Jl9oSgGfP029USxZzQWKNJo3rbs-6YHBPBif'
  lat: 40.116792
  level: 5
  lon: -88.241752
  name:  'WEFT 90.1 FM Community Radio'
- ap: 7972
  img:  'http://lh4.ggpht.com/MvwoDsxwfyNLHzfGkFJl-4VFeX7OvqB0hsMCrZ2D9Olh8GSghAJDfFfDh7a7cOtMIGwEDMyesZoKvKCXAGj4'
  lat: 40.116553
  level: 5
  lon: -88.242268
  name:  'Esquire Lounge'
- ap: 7972
  img:  'http://lh6.ggpht.com/qSCp5fQMlyCQ-GOAgiSFy5gaHJei705Pa3eOlJiYO5wGjZTYtjA8q7QWWfAWcLKjxZSaFiMfXOPR8SO7rWU'
  lat: 40.099353
  level: 8
  lon: -88.251876
  name:  'Raymond B. Cattell Memorial'
- ap: 7972
  img:  'http://lh3.ggpht.com/lzCSS0_tjwUV7JQ2fgLI0e05IrzPxlVUs-6aEPOwUv67IanQJSTi71gkw0SGm8asmoE_r3Xoh048Fd9xRpE'
  lat: 40.099169
  level: 7
  lon: -88.251419
  name:  'Lyman Larson Memorial'
- ap: 7972
  img:  'http://lh6.ggpht.com/5CDidk0pqfUtSW_Yqouuf3diX8drdMu9DoT728QpSz8q6A-WxNhT0yLcgM_7gGpyIAeXrHiTkIzzaVJFgnN9WA'
  lat: 40.099852
  level: 8
  lon: -88.251947
  name:  'Our Friend Tim Palmer'
- ap: 7596
  img: http://i.imgur.com/5j1qaiT.png
  lat: 40.154669
  level: '?'
  lon: -88.298035
  name:  'New Horizon Methodist Church'
- ap: 7035
  img:  'http://lh4.ggpht.com/vKgqIecJshMQxrhO-ZhMjcIyARuJdyU63wKfzAG0wouZex6LVzO46Qi5zM1N3Jx8xyantDFk9sQGsSEBhb-y'
  lat: 40.101327
  level: 8
  lon: -88.251412
  name:  'Zeus Memorial'
- ap: 7035
  img:  'http://lh4.ggpht.com/B_I1b0Jy3vW41RX8jjCNPP68AULplU0Pf8ddolyKmpEWCfBVShQkmjF1HfTPzDjmBBQGgOs0jHW-rUR0mv8BkA'
  lat: 40.098789
  level: 8
  lon: -88.251685
  name:  'Curtis William McKinney Memorial'
- ap: 7035
  img:  'http://lh3.ggpht.com/G1CvGhpethi5UmprDWxZN9rTblHa3anSsQz1UPgJtkREkfN7lDFoxFObst0609Cg5mofuZxJKr0ddNKhY4VL'
  lat: 40.098464
  level: 7
  lon: -88.251426
  name:  'Ruth Haasis Memorial'
- ap: 6848
  img:  'http://lh6.ggpht.com/S7Utf4_59vQkAP5JhC3mdbzVLKBTt-0zoJ2UjfxUnN10VBbixO-_VwvssWd1LbFSx_yafaijd_U0wTGo870'
  lat: 40.100941
  level: 8
  lon: -88.251314
  name:  'Gabriel Patrick Maxeiner Memorial Plaque'
- ap: 6846
  img:  'http://lh3.ggpht.com/waYCvQnciDHIQoBYQqAoe2ioBs3DAhMQQsBboKyfNVNSWibmmRTf0SLvaoU5EwCFyWydn7rCCfrLXtLqQfA8'
  lat: 40.135683
  level: 3
  lon: -88.27634
  name:  'Champaign Fire Department'
- ap: 6659
  img:  'http://lh5.ggpht.com/pSVHjk6puyYdv3ztHlpJGnbkZyGsGsirMnxkDhlt8UMko4AhtTQbrzwInBCu5lK4Ttf7furE5pNW2AZh8HuSZQ'
  lat: 40.138109
  level: 4
  lon: -88.270158
  name:  'Glory Center International Church'
- ap: 6472
  img:  'http://lh5.ggpht.com/KuDVZqnpBQnne0a_UqpN4wpsQFlw3nVXAWtRKP_AdZ3CjQ0MHUBgU_2hE8hb71h31FTQbduYmB6DNuVKA0s'
  lat: 40.116822
  level: 6
  lon: -88.243445
  name:  'Remembering Horeb'
- ap: 6285
  img:  'http://lh5.ggpht.com/4DJAFPeZ_w65Km7VDnsbOqouQaeBuPuxA0KHPQToT_B6o1hBxzdu3kn89UhHgv22Ygj52Fx9QqcbzOytuw'
  lat: 40.100078
  level: 7
  lon: -88.250683
  name:  'Brian Clark Memorial Plaque'
- ap: 6285
  img:  'http://lh4.ggpht.com/PHV-1ZpFzCAl_ViCKwBY_x2pIDbVyaT7wJH1sTvFJCxrSdRrO1x7NaXq9OdRGwz_Mls4iwk6wuGHMBArfV54'
  lat: 40.098688
  level: 7
  lon: -88.25063
  name:  '"New Holland Yellow Dinosaurs" at Hessel Park'
- ap: 6098
  img:  'http://lh6.ggpht.com/nbUJivBo0zF8f8aBbk1GwakUpPbLUVOoEovTTETYwJvfNIHXwG9XUbwoV0x-ly4ZO5Hsyv5KPo3c9cE6Nh8'
  lat: 40.118832
  level: 4
  lon: -88.243643
  name:  'Tesla Ball'
- ap: 6098
  img:  'http://lh5.ggpht.com/qXsP4-THlaQ8DmIiopsvR0dY2hqwPjIHoy1A1b_CUmqmADgED0FAkXDjkBzS-PY4jNfThICrCaXGja5OH8bWF4ghh7lBwJz0FzKz_zOvaiwHohU_'
  lat: 40.11945
  level: 6
  lon: -88.243175
  name:  '"Stride", Downtown Champaign'
- ap: 6098
  img:  'http://lh4.ggpht.com/4LxsGZZMk3DnpJXUvqzrL54CHSP5TDXjUnDJyHmCCTtCJIjGEI7kxT9g4uxfSPh0X6yGLgQo1jfqbu7B8VEr'
  lat: 40.099084
  level: 8
  lon: -88.251826
  name:  'Irina P. Stewart Memorial Plaque'
- ap: 6096
  img:  'http://lh5.ggpht.com/BUGNnLReyCBJJj9_zpqgwv5_CAyiW8fWBpyVs0ip1hT5NEE6YKCYzlc8ahldKzk_xv-4uckNJNb6NrJd6r33qg'
  lat: 40.116989
  level: 6
  lon: -88.242255
  name:  'Blind Pig'
- ap: 5909
  img:  'http://lh6.ggpht.com/wk0l8Qe7j_Ph_LhyPvdNO6g8nwrxpswodrbNuOzLa3K1QNBrIVidi9iztmDXu3HtCWo5TpqDDjPsEbSl2aWUKg'
  lat: 40.144554
  level: 4
  lon: -88.248689
  name:  'Town Center Park Champaign Park District'
- ap: 5834
  img:  'http://lh5.ggpht.com/Ubq0MuIsu5MU-I8JiOC7oX_aheDNBNsG-UlSMPqA5BRkHJX9BDDUPWGQxXllzVgaxFeo23u3zu_hlJesprpNJg'
  lat: 40.133421
  level: 5
  lon: -88.280893
  name:  'Greenbelt Bikeway'
- ap: 5535
  img:  'http://lh5.ggpht.com/dRrlHXlT2nMNgZNHiYo52ha9L-Xay9DyOJR2Cpqs74hgAJ09abn9OTAtMzRVedt1_R9ObZllLO98vRhNMfgTgVsJCk1S-HJwX_XgiGpG4lz3a328'
  lat: 40.11671
  level: 5
  lon: -88.24263
  name:  'Cafe Kopi'
- ap: 5533
  img:  'http://lh3.googleusercontent.com/4ZghmANMiPJhVcpWuH3M3D6jgFGSDn0QH-VAP5olDzQjucfxwHFo8-1DsCSQhVV-YaTWMvC1pVwqWdnjVs8'
  lat: 40.117215
  level: 5
  lon: -88.245551
  name:  'The Virginia Theater'
- ap: 5161
  img:  'http://lh5.ggpht.com/D9O580D9hlBOqeMvt2V4nL-eHP62h4vG4YFgk-WTw7GunusU9AOffFuHZ9XYWoB8YrGxpCMu2Y77-LCAgcdT'
  lat: 40.119328
  level: 5
  lon: -88.243755
  name:  'Birthplace of Champaign / Beautiful Beardsley Hotel'
- ap: 5161
  img:  'http://lh5.ggpht.com/J6mcCWpzY1HtqSgO5x_y5aVz-YFsC8M7QP6HkXPiD48zj2LwljZvVXDN2m_K8oMn6mei5g6B8PphiUGrXGDG6g'
  lat: 40.119305
  level: 5
  lon: -88.244122
  name:  'Women''s Town Club Building'
- ap: 5161
  img:  'http://lh3.ggpht.com/8FqlniFErK7cq59awiT84u8KyV4FIRd5krZzfYa58zJToFps7whdBnriPqvO_kFKeLUE3SWbJhCOPuvUQzaGFA'
  lat: 40.100691
  level: 7
  lon: -88.251337
  name:  'In Loving Memory of Zeus'
- ap: 4785
  img:  'http://lh6.ggpht.com/y9bxecO9Wm4VrE6p2LRWA8XIIUlHlYWbTSZJ6GrJrTpeVtxB7wI7cWjdLkM6gjq_eOk7n-nJOlSJ9WzGjgfG'
  lat: 40.137123
  level: 5
  lon: -88.277784
  name:  'US Post Office'
- ap: 4785
  img:  'http://lh3.googleusercontent.com/abyzHmsDcu4wr2nZ5KrzfryQDjq08lgz16ggCtHboK-pAhp8lhjyJoStUFTg-XDe4SPzYjAxvNLQuix4tsgc'
  lat: 40.132193
  level: 5
  lon: -88.279832
  name:  'Tribute to Olympic Athletes'
- ap: 4785
  img:  'http://lh4.ggpht.com/vKkSwERLa3zQO2UUIiYl1AEruAx1QTPcP4jSmPt89PG4AviJ1WhlVVH8qmqJ0aY2gqJmHcqdZFcM2pQconc'
  lat: 40.139375
  level: 3
  lon: -88.272793
  name:  'Salt And Light Ministries'
- ap: 4785
  img:  'http://lh4.ggpht.com/H1kV6JSczzSbcCblAHg5ZOgITW1mBAz0_oLbqbzxBlijGTBn7TP6KwA6UI0AAGrCN4VF0DAF79Vcj6_2R4dsB8LRTq6tud6v'
  lat: 40.107753
  level: 6
  lon: -88.228913
  name:  'Zipcar-Wright Street & Daniel Street'
- ap: 4523
  img:  'http://lh5.ggpht.com/M86zCVcXjmwIC0SQgJ3q_heSiWsj4BJoAcO4SpBWLGzt7XQ3kJMk_1GdLAM_SOt_OkZnGrAEV9_g2KSQCguZ'
  lat: 40.133808
  level: 5
  lon: -88.284367
  name:  'Dodds Park Softball Complex'
- ap: 4598
  img:  'http://lh3.googleusercontent.com/hJZWoErzM-MuXulq4FlhlZwMbJX1Isd81GBUBVKayd57jVIVxUle3itd-1DRKo2VaNXznWr1X639fa44Etk'
  lat: 40.141919
  level: 5
  lon: -88.244611
  name:  'Marketplace Mall Carousel'
- ap: 4598
  img:  'http://lh3.googleusercontent.com/5FkLhIMVmAJJSslAXVxY1RNxi-4q5mNAVPK2XgU5LwRM8qcB8BGXOK0GmF6Y_xfgPOhwF_CrbcgVZlJx-Pza'
  lat: 40.11652
  level: 5
  lon: -88.241845
  name:  'Mike ''N Molly''s'
- ap: 4411
  img:  'http://lh3.ggpht.com/07XrBN-er6Ecleor0n9RJ4DfGO6B2yn-ZxjI-Uy8Ba46Jtb6cXNVmATPiPiGyk-1jZ4wxa7-EeIWbWUqArCG'
  lat: 40.142554
  level: 5
  lon: -88.243468
  name:  'Dog Heart'
- ap: 4411
  img:  'http://lh6.ggpht.com/2lDM_Uj6QcUJmWkmPhNWg-vfkJbBQAo6zb7eXC5qDTaJ5xAsoU7jPPqYmLo7zztC2Za1oH3QVrHQ78-XabqR'
  lat: 40.116398
  level: 6
  lon: -88.242485
  name:  'Champaign Servicemen and Women Memorial'
- ap: 4411
  img:  'http://lh3.googleusercontent.com/vMuPZQrBjsuqibkb-FCbuVrZzyuUSOhjlXxxxRc9hq0Y7prkP-Fpk1Hh6o5Eq8BhT6s7GRP5S5z2KFUL7hJY'
  lat: 40.113606
  level: 6
  lon: -88.243766
  name:  'Mural on South Neil St.'
- ap: 4411
  img:  'http://lh6.ggpht.com/XsUl74M1oxj6ptAvGEBOMH2wivRhxBNns62UJSGcPiQkuJIgPrmUYxMpSZZUfXRMMjrwoxlFK_DbAM78UrOh'
  lat: 40.113499
  level: 6
  lon: -88.244374
  name:  'Shatterglass Studios Mural'
- ap: 4411
  img:  'http://lh5.ggpht.com/HhVreJipNvxPRVFpmsh2BPo9PcpPO2Q2l3jCpDjIKgfKGycoTNPXR4DKiYccBXW4X-4dJf_vV0ESsWAWHcChsg'
  lat: 40.100936
  level: 8
  lon: -88.250855
  name:  'Donald F. Bresnan Memorial'
- ap: 4411
  img:  'http://lh3.ggpht.com/VrbXGwlUosNLEkVdshWUFoVa3KtlJQoEU4yLYygvftYbPCmxo644Uvar_v8Kb9RS53hB0tXgvV44GotrxZyu'
  lat: 40.098592
  level: 8
  lon: -88.251676
  name:  'Ruth and Fred Steigmann Plaque'
- ap: 4411
  img:  'http://lh5.ggpht.com/tfAfnmo6mSMc6U0P533NMFJRGwn6lasmx-MLR2JJg1QOizMKkghFU8E7hb2zgYgdQEbgnCJUlvZIMdrrJe4'
  lat: 40.100822
  level: 8
  lon: -88.25193
  name:  'Seeds of Kindness Bench'
- ap: 4411
  img:  'http://lh5.ggpht.com/ENeQgqydWbi9-Oyf7vizunoRqJdsZV4o0RA_956wjGI8hqpTCHBPyWMpbTrrkwYpj5tgzDRvevGmvH4eFRU'
  lat: 40.099593
  level: 8
  lon: -88.251724
  name:  'Blessings from Devon Elaine Cattell'
- ap: 4411
  img:  'http://lh6.ggpht.com/rDThTbD9GU2Wvv8ZnUbLlUM5N0lb2OAYi3qDkxwfYALO2O0t_O9u19aQ4EQbxGlRScGdQ94AjAeqlc2WpNGZ'
  lat: 40.107379
  level: 5
  lon: -88.228355
  name:  'Carolyn Smith Ainsworth Memorial'
- ap: 3848
  img:  'http://lh5.ggpht.com/ZfmaOk3UM4PNzP-z0AvBPFqYLc6wAEDSPhL1cSVjXMAFSv4Jadm-hV--eP3OaJuaksphYKN5s6bhWhluTGs'
  lat: 40.133327
  level: 6
  lon: -88.280335
  name:  'Prairie Grid'
- ap: 3661
  img:  'http://lh4.ggpht.com/yi9OPnLGsLTvtOMNuOUfed6edO9tB6h0QmSHJaKKaiMyEXC8Aj2hz9hIvgh8C2DY76mVgNHw4S0gsYpkPpkt'
  lat: 40.148692
  level: 4
  lon: -88.248724
  name:  'Fountain Town Center'
- ap: 3661
  img: http://i.imgur.com/5j1qaiT.png
  lat: 40.105244
  level: '?'
  lon: -88.56115
  name:  'Lodge Church of God'
- ap: 3661
  img: http://i.imgur.com/5j1qaiT.png
  lat: 40.33848
  level: '?'
  lon: -88.738199
  name:  'b879de09c13c498181c4cf49aff2cfcc.16'
- ap: 3661
  img:  'http://lh6.ggpht.com/duOeXcOSQLWosdD0JJXg3pWWQp4t5sL0x9qDHoTIBFNOzEW0t53Lt2cnwgV2E_Su0l1ajIQxPtVbbK_sDRaS'
  lat: 40.141775
  level: 5
  lon: -88.242671
  name:  'Marketplace Mall Fountain'
- ap: 3661
  img:  'http://lh5.ggpht.com/Lup2et0i5h8oHqtBffIdoyX5uclC2MBn9ZnnKnYPr4RIFSflf9bi78zBHK7QqycA0qgEev9qOk0zU-1o1hg'
  lat: 40.108451
  level: 6
  lon: -88.228733
  name:  'The Centennial Colophon'
- ap: 3474
  img:  'http://lh4.ggpht.com/XmQtS5vWS277-auG5r5x80jUieF2311Xfv6rWkYqVBZ3wz2cqxRtgabyzOhXn0fCpSpDD6Y_CFd9Rzti4eqj'
  lat: 40.148874
  level: 4
  lon: -88.268577
  name:  'Newt Dodds Tennis Center'
- ap: 3474
  img: http://i.imgur.com/5j1qaiT.png
  lat: 40.062819
  level: '?'
  lon: -88.561938
  name:  'd657c8f34fd34783b10ddc9e57b7cf39.16'
- ap: 3474
  img:  'http://lh4.ggpht.com/ZevI283-hdNmxCDG58ggAccDFE_BgYgPK-Hwc6pMCOMdhClXrMtmBtTONxbI0Y_iV-SVdkgRT28tdz-T-6Vt'
  lat: 40.146982
  level: 5
  lon: -88.28914
  name:  'Champaign Kingdom Hall of Jehovah''s Witnesses'
- ap: 3474
  img:  'http://lh6.ggpht.com/WA_L9RXB_ZwCyxpgQ7Lyjp1-4xTl5O-BQohOBQcoEMnP7-wKp--MGUdnY_DPuCGZ78-x0LtEWc8FT2n9QMPS'
  lat: 40.148879
  level: 5
  lon: -88.258423
  name:  'War Veteran Memorial'
- ap: 3474
  img:  'http://lh3.googleusercontent.com/GDPeCcTdJQAFt7LgbquPo-YOAp7bq5HCFbElMBeXztI4hraTGO-j1GcNOwKaaSRRLcEHG13Gu-VDboEG4a7-'
  lat: 40.149097
  level: 5
  lon: -88.276148
  name:  'Illinois Heartland Library System'
- ap: 3474
  img:  'http://lh4.ggpht.com/h3t9nwbrudSHJ4Ll-zBceLi_U0iwpgbsVd8Wjzy_JgqMiXIqIu4CILUiFnKdayIi0htMXQ5CNowcXO7XUqI'
  lat: 40.13401
  level: 6
  lon: -88.28239
  name:  'Eddie Albert Gardens'
- ap: 3474
  img:  'http://lh5.ggpht.com/tuo_ByFTbwLitFP5cBseOibqRxENxbCwOJ30dCnja5ijBI_qBv5vqNP7ZuZXnxhYM6ms_GbExZEwwKVUtwV2'
  lat: 40.093712
  level: 5
  lon: -88.281583
  name:  'Brownfield Dedication'
- ap: 3474
  img:  'http://lh6.ggpht.com/p2F3xw4xL4UdiMM9aSy628ISSglrvjPexpF3j340tMAP9MX07yh_sJv7kHVkeud8lyFf2ZwDohw3zsRS2PSd'
  lat: 40.093914
  level: 5
  lon: -88.281531
  name:  'Terry M. Warmbier Memorial'
- ap: 3474
  img:  'http://lh6.ggpht.com/Jz3ahY5LQ13wKWLY9SEvexiinJa3GeO1eB_FynplikRpa77swLST6cUAJjPpqKDSq2KU4Dcyui-QBstz_Z3k'
  lat: 40.094624
  level: 6
  lon: -88.282953
  name:  'Greenbelt 2'
- ap: 3474
  img:  'http://lh5.ggpht.com/nWEtxuKQdy0teBBue1DYmG7P3SF5-3A6zlB7GwVHBWlolAZYGq6Br78lWcF9ltFy-KeSlozXie2RmU6JfCUX'
  lat: 40.142673
  level: 5
  lon: -88.244603
  name:  'Italian Statue'
- ap: 3474
  img:  'http://lh6.ggpht.com/mKnh6CvhOm_8Kn26lJTmk71nbwSMS-i9VJ45CR83Z8wB6Qn-9JAiyt1GEfrWKkv51a_y-lbN8pO6R1L5EZWfzw'
  lat: 40.117349
  level: 5
  lon: -88.244537
  name:  'Flower Island'
- ap: 3474
  img:  'http://lh4.ggpht.com/ryDcZUJK2aQ_fI0-hY850_t4ZmG2hNmtCx7cxbX83w3cnUWdI-ywpTuQrUVQNxGl3_DcxxNr6bupfDTsagRa'
  lat: 40.117107
  level: 6
  lon: -88.242467
  name:  'Radio Maria'
- ap: 3474
  img:  'http://lh3.googleusercontent.com/ZyXHLNlediISMVLqM9sUeZ0FEft3El4ni5P7GPOy5UF2YYBkTywnN5g1lkaer_lDNSvBUvg7bQ5yA_4Wd9qRWg'
  lat: 40.113521
  level: 6
  lon: -88.244122
  name:  'Artistic Graffiti at MCS'
- ap: 3474
  img:  'http://lh5.ggpht.com/Jp7IxKww4URJW7CuBmWK-wgnCfMK0iUJrKL_UoRhWCyoVY0_cHasH1WH_nYzDpInelHY0uL_3K-u3czrBCY'
  lat: 40.11949
  level: 6
  lon: -88.242871
  name:  'Orpheum Children''s Science Museum'
- ap: 3474
  img:  'http://lh3.ggpht.com/LunaMtSKD9yiLQClolDY-Iqh0ENm9AgJdL4D1QxGs0j6TXPgqxDZea35x5ilAfeI5_0TGh5x1q1EqRsJsLFi'
  lat: 40.114111
  level: 5
  lon: -88.243697
  name:  'Champaign Surplus'
- ap: 3474
  img:  'http://lh5.ggpht.com/uP38yDCg4dPRI1F0r0ALGArEc8Q9eoRuaxkfxZTafZZr9tMcbLUZek1hZRbLUxHJVGPcLSf_JKbotbTBeR7nfA'
  lat: 40.107226
  level: 5
  lon: -88.22858
  name:  'Class of 1897 Tree'
- ap: 3472
  img:  'http://lh5.ggpht.com/orl0d4FNIpZ7xsdZmVyH_732dMd4uGM01fQ-P5V82KufzWBOMbpankzTgjeS3frZhS7apS3qCrS2o4jtw7pAkg'
  lat: 40.105605
  level: 5
  lon: -88.227414
  name:  'Charlene E. Haight Bench'
- ap: 3472
  img:  'http://lh3.googleusercontent.com/v44Gf5oEZGcwkQcA2wWz-uAeDFESHj7sEloxdCJd316RPH3w_ln8_9mBEMbAqGyI_2Y2qaYp525PnRip9Rg'
  lat: 40.105315
  level: 4
  lon: -88.226125
  name:  'U of I Observatory'
- ap: 2911
  img:  'http://lh3.ggpht.com/oHMQr2Z5LayQFbZOwOZK4ZbYQ1OVxs85-qNTvSj8epsP72vQiOdrzVmkuMPFQtCSf9Rr0oqcnSLFjLn-sPw'
  lat: 40.116592
  level: 3
  lon: -88.243236
  name:  'Champaign City Bldg. Landmark Plaque'
- ap: 2724
  img: http://i.imgur.com/5j1qaiT.png
  lat: 40.408514
  level: '?'
  lon: -88.721529
  name:  '3085937c8e3c4d0b9674400344d2c6a1.16'
- ap: 2724
  img: http://i.imgur.com/5j1qaiT.png
  lat: 40.312242
  level: '?'
  lon: -88.201368
  name:  '2012 Employee Dedication Bench'
- ap: 2724
  img:  'http://lh4.ggpht.com/bzGBa_8g8we9vEYlZ-a10Ugz_B36DNFCNFsnUmAPy3Aji53kcVj0FaVE28zxnedZgY5Ozi94A8obmXuFQ1vL'
  lat: 40.132632
  level: 5
  lon: -88.279968
  name:  'Vernon W Fitch Memorial'
- ap: 2724
  img:  'http://lh3.ggpht.com/tXuCgd1tvCtlonW_e1jLC_5DH6g4Qh6zIUKhJeoBZuLvyB0ql69PlymRU3Ywf5lq_8PFYNylEKOiC_qJnnzJpg'
  lat: 40.138006
  level: 1
  lon: -88.272375
  name:  'Jericho Missionary Baptist Church'
- ap: 2724
  img:  'http://lh5.ggpht.com/ulBje3DZHcOGkPDTXihNL1tamRAm_GO1CREW8fA5fV0Znq1eF2J1hnbSZh35emEA1h9cL1qTj9FqGtb8VywgXQ'
  lat: 40.13765
  level: 1
  lon: -88.273074
  name:  'Garden Hills Park'
- ap: 2724
  img:  'http://lh4.ggpht.com/wbrbzDCo3C4qFJyHTWOST5o8B7kwZSWePUWOboIlYrdvxjrhWLqVQ1MqUF5-Hy4nt26x_oHQq9f8EbfdEjVK'
  lat: 40.117382
  level: 5
  lon: -88.243748
  name:  'Days of Venus'
- ap: 2724
  img:  'http://lh3.ggpht.com/-MRGQEVV5mNMzB4sb8JAsgVC56kTzYaFEf3mpRsfXAiO4KIrLw3LGFkt7Au97yDwY-AUSfghHcri53Zpmn-Z4Q'
  lat: 40.11621
  level: 5
  lon: -88.242535
  name:  'Inman Building Historic Plaque'
- ap: 2724
  img:  'http://lh3.googleusercontent.com/SjusdEZ1n6AkcvHdrM3TfGAqP_W5LJRmm4qEdm5xmdvHcBejD6Jg0kXCZaHyUk5WGeE8Zu0RrSSq_1VDXFU'
  lat: 40.117419
  level: 3
  lon: -88.240991
  name:  'Old News Gazette Offices'
- ap: 2724
  img:  'http://lh4.ggpht.com/nWSZEVnpEj78GBs58tujBturUcAqKjsgYU_9v_qXRS_K_ROKLNgBwnqKopJse169VJqqWtn6oo3h_qABlaw'
  lat: 40.117571
  level: 4
  lon: -88.240851
  name:  'The Accord'
- ap: 2724
  img:  'http://lh3.ggpht.com/MhImfPRi7WC74Qg-w4TCrNnC1hTih4TLCipNyUswQRp6HDkM5XS2cJqL0vrBH5sb7VdgzafkvLVAVEk3R-W6'
  lat: 40.105511
  level: 5
  lon: -88.227195
  name:  'Bruce Perona Memorial Plaque'
- ap: 2724
  img:  'http://lh6.ggpht.com/T15jgBwdGgKfY5ZEkmL6_eEeGWALRclzodBAIpqOXMAO4sP9g1Mt8CwDQCh5tDr_sZan-95c8YRI6F-W63_-'
  lat: 40.105692
  level: 5
  lon: -88.227097
  name:  'A Son of Deucalion'
- ap: 2537
  img: http://i.imgur.com/5j1qaiT.png
  lat: 40.247118
  level: '?'
  lon: -88.631854
  name:  'Woodlawn Country Club'
- ap: 2537
  img: http://i.imgur.com/5j1qaiT.png
  lat: 40.275273
  level: '?'
  lon: -88.353476
  name:  '28272aaee3234a039246a4282f96c916.16'
- ap: 2537
  img: http://i.imgur.com/5j1qaiT.png
  lat: 42.588123
  level: '?'
  lon: -87.807579
  name:  'c106cbaedc2348069ff32d60674e1d91.16'
- ap: 2537
  img: http://i.imgur.com/5j1qaiT.png
  lat: 41.9686
  level: '?'
  lon: -87.630978
  name:  '47ea0a512aca4efc981ddb89e220e8b4.16'
- ap: 2537
  img: http://i.imgur.com/5j1qaiT.png
  lat: 40.31059
  level: '?'
  lon: -88.346384
  name:  'AMVETS Post 52'
- ap: 2537
  img: http://i.imgur.com/5j1qaiT.png
  lat: 40.149231
  level: '?'
  lon: -88.472334
  name:  '7c86d5abdb2a4bd9a7f87774b070966d.16'
- ap: 2537
  img: http://i.imgur.com/5j1qaiT.png
  lat: 40.39473
  level: '?'
  lon: -88.872321
  name:  'c89035b00e8f49cd9942782aefaa86de.16'
- ap: 2537
  img: http://i.imgur.com/5j1qaiT.png
  lat: 40.96185
  level: '?'
  lon: -88.743854
  name:  '99e325e8280245e38a793d70920eeb13.16'
- ap: 2537
  img:  'http://lh4.ggpht.com/ykcBOYTGpoR392b8KhoJ1HeCMQKdls6__qGzmBtOaVho1L5T2KYhV8130wLVGDT_Hr-dhJX4tl1qSQdDtLZj'
  lat: 40.085955
  level: 3
  lon: -88.332754
  name:  'Robert C. Porter Family Park'
- ap: 2537
  img:  'http://lh5.ggpht.com/OjHvATZsWSqcIG4MCHe5lUc8sE12iGmAJiQ_pp4ttXXy6QR3QTJ9OiFqGfdFxEbY6WMTgh_Vl2WcqFK0ptEn'
  lat: 40.086227
  level: 5
  lon: -88.332388
  name:  'Spiral the Gate'
- ap: 2537
  img:  'http://lh6.ggpht.com/JgD9-vk2pVIQENqssLAn_4Smd4aFydCLSHsQWVF4D4gn8xxgO5PTgDfjr0DKtVdau2_ZQc7RR-gYrOaMwStSRg'
  lat: 40.143345
  level: 4
  lon: -88.256693
  name:  'Captain Morgan Statue'
- ap: 2537
  img:  'http://lh6.ggpht.com/ZQaguxPyiC-6DeFDFa2niVKJz3ySxwxYaFCv8PRdNuoMYUfP-Xtirg-8pXCTdBCyH1BruprOVmqf3D1kdp7o'
  lat: 40.115225
  level: 5
  lon: -88.248866
  name:  'Holy Cross Catholic Church'
- ap: 2537
  img:  'http://lh3.ggpht.com/hBux3yLZOMWBK1dtc47OrhISfV3SPojGgtZOxqqf7-yoc82f280WMG1r2mi43iZQsqfwzmN53VJHHHEFVs0'
  lat: 40.116458
  level: 4
  lon: -88.247065
  name:  'West Side Park Entrance'
- ap: 2537
  img:  'http://lh4.ggpht.com/IAi2A1ukQunZaoCY1OUJnvZC_MAEjnYzlg7vcsIuPQyLIB710_5ueVQ3El8Pok0aNvlB18-Tdo1euhYbaf0'
  lat: 40.115224
  level: 5
  lon: -88.24957
  name:  'Linda M. Wesolowski Memorial Sign'
- ap: 2537
  img:  'http://lh4.ggpht.com/4rZUtsKLzttseF-bliT_X7wEGP_joarKKLt8DNtp99fViYcqD4TAWTfZ_Ur6oEdBJdT-1JeZl4tnk_sTtgN0'
  lat: 40.116361
  level: 5
  lon: -88.247369
  name:  'Gerry Schriefer Plaque'
- ap: 2537
  img:  'http://lh4.ggpht.com/-MJc8fCVxpxV7prlhkP3sXPWZ7jsr8Behc29zUJqdz_V57jSg7SzyMUUv7B9Frzu36mJhM2PQkr_LJk-zyM'
  lat: 40.117729
  level: 5
  lon: -88.243645
  name:  'Watson''s'
- ap: 2537
  img:  'http://lh5.ggpht.com/XQVr2AUWddJQMpYbapEIpcTLBeBvcpgmW016VjkAOXrp8_P2VsMxQY8FVhtDhA73iTCXCPiydjFIJcbcSa8_'
  lat: 40.116206
  level: 5
  lon: -88.24306
  name:  'Indigo Art Gallery'
- ap: 2537
  img:  'http://lh4.ggpht.com/1viU2QjcAXgQcuyp6MBKY1751-1JGn5AfSHPcgvBGNOyXrKvvAXsCUrrW9_0w9LjaeyscKqh8v2rrMp3Gxoaeg'
  lat: 40.117134
  level: 5
  lon: -88.244337
  name:  'Downtown Flower Island'
- ap: 2537
  img:  'http://lh3.googleusercontent.com/tWUxy7KQ-q_qBBIgLzTjjezrBpWPSJ_z3FWnvbB8Y5wIiYZW1I5ioL0Tzq60VyalCaIwOk4UI3agM8tFaykY'
  lat: 40.117427
  level: 5
  lon: -88.243235
  name:  'Cowboy Monkey'
- ap: 2537
  img:  'http://lh6.ggpht.com/eeOtj4-6PU8Dt6QXk_TJjgkoEGRW9L8YzUqZE8QV5ZMCHnqA5CzoQoxKpnjCvXwaIflUUvPJmO_S7BdvMhcuzw'
  lat: 40.117588
  level: 1
  lon: -88.241787
  name:  'Adam & Eve Mourning Over the Soul of Abel'
- ap: 2537
  img:  'http://lh5.ggpht.com/yK94cjys6dDm62pDsBwEKJP8ioxZEFbb2oelmT5ZMmaNZPkqAXW00NHP3_7fvtyG796u2ZhKGfbY7To9Sdtz'
  lat: 40.088063
  level: 6
  lon: -88.248271
  name:  'Still Waters'
- ap: 2162
  img:  'http://lh5.ggpht.com/qq3QmeyCYxWnJF_DzzI5wVvHF4foNyr_bF3_j5eVPHJ1omSbD2INOifPJEO3pjz4X1l4_wMGD4uOT1_w6Tid'
  lat: 40.086713
  level: 2
  lon: -88.248293
  name:  'Garden Patio'
- ap: 2537
  img:  'http://lh6.ggpht.com/BANSBFfuZ3_0ya-JodV7jEB1a-DwSOyegBwPKAODSUFHLmvI7b8zwSiLUAvvqIAYjpU6S_Lm8XRBJ30KDGCIEg'
  lat: 40.116917
  level: 4
  lon: -88.24078
  name:  'North Star Sculpture'
- ap: 2537
  img:  'http://lh5.ggpht.com/1fPvqpqXG5PDCkmegoWb9Tv9N5_MZh9XjmZpbyNEs5yPDsCscbrPB1cO_Pf8GT35HYrTF01FZ6s5VPIpjJ_20A'
  lat: 40.107098
  level: 6
  lon: -88.228984
  name:  'Saint Andrew''s Church'
- ap: 2537
  img:  'http://lh6.ggpht.com/WtqWBwqpYTSw3g9ru5NwcFn5iK5STxWgy2kv4OUTWqwtzx76-9Msz0eqoiw0qpEYE1U4zdt9rzzNZMDNagNg'
  lat: 40.107943
  level: 6
  lon: -88.226751
  name:  'Class Of 1917 Plaque'
- ap: 2537
  img:  'http://lh5.ggpht.com/jQxBvX2jWXZCQP5ap9HmKaDDgG40pdH5nPpBNcYppZdxce6GWdxMRTYyqKrLxnk_TsmMAd7G6gRwJ6YI7S-v'
  lat: 40.107574
  level: 5
  lon: -88.227843
  name:  'Iconic Pillars'
- ap: 2537
  img:  'http://lh6.ggpht.com/5hQmgOy7ipMn0NeXRdn7vEER__CJ3-TCDol2Xwo2091XbwqjSdk6xNz3qhVQqpMUJz39XRJuMj8zTrh_2B3z_A'
  lat: 40.10496
  level: 4
  lon: -88.225639
  name:  'Walk of Life 2007'
- ap: 2537
  img:  'http://lh6.ggpht.com/d3068_HH4kAsh9kxo297VuXrwXdEYfoWcAyI4E1L1NUJ_ejlCSm3X3-ofVYUFWr_F6qyLbalwQ6Fj_SqGEFM'
  lat: 40.104256
  level: 4
  lon: -88.226519
  name:  'The Morrow Plots'
- ap: 2537
  img:  'http://lh4.ggpht.com/fYq8Qzd7VmDjN_GIWRjblwSGoKKIaUFJTgmMNsJrfWO6c5cZu8xnJc4kDm35ITLO2ePeYakXEDKubdwi0x1K'
  lat: 40.105179
  level: 4
  lon: -88.226931
  name:  'Astronomy Department Sundial'
- ap: 2537
  img:  'http://lh4.ggpht.com/Zom5xkViTBf5wGkPFjYta7PfPZDicQD2VL2bQItgdzMxvQ1x7zqM3Zgynd7a6XBMT6qMAMKagxWMdpMlPcveaw'
  lat: 40.105849
  level: 5
  lon: -88.227679
  name:  'Lincoln Scholarship Plaque'
- ap: 2537
  img:  'http://lh4.ggpht.com/p1kbhH-3K08NNqTt_6-223uI0PurGUV2HeAWGYPRx3OnNYMY-kARoW1zZ2pZBHthAYRZbIgf6ioRawHi0BmUx786y5ffm0kmZsskaOiluDUhSIiI'
  lat: 40.106173
  level: 4
  lon: -88.22719
  name:  'Foellinger Auditorium'
- ap: 2537
  img:  'http://lh4.ggpht.com/OKjZe5DNbqsjBvhTWI2C_GTSbIMUanllb49pzoadj3izBmngp5kFNgLokw6jbL1Y3BnreLD-LmzLdNEx-eRI'
  lat: 40.105694
  level: 4
  lon: -88.225345
  name:  '1981 Iota Chapter White Anchor'
- ap: 2537
  img:  'http://lh4.ggpht.com/N-xxTzGXK34K-VdTOWaWrFJeP9_SLZ7ZBluxK2mjP51yZx_5HOMi_mb4Nu2rWgo3gOqUb19_cPb662sI7td_'
  lat: 40.105687
  level: 4
  lon: -88.225714
  name:  'Smith Memorial Hall'
- ap: 2537
  img:  'http://lh3.ggpht.com/mRCpYiTnH0rrWGXaOj5qrhYjnvlhpQ8iY4UG3vy_gu2HW2GChgp0aXQ0Uih6XRZcUOJVyzyPggWicFdh7sHrfA'
  lat: 40.106179
  level: 5
  lon: -88.227593
  name:  'Charles P. Wolff Memorial and Tree'
- ap: 2537
  img:  'http://lh6.ggpht.com/yE7aPklOUj6Y4vlNLUrqm7uJbj0TAVjhl_vSEgy7CHGlkTo5yyJGeTCUnRsHYe2UAZq2h_Y3AD_m3y3i2B8'
  lat: 40.106876
  level: 5
  lon: -88.228565
  name:  'Lincoln Hall Sigil'
- ap: 2537
  img:  'http://lh3.googleusercontent.com/zmBaxEMhC7WvQDOei5LjXnSrM2p368YlSMZPtCtSY0t6bGsHjg5Bc91PGGsJ0oGn_hifKeBSMB_3BKH3hbwP'
  lat: 40.105567
  level: 5
  lon: -88.227662
  name:  'Freedom of the Press Plaque'
- ap: 2537
  img:  'http://lh5.ggpht.com/d1PrlCV_34E6p3knWKIG9iinFOOtMcApC_VC0BAtd_9RxZUgAzjzEmpDg3EQUC-i4MxVNvfPQIoZqYdwC48_'
  lat: 40.112278
  level: 5
  lon: -88.206724
  name:  'Urbana''s Lincoln'
- ap: 2537
  img:  'http://lh3.ggpht.com/R0zPYMelKt6ABg3zkWyG1YtEMZm-4wbpveEmzXpn4vtolg3zStvSDscmdgZ4t1YW7vbSTYCBMS74-Tmq-XPU'
  lat: 40.112166
  level: 5
  lon: -88.20625
  name:  'Abraham Lincoln - Eighth Judic'
- ap: 2537
  img:  'http://lh4.ggpht.com/qRXj_26gyasJAkfT6wSZkP0QYn8-yZkHAYRVxmC-hjk-7pn88goOR99xRnB4SfG-Gq8xh-qbVgQwYmJeT2PrTA'
  lat: 40.103186
  level: 5
  lon: -88.220991
  name:  '"Prairie Fire" Sculpture'
- ap: 2537
  img:  'http://lh4.ggpht.com/j8joGoDXiT8G5MyyFw23RcsYV5nW1rGWTXw-1LPdy1zgRVuKUlM2poC1GcTVA3NV1F_20cCRgX4G6jx_HYc'
  lat: 40.103488
  level: 5
  lon: -88.22119
  name:  'Red Oak Rain Garden'
