- ap: 14720
  img:  'http://lh4.ggpht.com/vKgqIecJshMQxrhO-ZhMjcIyARuJdyU63wKfzAG0wouZex6LVzO46Qi5zM1N3Jx8xyantDFk9sQGsSEBhb-y'
  lat: 40.101327
  level: 8
  lon: -88.251412
  name:  'Zeus Memorial'
- ap: 12283
  img:  'http://lh6.ggpht.com/5CDidk0pqfUtSW_Yqouuf3diX8drdMu9DoT728QpSz8q6A-WxNhT0yLcgM_7gGpyIAeXrHiTkIzzaVJFgnN9WA'
  lat: 40.099852
  level: 8
  lon: -88.251947
  name:  'Our Friend Tim Palmer'
- ap: 11346
  img:  'http://lh6.ggpht.com/yjfa0jJLjsfLRf9Zn9iafMp3MuIhgCi0WiOCF8GqTGiGvzEnsPGrFa0H1n-uzWhVehLbt44ShthsA32VzHd5iQ'
  lat: 40.099737
  level: 8
  lon: -88.251157
  name:  'Tyler Van Atkins Memorial'
- ap: 9096
  img:  'http://lh5.ggpht.com/4DJAFPeZ_w65Km7VDnsbOqouQaeBuPuxA0KHPQToT_B6o1hBxzdu3kn89UhHgv22Ygj52Fx9QqcbzOytuw'
  lat: 40.100078
  level: 8
  lon: -88.250683
  name:  'Brian Clark Memorial Plaque'
- ap: 8722
  img:  'http://lh6.ggpht.com/qSCp5fQMlyCQ-GOAgiSFy5gaHJei705Pa3eOlJiYO5wGjZTYtjA8q7QWWfAWcLKjxZSaFiMfXOPR8SO7rWU'
  lat: 40.099353
  level: 8
  lon: -88.251876
  name:  'Raymond B. Cattell Memorial'
- ap: 8159
  img:  'http://lh3.ggpht.com/rUgM7jkTqL0VHxvsSW0yWuNJF5UrU62ITflghfn4PfKjn6L4WGz0ALkv98fc_q9dmK9SSpU1PXIawGvcRwE'
  lat: 40.098246
  level: 8
  lon: -88.251974
  name:  'Hessel Park'
- ap: 7972
  img:  'http://lh4.ggpht.com/B_I1b0Jy3vW41RX8jjCNPP68AULplU0Pf8ddolyKmpEWCfBVShQkmjF1HfTPzDjmBBQGgOs0jHW-rUR0mv8BkA'
  lat: 40.098789
  level: 8
  lon: -88.251685
  name:  'Curtis William McKinney Memorial'
- ap: 7220
  img:  'http://lh6.ggpht.com/RR0i4QdfoY8NkTQtssdOtDLhAEaCR7e-R4ipk5NzdKe9lTGDq2nyKI_7sF2BCXrgCZAZ2zEEtIzS7vg6Pu0hzA'
  lat: 40.126458
  level: 5
  lon: -88.218544
  name:  'The Vineyard Church'
- ap: 7035
  img:  'http://lh4.ggpht.com/4LxsGZZMk3DnpJXUvqzrL54CHSP5TDXjUnDJyHmCCTtCJIjGEI7kxT9g4uxfSPh0X6yGLgQo1jfqbu7B8VEr'
  lat: 40.099084
  level: 8
  lon: -88.251826
  name:  'Irina P. Stewart Memorial Plaque'
- ap: 7035
  img:  'http://lh3.ggpht.com/lzCSS0_tjwUV7JQ2fgLI0e05IrzPxlVUs-6aEPOwUv67IanQJSTi71gkw0SGm8asmoE_r3Xoh048Fd9xRpE'
  lat: 40.099169
  level: 8
  lon: -88.251419
  name:  'Lyman Larson Memorial'
- ap: 6472
  img:  'http://lh5.ggpht.com/tfAfnmo6mSMc6U0P533NMFJRGwn6lasmx-MLR2JJg1QOizMKkghFU8E7hb2zgYgdQEbgnCJUlvZIMdrrJe4'
  lat: 40.100822
  level: 8
  lon: -88.25193
  name:  'Seeds of Kindness Bench'
- ap: 6098
  img:  'http://lh3.ggpht.com/VrbXGwlUosNLEkVdshWUFoVa3KtlJQoEU4yLYygvftYbPCmxo644Uvar_v8Kb9RS53hB0tXgvV44GotrxZyu'
  lat: 40.098592
  level: 8
  lon: -88.251676
  name:  'Ruth and Fred Steigmann Plaque'
- ap: 6098
  img:  'http://lh3.ggpht.com/G1CvGhpethi5UmprDWxZN9rTblHa3anSsQz1UPgJtkREkfN7lDFoxFObst0609Cg5mofuZxJKr0ddNKhY4VL'
  lat: 40.098464
  level: 8
  lon: -88.251426
  name:  'Ruth Haasis Memorial'
- ap: 6098
  img:  'http://lh3.ggpht.com/8FqlniFErK7cq59awiT84u8KyV4FIRd5krZzfYa58zJToFps7whdBnriPqvO_kFKeLUE3SWbJhCOPuvUQzaGFA'
  lat: 40.100691
  level: 8
  lon: -88.251337
  name:  'In Loving Memory of Zeus'
- ap: 5722
  img:  'http://lh3.googleusercontent.com/Y_tt1T3L4hwgfoM9WAoWl_iUdE_djgpah00bBWDeQGlKVgz2R7GQzHL9nVHcL4wQxZKMFt6u_PIdd9sSPz4U'
  lat: 40.12744
  level: 3
  lon: -88.22595
  name:  'Mt Olive Baptist Church'
- ap: 5722
  img:  'http://lh3.ggpht.com/V-oTVbkji_q7V9k0WGhQyDum7PEtruXdbp6e-PzZq3sFNxGWdA79FLEv8uGaZrcSwWE15UhTtBB0ZMW0Ig3j'
  lat: 40.127466
  level: 5
  lon: -88.216274
  name:  'Lincoln Bindery'
- ap: 5535
  img:  'http://lh4.ggpht.com/mlUN5QXAR7rKFvUg7yhxcae3udkR7zCJVaWt5sq_YA47piV6tRi42RNN9fEtT_FafT7lhqg26WM1VETbz5E'
  lat: 40.098239
  level: 7
  lon: -88.25376
  name:  'Hessel Park Christian Reformed Church'
- ap: 5535
  img:  'http://lh5.ggpht.com/BK5TjuMzuJgDVPz4C8HRjfZKeaoISnPJ-H7VaYeMNUYmxvvUY7RzIIlR13FjW9HHF_i5-znqs3O6nMxKPfcj'
  lat: 40.102188
  level: 4
  lon: -88.251507
  name:  'Little Free Library Charter 5753'
- ap: 5348
  img:  'http://lh4.ggpht.com/PHV-1ZpFzCAl_ViCKwBY_x2pIDbVyaT7wJH1sTvFJCxrSdRrO1x7NaXq9OdRGwz_Mls4iwk6wuGHMBArfV54'
  lat: 40.098688
  level: 8
  lon: -88.25063
  name:  '"New Holland Yellow Dinosaurs" at Hessel Park'
- ap: 5348
  img:  'http://lh5.ggpht.com/HhVreJipNvxPRVFpmsh2BPo9PcpPO2Q2l3jCpDjIKgfKGycoTNPXR4DKiYccBXW4X-4dJf_vV0ESsWAWHcChsg'
  lat: 40.100936
  level: 8
  lon: -88.250855
  name:  'Donald F. Bresnan Memorial'
- ap: 5161
  img:  'http://lh5.ggpht.com/ENeQgqydWbi9-Oyf7vizunoRqJdsZV4o0RA_956wjGI8hqpTCHBPyWMpbTrrkwYpj5tgzDRvevGmvH4eFRU'
  lat: 40.099593
  level: 8
  lon: -88.251724
  name:  'Blessings from Devon Elaine Cattell'
- ap: 4972
  img:  'http://lh4.ggpht.com/cXzBVEYwsBuU4BX2Fkwi_8TwqSW6ExF6m7IyyHAOrdCMru_sr74MrtK8iGVa0zj3YFt--pdhmI5xwUIeJw'
  lat: 40.120191
  level: 5
  lon: -88.215485
  name:  'Champaign County Fairgrounds'
- ap: 4972
  img:  'http://lh3.ggpht.com/OtT56RocwPxPgcve6b9P9h4GvUFT5XVlsBBqmCg-K8i6I1c-3RVRip5KtAoqlaUqE2BUkSwl8clISDit9EU'
  lat: 40.119453
  level: 3
  lon: -88.219746
  name:  'Family Video'
- ap: 4411
  img: http://i.imgur.com/5j1qaiT.png
  lat: 39.951576
  level: '?'
  lon: -90.20876
  name:  '2719674f27164480aac1d2c66c7f97f9.16'
- ap: 4411
  img: http://i.imgur.com/5j1qaiT.png
  lat: 40.441099
  level: '?'
  lon: -89.313489
  name:  'fa303e162e1349c7ac2d93cf3df18bf0.16'
- ap: 4411
  img:  'http://lh6.ggpht.com/S7Utf4_59vQkAP5JhC3mdbzVLKBTt-0zoJ2UjfxUnN10VBbixO-_VwvssWd1LbFSx_yafaijd_U0wTGo870'
  lat: 40.100941
  level: 8
  lon: -88.251314
  name:  'Gabriel Patrick Maxeiner Memorial Plaque'
- ap: 4411
  img:  'http://lh5.ggpht.com/C6wRSaEWO1NYGY5luyYZKHG3Z3aib4aflaPdV7B9G6N6adE890g3QuPRSvCUhsdFHqjoVUjo27mfz9WsjXyuhQ'
  lat: 40.100521
  level: 8
  lon: -88.250864
  name:  'Gabriel Patrick Maxeiner Memorial'
- ap: 4411
  img:  'http://lh5.ggpht.com/-UWK84I78Sftf7yg-E2pg6xEAWTvyiThgJBJlxbqOZPYKNmzQ8uGgEEMetzplrG1HpXG5kQqNItUeXKxOHDsGA'
  lat: 40.100286
  level: 8
  lon: -88.251747
  name:  'Tennis Anyone'
- ap: 3848
  img:  'http://lh3.ggpht.com/2wN9MWxEFPbMzRPAzNmaAiCOQJj_EFr94Y1YkQP_wMlyajkajmcw00gqW-EluMvpQmvnGgcQ-WdPxjcYTmr2'
  lat: 40.106519
  level: 4
  lon: -88.223748
  name:  'Thunderbird Theatre Mosaic'
- ap: 3848
  img:  'http://lh3.googleusercontent.com/XQb7KWjSJlhbfrYsW2727_AeRoEQ5BbG0fRTTY5js_4zRdArbiRhCRkXunVa81rQpk9yX4RB6x1dV97DnYN7'
  lat: 40.104722
  level: 5
  lon: -88.223683
  name:  'Louise Freer Hall'
- ap: 3848
  img:  'http://lh5.ggpht.com/3RfiPeOzF67ubNX-vkwUJ6-EYld6BKuoBernq0_9kOjlIsSPr3saR9FIQzN7uiw7ouF0CpNflOnL0mUj9zbqdQ'
  lat: 40.109452
  level: 6
  lon: -88.229031
  name:  'Illini Hall'
- ap: 3661
  img: http://i.imgur.com/5j1qaiT.png
  lat: 40.020795
  level: '?'
  lon: -89.48304
  name:  '471d8afd168d46008e66a79e31045981.12'
- ap: 3661
  img: http://i.imgur.com/5j1qaiT.png
  lat: 42.403068
  level: '?'
  lon: -86.273922
  name:  '897d4532336c48d99509d7a2607982eb.16'
- ap: 3661
  img:  'http://lh3.googleusercontent.com/3Myf6CnmcDIYbRC1TWtiQ0Q34tm-r8kQZQ8GjoGZ4AI5ome7PHiB7E6Maihk_SvkVJF8LPW5RSjo36Bsa7VM'
  lat: 40.12807
  level: 4
  lon: -88.215897
  name:  'Busey Woods Trail Entrance'
- ap: 3661
  img:  'http://lh3.ggpht.com/2bCNiD7SWsS3uzFLMO2cZh-LpHUEMQGnfTmcNx5vJapXho2TuXke630-7zop2Sq4fuY8nWVqy4VCG23mvnIJ'
  lat: 40.104168
  level: 5
  lon: -88.238808
  name:  'Alpha Gamma Rho'
- ap: 3661
  img:  'http://lh3.googleusercontent.com/0sr-qQ4Z1TW1AZ62RFHko9Cbb8g36Renb3nRyxFJr_r68iVMsuh_EwrbThhXg2hVyqNQSjX7rFVvrWpfHS4'
  lat: 40.103958
  level: 5
  lon: -88.240451
  name:  'Bruce D. Nesbit African American Cultural Center'
- ap: 3436
  img:  'http://lh5.ggpht.com/X-Tq3QbQ3JvCApWIGFxRwDJId7aLa8hY_ka0eU3QySTcZBgXcbPC4UXEQ9VVMsA-dYRxGqAdCotw-q7dby8f'
  lat: 40.088412
  level: 3
  lon: -88.251667
  name:  'French L. Fraker Memorial'
- ap: 3661
  img:  'http://lh6.ggpht.com/PrKWQe_StHjP7QQeyxlKiMSxAelIQlmbHzFMejewhMdVT0J-uvMpZCUGvQy_dZfrqfDnkmrIZYWkZORSGrnp'
  lat: 40.088449
  level: 4
  lon: -88.251396
  name:  'Boots''s Garden'
- ap: 3661
  img:  'http://lh5.ggpht.com/kElaGOaV9aI8SrnM1D65gx9J0Ky1AKrN9Yo-pXVmDhELt2pee4MwVRiCqCmlqWzUWj5pS33GnEzAiXmiWKsw'
  lat: 40.108111
  level: 6
  lon: -88.229625
  name:  'Illini Sports Mural'
- ap: 3661
  img:  'http://lh6.ggpht.com/cUV2o6ZPyJSFnHYl7jePeUIS7BrVr1H5D8Zbf7B3B8ALrTq7pTI3e271i1DHztqUGXITpiA399P3vNP83fk0'
  lat: 40.105767
  level: 6
  lon: -88.223378
  name:  'Busey Hall'
- ap: 3661
  img:  'http://lh6.ggpht.com/Nv0tMktEkkuoGtg1QEPS1N2nTcBPg8ipu31i72XPDTGQ4HQI5oL58Ig8kofXUH_aCC2aaJ-NylWKPkC3hIBS'
  lat: 40.116218
  level: 8
  lon: -88.228757
  name:  'The Presidents'' Walk'
- ap: 3474
  img: http://i.imgur.com/5j1qaiT.png
  lat: 40.312242
  level: '?'
  lon: -88.201368
  name:  '2012 Employee Dedication Bench'
- ap: 3474
  img: http://i.imgur.com/5j1qaiT.png
  lat: 40.753838
  level: '?'
  lon: -88.29154
  name:  'f87bcd5251964920aeee2b3093ac8a54.12'
- ap: 3474
  img: http://i.imgur.com/5j1qaiT.png
  lat: 40.466664
  level: '?'
  lon: -88.375445
  name:  '8027cdd796814d63b3d817cdead1e269.16'
- ap: 3474
  img: http://i.imgur.com/5j1qaiT.png
  lat: 40.190541
  level: '?'
  lon: -90.142716
  name:  '29a1ead4e61e4cc4a6749034de2897c0.12'
- ap: 3474
  img: http://i.imgur.com/5j1qaiT.png
  lat: 42.403066
  level: '?'
  lon: -86.274967
  name:  'ce2a99b4e32e48cabdad7a1ace73fef5.16'
- ap: 3474
  img: http://i.imgur.com/5j1qaiT.png
  lat: 41.867446
  level: '?'
  lon: -87.612569
  name:  'c4a3139f171b4fbebb0ca6cbfd7e032d.16'
- ap: 3474
  img:  'http://lh3.ggpht.com/AD9d7JPmLdYRdpxESO9iORy1GRXAcN1jzn8dDNvm6FO7cIHVsjwAKI8LmbW4dico1Xe9jzJfsZZriP0CxXA46w'
  lat: 40.104084
  level: 7
  lon: -88.241616
  name:  'Honorary Memorial Steam Ventilation Pipe'
- ap: 3249
  img:  'http://lh5.ggpht.com/EaT0PxhOud4vjm0kHYMit1zq4b2aTjV4M2olWNI-rM0oUVFeEI4kgeWGcrbk_EvcGBz6hwrN_wYLDLK3CUBi'
  lat: 40.088861
  level: 3
  lon: -88.251811
  name:  'A Flagstone Garden in Mattis Park'
- ap: 3474
  img:  'http://lh6.ggpht.com/pxaCt7clhIXc1RVGMMJZsmnbEWNWjFYJiUrQMev_SeOmXBothvOzmfnirQ5_W8CMa7hpigqydQhKMa4XFCAi'
  lat: 40.108173
  level: 7
  lon: -88.230209
  name:  'Mural on South Sixth Street'
- ap: 3474
  img:  'http://lh6.ggpht.com/BzDhCANV_iNTHhKFBGLuaUqOvChRZtPWnJ2Xk4h7NsKJHmTGgCWtFHWv2PpDA2fCsHHKSCRTrUNK8AKrLRnS'
  lat: 40.108066
  level: 5
  lon: -88.230687
  name:  'Community United Church of Christ'
- ap: 3474
  img:  'http://lh6.ggpht.com/yYW6Egg1lWn6UqqLzlgqwCQhtbuxiZSW4TmvI1XBPs33OTTJ0oh51XZXOIILxGI2juoO-E_YfG5UHmeb34rSOw'
  lat: 40.109165
  level: 6
  lon: -88.230269
  name:  'John Street Plaque'
- ap: 3474
  img:  'http://lh5.ggpht.com/Zoidr1eUAO2UEM6SyifBpkC3K42Ctl355Krd3S2ZU3BbbIMt1XFKF4C35huJT7a-K1PMF6JCK3ztTnr2Wbc9zw'
  lat: 40.109178
  level: 6
  lon: -88.22945
  name:  'Pineapple Pillar'
- ap: 3474
  img:  'http://lh3.googleusercontent.com/EvLov_3eYLGHotkWec9w3T1VCPQri5SR8JLZjbJUaxRsyGPLS4YQNXf90xlPoKjxGYlml9N8IDYKwpNvVIWlVA'
  lat: 40.114563
  level: 7
  lon: -88.228735
  name:  'End Caps Sculpture at ECE'
- ap: 3474
  img:  'http://lh3.ggpht.com/3WnMbDq1Vm3HiqAM5qk1r9m3OqcO-YUN0nCOt2yRfUxVWLZ-8huxevlCI0JnIJgpSBZN4mtw0gxJnrGtuaS9iUf7k-JFfmRGRkBXQafWO9MIk_oJ'
  lat: 40.115491
  level: 6
  lon: -88.227358
  name:  'Arnold O. Beckman Statue'
- ap: 2911
  img: http://i.imgur.com/5j1qaiT.png
  lat: 42.401374
  level: '?'
  lon: -86.288005
  name:  '9c168d55307d46deafd3684ceac79063.16'
- ap: 2911
  img:  'http://lh3.googleusercontent.com/gCJN301o7TKMPpTwXYpuWceaR0wtjm4S3By0SJ5ubrMNK0UEKo6bMcldlreNdLDqpnrYOFmjqByM6vCJDCT-'
  lat: 40.086378
  level: 4
  lon: -88.251308
  name:  'Life Lessons from Kimberly Kueffler'
- ap: 2724
  img: http://i.imgur.com/5j1qaiT.png
  lat: 42.40148
  level: '?'
  lon: -86.287044
  name:  'be78c15683554893a96f56b528eb8f83.16'
- ap: 2724
  img: http://i.imgur.com/5j1qaiT.png
  lat: 41.894687
  level: '?'
  lon: -87.609994
  name:  '71d41d0e027641a9a8ce927698097c51.12'
- ap: 2724
  img: http://i.imgur.com/5j1qaiT.png
  lat: 42.403168
  level: '?'
  lon: -86.276755
  name:  '57aed4cfd9164b75b84de5432c870318.16'
- ap: 2724
  img: http://i.imgur.com/5j1qaiT.png
  lat: 41.886514
  level: '?'
  lon: -87.613201
  name:  '5efc6c0ab2684acd9b39968d45364fa9.16'
- ap: 2724
  img: http://i.imgur.com/5j1qaiT.png
  lat: 42.401723
  level: '?'
  lon: -86.280789
  name:  '4223928c11f54f978302390dae5cac4c.16'
- ap: 2724
  img: http://i.imgur.com/5j1qaiT.png
  lat: 41.8879
  level: '?'
  lon: -87.612783
  name:  '4eb307f4c630437db5e3ae701016519a.12'
- ap: 2724
  img: http://i.imgur.com/5j1qaiT.png
  lat: 42.401972
  level: '?'
  lon: -86.281143
  name:  'f8b2c5c42445442e982537e565c986af.16'
- ap: 2724
  img: http://i.imgur.com/5j1qaiT.png
  lat: 41.887284
  level: '?'
  lon: -87.613057
  name:  'fd03f88ca8384a13bd1b6ea60bcec0a7.16'
- ap: 2724
  img: http://i.imgur.com/5j1qaiT.png
  lat: 41.891065
  level: '?'
  lon: -87.61055
  name:  '5f5a1a66edbd45a5bcdb4032a5f5d782.12'
- ap: 2724
  img: http://i.imgur.com/5j1qaiT.png
  lat: 42.40188
  level: '?'
  lon: -86.282463
  name:  'b9d68e45473941df8150e2fe46e65617.16'
- ap: 2724
  img: http://i.imgur.com/5j1qaiT.png
  lat: 41.883586
  level: '?'
  lon: -87.613191
  name:  'e1d48d9a615145f88d01bfd24fe4db54.16'
- ap: 2724
  img: http://i.imgur.com/5j1qaiT.png
  lat: 42.403097
  level: '?'
  lon: -86.27704
  name:  'a09cf88ae2a34e308dba964b2f24486e.16'
- ap: 2724
  img: http://i.imgur.com/5j1qaiT.png
  lat: 41.891383
  level: '?'
  lon: -87.610138
  name:  '8490a15bbc6d40e68d80c7d9626f193c.16'
- ap: 2724
  img: http://i.imgur.com/5j1qaiT.png
  lat: 42.403038
  level: '?'
  lon: -86.270821
  name:  '46bae287c222465c910f5a07338d2fc0.16'
- ap: 2724
  img: http://i.imgur.com/5j1qaiT.png
  lat: 41.860189
  level: '?'
  lon: -87.614266
  name:  '25d45ae679034789be3dae0702b41d98.16'
- ap: 2724
  img: http://i.imgur.com/5j1qaiT.png
  lat: 42.401928
  level: '?'
  lon: -86.282129
  name:  '85c85407c75c4644a1e41ffa5a211494.16'
- ap: 2724
  img: http://i.imgur.com/5j1qaiT.png
  lat: 41.86308
  level: '?'
  lon: -87.614121
  name:  'e0c6eb1a4c424ec1a4649a959fed8908.16'
- ap: 2724
  img: http://i.imgur.com/5j1qaiT.png
  lat: 42.402992
  level: '?'
  lon: -86.269691
  name:  '866f8f1cccda4bcb80bcf803f082bb1d.16'
- ap: 2724
  img:  'http://lh5.ggpht.com/nWEtxuKQdy0teBBue1DYmG7P3SF5-3A6zlB7GwVHBWlolAZYGq6Br78lWcF9ltFy-KeSlozXie2RmU6JfCUX'
  lat: 40.142673
  level: 6
  lon: -88.244603
  name:  'Italian Statue'
- ap: 2724
  img:  'http://lh4.ggpht.com/vxjetUOC6_S8Ru3Q1ivzG4NE4bAAWg7_opiMwStExCoUHiRaIab8NyXLypEOAo7KBtsRQRzJX-TimhsOlBu3'
  lat: 40.087121
  level: 4
  lon: -88.251406
  name:  'Amdocs Shelter'
- ap: 2724
  img:  'http://lh5.ggpht.com/_gJqtOHLZ9UHsmd_iLjxMsPw5eF5YzqE63qEAzURvSp_3OL9ZrPjM-usiUeYx95b7zTdNodab42cQiyiRRja'
  lat: 40.087835
  level: 4
  lon: -88.251299
  name:  'Amdocs Shelter'
- ap: 2724
  img:  'http://lh3.ggpht.com/fvQtXA7uQ_ump_R8JixzV9ndFr5gVzIttL7RP9cD1MYPv5sui8NvcUwgkO7V83M9DpRjiqE505roZ62DjPgHCQ'
  lat: 40.122254
  level: 4
  lon: -88.219635
  name:  'King Park 1967'
- ap: 2724
  img:  'http://lh6.ggpht.com/ccBTHN5qNJjNkD0fG_ipEQKtSNVqZu8Rrp_xkW2wZqmKB-oUGkM97IzwRiThXQIQFp4KEsLk8bL06Bx6Z4s'
  lat: 40.109592
  level: 3
  lon: -88.22514
  name:  'Ecclesia Noctus'
- ap: 2724
  img:  'http://lh5.ggpht.com/dEeT4acpLu-WQFlZWd3psap5qAqqPTSVzm8Qt1QtpqtwZ0j1V9eKFcmpgN9K_x1PL4XVchuevw25rxHekz3tvQ'
  lat: 40.111968
  level: 4
  lon: -88.226793
  name:  'Bardeen Quad Structure'
- ap: 2724
  img:  'http://lh4.ggpht.com/2tHD_AHYQu0kWuwLX2HMYWBG4txVkuWsBEfzWLL39npWp8kMSHiUKxSJM1E7yhimuMVUJ-RIlSSKsgjETvtr'
  lat: 40.110524
  level: 3
  lon: -88.228706
  name:  'Leo Roy Tehon Memorial'
- ap: 2724
  img:  'http://lh3.ggpht.com/HX3mWBGofQk08Qdp7A6KMK1AnSXlLEPJR-n6oeX69Efiiss29GHsLiDsHhRS5K8DrXh-QXP1T0AMaOsJmx_w'
  lat: 40.106921
  level: 6
  lon: -88.230145
  name:  'University Lutheran Church'
- ap: 2537
  img: http://i.imgur.com/5j1qaiT.png
  lat: 41.892269
  level: '?'
  lon: -87.609873
  name:  '93a1b13c02d04db99ebaf46f118bef83.16'
- ap: 2537
  img: http://i.imgur.com/5j1qaiT.png
  lat: 41.883186
  level: '?'
  lon: -87.613692
  name:  '43ff6baa80f8414db3fb51d1877b35d3.16'
- ap: 2537
  img: http://i.imgur.com/5j1qaiT.png
  lat: 44.607633
  level: '?'
  lon: -87.43205
  name:  '8e6a8255e7c342e8806313a728bf9918.12'
- ap: 2537
  img: http://i.imgur.com/5j1qaiT.png
  lat: 42.40187
  level: '?'
  lon: -86.282885
  name:  '925374a07ea54991930c54b17438563f.16'
- ap: 2537
  img: http://i.imgur.com/5j1qaiT.png
  lat: 41.863449
  level: '?'
  lon: -87.614021
  name:  '0747fa0741784a8790d829fe4656a9f0.16'
- ap: 2537
  img: http://i.imgur.com/5j1qaiT.png
  lat: 41.86491
  level: '?'
  lon: -87.613576
  name:  '90e2ec5f32414d4595d1518dfe80bceb.16'
- ap: 2537
  img: http://i.imgur.com/5j1qaiT.png
  lat: 42.401665
  level: '?'
  lon: -86.266528
  name:  'b12d7253cb36448ba9fddb8d145cdc22.12'
- ap: 2537
  img: http://i.imgur.com/5j1qaiT.png
  lat: 44.61588
  level: '?'
  lon: -87.428349
  name:  'a27975b1a2bc49ca9b4dd063497fde96.16'
- ap: 2537
  img: http://i.imgur.com/5j1qaiT.png
  lat: 42.767852
  level: '?'
  lon: -86.202976
  name:  '008ad68521fa4a23bf7a536bf812ed37.16'
- ap: 2537
  img: http://i.imgur.com/5j1qaiT.png
  lat: 42.360656
  level: '?'
  lon: -87.813488
  name:  '87e6b7fcb07746b5a09fb3a68424e565.16'
- ap: 2537
  img: http://i.imgur.com/5j1qaiT.png
  lat: 39.719395
  level: '?'
  lon: -90.247862
  name:  '532ad3dc3fe14846ab862abf425a5b4e.16'
- ap: 2537
  img:  'http://lh3.ggpht.com/07XrBN-er6Ecleor0n9RJ4DfGO6B2yn-ZxjI-Uy8Ba46Jtb6cXNVmATPiPiGyk-1jZ4wxa7-EeIWbWUqArCG'
  lat: 40.142554
  level: 6
  lon: -88.243468
  name:  'Dog Heart'
- ap: 2537
  img:  'http://lh3.googleusercontent.com/hJZWoErzM-MuXulq4FlhlZwMbJX1Isd81GBUBVKayd57jVIVxUle3itd-1DRKo2VaNXznWr1X639fa44Etk'
  lat: 40.141919
  level: 6
  lon: -88.244611
  name:  'Marketplace Mall Carousel'
- ap: 2537
  img:  'http://lh6.ggpht.com/9gMh8fB58u0oHc_J2mpLyKwtakXUwh9gBBf6Rgi2dc1Khes439IR93o3xpNaE45sGeCW56uW0NY7n_gLwvmP'
  lat: 40.086686
  level: 4
  lon: -88.252282
  name:  'Elsie Mattis Springer Memorial'
- ap: 2537
  img:  'http://lh4.ggpht.com/z_Fp4CjBJYtN4kSA8B6McrcZLVB4_KD9Hti35M_32PXV6LsudmzxIitDELx-nbrk2VMgnhYGZ-Zc89L0OAR7'
  lat: 40.086676
  level: 4
  lon: -88.243056
  name:  'Illinois Fire Service Memorial'
- ap: 2537
  img:  'http://lh3.googleusercontent.com/8uMYuZy0Us1c6m26i0q3fiQ2sptx9Og4z2bMHuLtSt_Woc8U5yKYiXLiC2Oz38uiO4m3z3SU3svJ6uRX-_o'
  lat: 40.086941
  level: 5
  lon: -88.242452
  name:  'Water Survey Research Center L'
- ap: 2537
  img:  'http://lh3.ggpht.com/ei2Kly4PJYB7wpv5MtMVvHz793oQIWOLbz-mjq2ICitv-6BTGVsfA0kPQXiwg3O2Mi__LvZvuashS63u2rwa'
  lat: 40.117638
  level: 6
  lon: -88.227214
  name:  'Under the Sea Mural at Presence Covenant'
- ap: 2537
  img:  'http://lh4.ggpht.com/0j8eeTKJgjnYhHpf4qH_70CZHLbujC5v-XP_ndcqh1xIR-5V2K_CGdjIe1ZfMbwvSyISxxYKoZynw1DaQcj8'
  lat: 40.105874
  level: 5
  lon: -88.230562
  name:  'St. John''s Rectory'
- ap: 2537
  img:  'http://lh3.ggpht.com/5LauQ0fBXP1B19qO58sJB9VHwcGam3p1zZ8-GNTq2upSQO5r3w_I99N4XONxBuFaDcmb-LACk1RonkPGJKUx6_zeun6bCqEKIgtjgoInoPAgA-Bo'
  lat: 40.104719
  level: 1
  lon: -88.225076
  name:  'Darwin''s Playground'
- ap: 2162
  img:  'http://lh6.ggpht.com/yE7aPklOUj6Y4vlNLUrqm7uJbj0TAVjhl_vSEgy7CHGlkTo5yyJGeTCUnRsHYe2UAZq2h_Y3AD_m3y3i2B8'
  lat: 40.106876
  level: 2
  lon: -88.228565
  name:  'Lincoln Hall Sigil'
- ap: 2537
  img:  'http://lh5.ggpht.com/uP38yDCg4dPRI1F0r0ALGArEc8Q9eoRuaxkfxZTafZZr9tMcbLUZek1hZRbLUxHJVGPcLSf_JKbotbTBeR7nfA'
  lat: 40.107226
  level: 5
  lon: -88.22858
  name:  'Class of 1897 Tree'
- ap: 2537
  img:  'http://lh3.googleusercontent.com/hvoLMUc9UoNVVPttxWTc8PzOWdu5MBmPETnBexH7Alyl20WGCrNa0G_j7DwvD3qbhqpTaeThFhGDV2rCtp8'
  lat: 40.107629
  level: 6
  lon: -88.224484
  name:  'Bucky Balls'
- ap: 2537
  img:  'http://lh3.ggpht.com/fxsMa6MK6sWcY8fyTRPmRixomHagKag2YrMZjovxjujmavVawLdmU0Mi0HpNq5kH7UUoXfELEoBOFTkzeRwV2hp9PknjajWlvhX6jYIyUSrrH76k'
  lat: 40.10952
  level: 3
  lon: -88.228288
  name:  'Altgeld Hall'
- ap: 2537
  img:  'http://lh3.ggpht.com/6Fer3GtYrst46oErqZdyi-cArt8MkVMBnho4Lei9skNu9ne3ktFspBwKvXS0rum8O2K7Qpso6J6lO0sipio'
  lat: 40.110656
  level: 4
  lon: -88.240991
  name:  'Mural At Wild Side '
- ap: 2537
  img:  'http://lh3.googleusercontent.com/DJEd6b3-MwXXA5oX_rKCuAtk2dlQ1yS2p9nG8oDmc86DmbzFvhKsP-KR9nKAzn84UUf_K5LjjTMgrt7AjCoU'
  lat: 40.110853
  level: 3
  lon: -88.238339
  name:  'Boneyard Greenway'
- ap: 2537
  img:  'http://lh3.ggpht.com/OwtLBhgC6DoVKIQig8B4LZitIgWrx8rj8ejtnl3FyU2bAwcsRbcardVZSCLCP7U9es_sHo_Ee-iwR_mxOt_V'
  lat: 40.121852
  level: 4
  lon: -88.219695
  name:  'Preston Jackson Byways to Equality'
- ap: 2537
  img:  'http://lh6.ggpht.com/DPmYFBmWaf_8hYO8H8Y1aQLQ6bnStpWMkvOlq0Ge7AQEaBH5HpB8NUqD0dL0H2oki1yWhRoFC2aDerp9-t_c'
  lat: 40.114514
  level: 5
  lon: -88.217162
  name:  'St Patrick''s Catholic Church'
- ap: 2537
  img:  'http://lh4.ggpht.com/6sd473amShrc5AbDY3boNt-doAq8N_YEx8X1JWONSkGRN7Vi_E7bLrbm-PazRpo77BY0-B27NdIBBwTiscfH2Q'
  lat: 40.113857
  level: 5
  lon: -88.213838
  name:  'The Marriott Residence'
