- ap: 11346
  img:  'http://lh5.ggpht.com/-UWK84I78Sftf7yg-E2pg6xEAWTvyiThgJBJlxbqOZPYKNmzQ8uGgEEMetzplrG1HpXG5kQqNItUeXKxOHDsGA'
  lat: 40.100286
  level: 8
  lon: -88.251747
  name:  'Tennis Anyone'
- ap: 9472
  img:  'http://lh5.ggpht.com/C6wRSaEWO1NYGY5luyYZKHG3Z3aib4aflaPdV7B9G6N6adE890g3QuPRSvCUhsdFHqjoVUjo27mfz9WsjXyuhQ'
  lat: 40.100521
  level: 8
  lon: -88.250864
  name:  'Gabriel Patrick Maxeiner Memorial'
- ap: 7972
  img:  'http://lh6.ggpht.com/yjfa0jJLjsfLRf9Zn9iafMp3MuIhgCi0WiOCF8GqTGiGvzEnsPGrFa0H1n-uzWhVehLbt44ShthsA32VzHd5iQ'
  lat: 40.099737
  level: 8
  lon: -88.251157
  name:  'Tyler Van Atkins Memorial'
- ap: 7972
  img:  'http://lh3.ggpht.com/lzCSS0_tjwUV7JQ2fgLI0e05IrzPxlVUs-6aEPOwUv67IanQJSTi71gkw0SGm8asmoE_r3Xoh048Fd9xRpE'
  lat: 40.099169
  level: 8
  lon: -88.251419
  name:  'Lyman Larson Memorial'
- ap: 7035
  img:  'http://lh4.ggpht.com/vKgqIecJshMQxrhO-ZhMjcIyARuJdyU63wKfzAG0wouZex6LVzO46Qi5zM1N3Jx8xyantDFk9sQGsSEBhb-y'
  lat: 40.101327
  level: 8
  lon: -88.251412
  name:  'Zeus Memorial'
- ap: 7035
  img:  'http://lh5.ggpht.com/ENeQgqydWbi9-Oyf7vizunoRqJdsZV4o0RA_956wjGI8hqpTCHBPyWMpbTrrkwYpj5tgzDRvevGmvH4eFRU'
  lat: 40.099593
  level: 8
  lon: -88.251724
  name:  'Blessings from Devon Elaine Cattell'
- ap: 7033
  img:  'http://lh3.googleusercontent.com/hvoLMUc9UoNVVPttxWTc8PzOWdu5MBmPETnBexH7Alyl20WGCrNa0G_j7DwvD3qbhqpTaeThFhGDV2rCtp8'
  lat: 40.107629
  level: 6
  lon: -88.224484
  name:  'Bucky Balls'
- ap: 6848
  img:  'http://lh6.ggpht.com/S7Utf4_59vQkAP5JhC3mdbzVLKBTt-0zoJ2UjfxUnN10VBbixO-_VwvssWd1LbFSx_yafaijd_U0wTGo870'
  lat: 40.100941
  level: 8
  lon: -88.251314
  name:  'Gabriel Patrick Maxeiner Memorial Plaque'
- ap: 6285
  img:  'http://lh4.ggpht.com/4LxsGZZMk3DnpJXUvqzrL54CHSP5TDXjUnDJyHmCCTtCJIjGEI7kxT9g4uxfSPh0X6yGLgQo1jfqbu7B8VEr'
  lat: 40.099084
  level: 8
  lon: -88.251826
  name:  'Irina P. Stewart Memorial Plaque'
- ap: 6285
  img:  'http://lh5.ggpht.com/4DJAFPeZ_w65Km7VDnsbOqouQaeBuPuxA0KHPQToT_B6o1hBxzdu3kn89UhHgv22Ygj52Fx9QqcbzOytuw'
  lat: 40.100078
  level: 8
  lon: -88.250683
  name:  'Brian Clark Memorial Plaque'
- ap: 6285
  img:  'http://lh6.ggpht.com/5CDidk0pqfUtSW_Yqouuf3diX8drdMu9DoT728QpSz8q6A-WxNhT0yLcgM_7gGpyIAeXrHiTkIzzaVJFgnN9WA'
  lat: 40.099852
  level: 8
  lon: -88.251947
  name:  'Our Friend Tim Palmer'
- ap: 6098
  img:  'http://lh4.ggpht.com/B_I1b0Jy3vW41RX8jjCNPP68AULplU0Pf8ddolyKmpEWCfBVShQkmjF1HfTPzDjmBBQGgOs0jHW-rUR0mv8BkA'
  lat: 40.098789
  level: 7
  lon: -88.251685
  name:  'Curtis William McKinney Memorial'
- ap: 5909
  img:  'http://lh3.googleusercontent.com/zmBaxEMhC7WvQDOei5LjXnSrM2p368YlSMZPtCtSY0t6bGsHjg5Bc91PGGsJ0oGn_hifKeBSMB_3BKH3hbwP'
  lat: 40.105567
  level: 4
  lon: -88.227662
  name:  'Freedom of the Press Plaque'
- ap: 5722
  img:  'http://lh4.ggpht.com/p1kbhH-3K08NNqTt_6-223uI0PurGUV2HeAWGYPRx3OnNYMY-kARoW1zZ2pZBHthAYRZbIgf6ioRawHi0BmUx786y5ffm0kmZsskaOiluDUhSIiI'
  lat: 40.106173
  level: 4
  lon: -88.22719
  name:  'Foellinger Auditorium'
- ap: 5460
  img:  'http://lh3.ggpht.com/mRCpYiTnH0rrWGXaOj5qrhYjnvlhpQ8iY4UG3vy_gu2HW2GChgp0aXQ0Uih6XRZcUOJVyzyPggWicFdh7sHrfA'
  lat: 40.106179
  level: 3
  lon: -88.227593
  name:  'Charles P. Wolff Memorial and Tree'
- ap: 5348
  img:  'http://lh4.ggpht.com/PHV-1ZpFzCAl_ViCKwBY_x2pIDbVyaT7wJH1sTvFJCxrSdRrO1x7NaXq9OdRGwz_Mls4iwk6wuGHMBArfV54'
  lat: 40.098688
  level: 8
  lon: -88.25063
  name:  '"New Holland Yellow Dinosaurs" at Hessel Park'
- ap: 5348
  img:  'http://lh3.ggpht.com/G1CvGhpethi5UmprDWxZN9rTblHa3anSsQz1UPgJtkREkfN7lDFoxFObst0609Cg5mofuZxJKr0ddNKhY4VL'
  lat: 40.098464
  level: 8
  lon: -88.251426
  name:  'Ruth Haasis Memorial'
- ap: 5161
  img:  'http://lh3.ggpht.com/8FqlniFErK7cq59awiT84u8KyV4FIRd5krZzfYa58zJToFps7whdBnriPqvO_kFKeLUE3SWbJhCOPuvUQzaGFA'
  lat: 40.100691
  level: 8
  lon: -88.251337
  name:  'In Loving Memory of Zeus'
- ap: 4411
  img:  'http://lh3.ggpht.com/VrbXGwlUosNLEkVdshWUFoVa3KtlJQoEU4yLYygvftYbPCmxo644Uvar_v8Kb9RS53hB0tXgvV44GotrxZyu'
  lat: 40.098592
  level: 8
  lon: -88.251676
  name:  'Ruth and Fred Steigmann Plaque'
- ap: 4411
  img:  'http://lh5.ggpht.com/tfAfnmo6mSMc6U0P533NMFJRGwn6lasmx-MLR2JJg1QOizMKkghFU8E7hb2zgYgdQEbgnCJUlvZIMdrrJe4'
  lat: 40.100822
  level: 8
  lon: -88.25193
  name:  'Seeds of Kindness Bench'
- ap: 4411
  img:  'http://lh5.ggpht.com/HhVreJipNvxPRVFpmsh2BPo9PcpPO2Q2l3jCpDjIKgfKGycoTNPXR4DKiYccBXW4X-4dJf_vV0ESsWAWHcChsg'
  lat: 40.100936
  level: 8
  lon: -88.250855
  name:  'Donald F. Bresnan Memorial'
- ap: 4411
  img:  'http://lh6.ggpht.com/qSCp5fQMlyCQ-GOAgiSFy5gaHJei705Pa3eOlJiYO5wGjZTYtjA8q7QWWfAWcLKjxZSaFiMfXOPR8SO7rWU'
  lat: 40.099353
  level: 8
  lon: -88.251876
  name:  'Raymond B. Cattell Memorial'
- ap: 4411
  img:  'http://lh6.ggpht.com/RW34ntixvJkg7fD71TPYo_4KIsBzA0-a-6yXO0jKPbpGxX5gIGC7kBI-pXEF9OHhuolcAGW2fxyK3Pt42Iev'
  lat: 40.110489
  level: 6
  lon: -88.227412
  name:  'Bus Stop - Illini Union, Westbound'
- ap: 4411
  img:  'http://lh5.ggpht.com/LPlCgoOAlClRaVCl_B1sHDkn38OgDbXat-l5Q1bDZLP7mOUMfU8pK-o3N8BEqh0vHJcZBHo3iz2AMQKAhot7Tw'
  lat: 40.110833
  level: 6
  lon: -88.227425
  name:  'Engineering Class of 1975 Monument'
- ap: 3848
  img:  'http://lh5.ggpht.com/IgNzl1mq8OGLo32nCph_TZvtqlPh79vEYYvHZb2F6YXW1jx9_ESV5dv13U9k7CRftyKHGoW2RtSSUFzPKbU'
  lat: 40.113072
  level: 5
  lon: -88.289765
  name:  'Kaufman Park'
- ap: 3848
  img:  'http://lh3.ggpht.com/TNDkyQnVEXdm2c8_gpZa0jhlwhKtO0T8Yaqx9BCnvpjJHBRKYMu71Kz7U4wOp-eSKD5jlReyruVEwFyyvRLuZQ'
  lat: 40.129028
  level: 5
  lon: -88.218345
  name:  'Flagpole Dedication'
- ap: 3661
  img:  'http://lh3.ggpht.com/PijfKs7HCJf1vVcIxcTF1HPOYaa5iS4ZECXZUQ2dDDSn9ZCXSd8FGHThRUiEIC-oMNmClt0seIzn8FsaGPER'
  lat: 40.112752
  level: 5
  lon: -88.289696
  name:  'El Toro Fountain'
- ap: 3661
  img:  'http://lh3.ggpht.com/rgh_2qJQUPC1OrARUkiQqPKoNReiqZYOimm5Nszb77pDh72OszuyiJBKn-vDxHUuyjO2XTeKU9GBHc3oHIYr'
  lat: 40.115283
  level: 5
  lon: -88.287899
  name:  'Greenbelt Bikeway'
- ap: 3661
  img:  'http://lh3.ggpht.com/QXNgz_dPkVpVuz9Qr0CZkUJDftEdF2Hs8m3XkLjsM8Q3YkwkWpxt0rmtqJ-fFylVNnP4_r193_ZhBl2kSfg'
  lat: 40.129216
  level: 5
  lon: -88.219323
  name:  'Angel Statue'
- ap: 3661
  img:  'http://lh6.ggpht.com/RR0i4QdfoY8NkTQtssdOtDLhAEaCR7e-R4ipk5NzdKe9lTGDq2nyKI_7sF2BCXrgCZAZ2zEEtIzS7vg6Pu0hzA'
  lat: 40.126458
  level: 7
  lon: -88.218544
  name:  'The Vineyard Church'
- ap: 3474
  img:  'http://lh5.ggpht.com/gkIcCbfmQWyJ7s9ryhzfOOn1K-oa8huqzZN80X2psVjx_6Iur5egjGncbUIAMLiAJAf9qG1Ac8lX2MomHYY'
  lat: 40.108185
  level: 5
  lon: -88.225203
  name:  'Statue at Medical Sciences'
- ap: 3474
  img:  'http://lh4.ggpht.com/9hzMj8KV-HraIucojjHAEgyMZsJAR9TWvNS-QSBB5LTYBOTwwqfTQySJ_Sz88eP3eyFWFYhx5qDVY93t8fk'
  lat: 40.108032
  level: 4
  lon: -88.225702
  name:  'Centennial Court'
- ap: 3474
  img:  'http://lh4.ggpht.com/RF7EbCh1YRbFHfis_PEc88NF1v4Ndhj-Rm7rrlY7F8s-Mrv1EMEFnajFbYiNffZ_3kMNL80Zv-_jtaMYMtLA'
  lat: 40.110655
  level: 6
  lon: -88.22725
  name:  'Gothic Brass'
- ap: 3474
  img:  'http://lh6.ggpht.com/1El0oK6CWDh7rAQeFmPEW_dA252pdq7piTtjtuQCkZvwRa689NLjEafLqQ35TI5qCW3Lmhja9PLQqKxFs9Ha'
  lat: 40.110627
  level: 5
  lon: -88.227584
  name:  'Tau Beta Pi Statue'
- ap: 3098
  img:  'http://lh5.ggpht.com/k_9eqZVvGcr3ZNyeeSNDM1-Y7od35KmnQQptB9usrdpTdpGW2c_5-12rYy9hGazdx7qhlYrEXxaJ_ZIVFywlcA'
  lat: 40.106706
  level: 2
  lon: -88.232116
  name:  'Illini Tower'
- ap: 2724
  img: http://i.imgur.com/5j1qaiT.png
  lat: 40.038713
  level: '?'
  lon: -88.597587
  name:  '90c6bdbac79141418869f2c6a1e74ff5.16'
- ap: 2574
  img:  'http://lh3.ggpht.com/tXuCgd1tvCtlonW_e1jLC_5DH6g4Qh6zIUKhJeoBZuLvyB0ql69PlymRU3Ywf5lq_8PFYNylEKOiC_qJnnzJpg'
  lat: 40.138006
  level: 4
  lon: -88.272375
  name:  'Jericho Missionary Baptist Church'
- ap: 2537
  img: http://i.imgur.com/5j1qaiT.png
  lat: 41.37168
  level: '?'
  lon: -90.165095
  name:  'c95c110111b44cd08149a1712123ed13.16'
- ap: 2537
  img: http://i.imgur.com/5j1qaiT.png
  lat: 41.556343
  level: '?'
  lon: -89.461309
  name:  'fd2af0e93c084aa19be07f93e4a11add.16'
- ap: 2537
  img:  'http://lh6.ggpht.com/_5uAVfIVUSl8LZbPdUo8NofNacgPArlxuX0AhFVfU2I3B-5ULKClKXB_ia2JZo1UjjJO7Mme5nB8HSWXKhrcpg'
  lat: 40.137727
  level: 5
  lon: -88.222417
  name:  'Eastern Illinois Food Bank'
- ap: 2537
  img: http://i.imgur.com/5j1qaiT.png
  lat: 40.312242
  level: '?'
  lon: -88.201368
  name:  '2012 Employee Dedication Bench'
- ap: 2537
  img: http://i.imgur.com/5j1qaiT.png
  lat: 40.314339
  level: '?'
  lon: -88.974143
  name:  '21ddff24443e4e028aef2b33c59c29d4.16'
- ap: 2537
  img: http://i.imgur.com/5j1qaiT.png
  lat: 39.989173
  level: '?'
  lon: -88.78725
  name:  '718d1cfa934b4359976097532171135a.16'
- ap: 2537
  img:  'http://lh5.ggpht.com/bxjTJmHRd1_7x6zw7y1Eir0opWUqtbJOdAC4FxDOfOBVdUI1zEVV9wo5FiHzTxqR7hajj-4tQrnSyAe2b8Y'
  lat: 40.113974
  level: 5
  lon: -88.311234
  name:  'WBGL Radio Station Headquarters Plaque'
- ap: 2537
  img:  'http://lh3.ggpht.com/eFFdc4ogWkS9n6Texp4aw9BhK-M6FRxwvMRH-YkXj7JP7qSRQdo7E0-0O4P7NawgvduxpxgjnbGHbN1BjW2_'
  lat: 40.114585
  level: 5
  lon: -88.311371
  name:  'Joe''s Park'
- ap: 2537
  img:  'http://lh5.ggpht.com/pSVHjk6puyYdv3ztHlpJGnbkZyGsGsirMnxkDhlt8UMko4AhtTQbrzwInBCu5lK4Ttf7furE5pNW2AZh8HuSZQ'
  lat: 40.138109
  level: 5
  lon: -88.270158
  name:  'Glory Center International Church'
- ap: 2162
  img:  'http://lh5.ggpht.com/ulBje3DZHcOGkPDTXihNL1tamRAm_GO1CREW8fA5fV0Znq1eF2J1hnbSZh35emEA1h9cL1qTj9FqGtb8VywgXQ'
  lat: 40.13765
  level: 2
  lon: -88.273074
  name:  'Garden Hills Park'
- ap: 2537
  img:  'http://lh4.ggpht.com/h3t9nwbrudSHJ4Ll-zBceLi_U0iwpgbsVd8Wjzy_JgqMiXIqIu4CILUiFnKdayIi0htMXQ5CNowcXO7XUqI'
  lat: 40.13401
  level: 4
  lon: -88.28239
  name:  'Eddie Albert Gardens'
- ap: 2537
  img:  'http://lh5.ggpht.com/-aOZyLFNK96FhUdQBYhmRPZrs_PB1oiLRcrPjKwFBANQ42LxLbbHfTZVw_F01meecQXfNQwJYy7qqVh8Q0gR9g'
  lat: 40.133768
  level: 4
  lon: -88.281275
  name:  'Butterfly'
- ap: 2537
  img:  'http://lh4.ggpht.com/WYG3ESlqovedGYxESaI2-VIu4-NxEKeo32DuX9E1hpXAQKySBaEbuyVUoRex6E6m4O_qpXGVFcZ9Ktc2d7c'
  lat: 40.126923
  level: 5
  lon: -88.283365
  name:  'Heritage Lake Fishing Regulations'
- ap: 2537
  img:  'http://lh6.ggpht.com/MA9eCvz-pj6K00ulfaZfIA2Saj3yQDg484VkIpdvKwCwb2VWMg7rq15hjirk-2ea3j-2MfOnszGDTopXgf3N'
  lat: 40.12735
  level: 6
  lon: -88.282547
  name:  'Heritage Park'
- ap: 2537
  img:  'http://lh6.ggpht.com/uaO1clC1eOzxRVRPPU6mVM4lEPV2U6uxh64a8kJNRglHSObClWlHGEcfJTknzwB_7Wli3doxQJbZKiBHIXI'
  lat: 40.102834
  level: 7
  lon: -88.241672
  name:  'Rehabilitation Education Center'
- ap: 2537
  img:  'http://lh3.googleusercontent.com/enpZZ8JRREFPTvYd3jbeUlpS-mmcwKe5fsvoWRPkfMUj6PijyI-5tbR55UItBoNJAFSl9fAAOvXb6BpWCJT4'
  lat: 40.102495
  level: 7
  lon: -88.242132
  name:  'Nuclear Physics Lab'
- ap: 2537
  img:  'http://lh6.ggpht.com/T15jgBwdGgKfY5ZEkmL6_eEeGWALRclzodBAIpqOXMAO4sP9g1Mt8CwDQCh5tDr_sZan-95c8YRI6F-W63_-'
  lat: 40.105692
  level: 4
  lon: -88.227097
  name:  'A Son of Deucalion'
- ap: 2537
  img:  'http://lh4.ggpht.com/3_LELG2r-A5s2d-x2dWyz6h7HzfjVR_KZn9AG0vhih9EalQIG43iL6LdKqKNpnGdGwguP9ZfnGF0KMq_KDE'
  lat: 40.105799
  level: 6
  lon: -88.230188
  name:  'Color Glass Windows at the Newman Center'
- ap: 2537
  img:  'http://lh4.ggpht.com/S734i_6SihPtJW8WdegLb3gEuKeNx8e1qDm6CXjREzYHohw7XqL82m4EF2K5nS2TixHweLn3EuJ4YoQnrsw'
  lat: 40.107751
  level: 2
  lon: -88.231532
  name:  'Graduate School of Library and Information Science'
- ap: 2537
  img:  'http://lh4.ggpht.com/GCS0-CwKl9SLe2zfeL7FPDuKv5ZFDhlnX3hMXZSJLvK-u73RlgWbn_FgnOHZi-0wqMk52z_YLSAMReYTSaoP'
  lat: 40.10659
  level: 3
  lon: -88.227679
  name:  'Lincoln Hall'
- ap: 2537
  img:  'http://lh4.ggpht.com/EsyXMnqVMX7wQ4YmoCFRiNljaJqaXrQvzyzzooqx2fPxCSkJMkdEssTbf618D8Qp9hh3E4Ud3hL1M3v-TsbO'
  lat: 40.104688
  level: 6
  lon: -88.230676
  name:  'Sousa Archives Center-Amer Music'
- ap: 2537
  img:  'http://lh5.ggpht.com/OF0rdXnVnZe6syFsa4G9CE6iyvhfoYQN3QH9RESyB78MTKDC2NXYJuVd0TAnACMccmsKXhNcBH6qzWy9DPQ'
  lat: 40.105073
  level: 5
  lon: -88.231952
  name:  'University of Illinois Armory'
- ap: 2537
  img:  'http://lh5.ggpht.com/orl0d4FNIpZ7xsdZmVyH_732dMd4uGM01fQ-P5V82KufzWBOMbpankzTgjeS3frZhS7apS3qCrS2o4jtw7pAkg'
  lat: 40.105605
  level: 5
  lon: -88.227414
  name:  'Charlene E. Haight Bench'
- ap: 2537
  img:  'http://lh3.ggpht.com/MhImfPRi7WC74Qg-w4TCrNnC1hTih4TLCipNyUswQRp6HDkM5XS2cJqL0vrBH5sb7VdgzafkvLVAVEk3R-W6'
  lat: 40.105511
  level: 3
  lon: -88.227195
  name:  'Bruce Perona Memorial Plaque'
- ap: 2537
  img:  'http://lh4.ggpht.com/0j8eeTKJgjnYhHpf4qH_70CZHLbujC5v-XP_ndcqh1xIR-5V2K_CGdjIe1ZfMbwvSyISxxYKoZynw1DaQcj8'
  lat: 40.105874
  level: 6
  lon: -88.230562
  name:  'St. John''s Rectory'
