- ap: 9844
  img:  'http://lh6.ggpht.com/1i7JFIfvKI3IMOAekdomh9jm9HrAhBBdNIOyX81Nkq1Bh49sBqKg37sMm99MYm8yJjHsG4dBdnRg1X5Aq-c'
  lat: 40.104796
  level: 5
  lon: -88.227461
  name:  'Undergraduate Library at UIUC'
- ap: 9470
  img:  'http://lh3.googleusercontent.com/vJ_iyOb44eFzOJUNpRouOPDI8rKgOESn7TWw9U9BR3OcWsb6Oak-SSfVH4iPPmtXJdk30rqet1D0KxVohiBC'
  lat: 40.114712
  level: 7
  lon: -88.238392
  name:  'Mexico Mural'
- ap: 9283
  img:  'http://lh4.ggpht.com/xS51--rXA9M_IHpXWgFQxKZU-YbD-1zk-nug6k7RyKl8rYeam_YFwMmLNWRRHHzI-rOTGyhTJQQ314WudSQJ'
  lat: 40.117132
  level: 6
  lon: -88.243009
  name:  'Fountain in the Alley'
- ap: 9096
  img:  'http://lh3.ggpht.com/-xag7tp3BReTAhfRmVAvpMw1Af15prESg4rve7QnsiIC5IKmKjBszxDIj8F212BmRU1apH_2u_9wAmq58_91'
  lat: 40.114157
  level: 7
  lon: -88.238621
  name:  'Bombay Indian Grill'
- ap: 8909
  img:  'http://lh3.googleusercontent.com/0hydzoUNO41CcF2qZhlhMbaEgMVFjql3_RSDgrJLVIToqRsqh2aBcAoXsrxAlwXqgTcB1R71HZiHrjq1KdnXgA'
  lat: 40.11243
  level: 7
  lon: -88.235749
  name:  'Fountain at Scott Park'
- ap: 8533
  img:  'http://lh6.ggpht.com/duOeXcOSQLWosdD0JJXg3pWWQp4t5sL0x9qDHoTIBFNOzEW0t53Lt2cnwgV2E_Su0l1ajIQxPtVbbK_sDRaS'
  lat: 40.141775
  level: 5
  lon: -88.242671
  name:  'Marketplace Mall Fountain'
- ap: 8159
  img:  'http://lh4.ggpht.com/MvwoDsxwfyNLHzfGkFJl-4VFeX7OvqB0hsMCrZ2D9Olh8GSghAJDfFfDh7a7cOtMIGwEDMyesZoKvKCXAGj4'
  lat: 40.116553
  level: 7
  lon: -88.242268
  name:  'Esquire Lounge'
- ap: 7783
  img:  'http://lh3.googleusercontent.com/hvoLMUc9UoNVVPttxWTc8PzOWdu5MBmPETnBexH7Alyl20WGCrNa0G_j7DwvD3qbhqpTaeThFhGDV2rCtp8'
  lat: 40.107629
  level: 7
  lon: -88.224484
  name:  'Bucky Balls'
- ap: 7596
  img:  'http://lh3.googleusercontent.com/erdNDM4HaNMn_EeFz0IoM_0LQWykLGJ1Y7-URXSvEithPHs8Rnwf7oWZyxVKu7qOpPdKjeeCy3dkywZ7n6KrsA'
  lat: 40.111615
  level: 7
  lon: -88.235593
  name:  'Fred B Lamb Trail'
- ap: 7409
  img:  'http://lh5.ggpht.com/BUGNnLReyCBJJj9_zpqgwv5_CAyiW8fWBpyVs0ip1hT5NEE6YKCYzlc8ahldKzk_xv-4uckNJNb6NrJd6r33qg'
  lat: 40.116989
  level: 7
  lon: -88.242255
  name:  'Blind Pig'
- ap: 7409
  img:  'http://lh3.ggpht.com/1JgqaWx4DIU04ms-XmufSumQ5BDP07SB97-kBjzxDePlLQR9HagCTfqdviW9ErxCqpvXgynqeosQhERhCat6'
  lat: 40.108781
  level: 5
  lon: -88.226388
  name:  'Illinois State Water Survey Plaque'
- ap: 7222
  img:  'http://lh4.ggpht.com/fYq8Qzd7VmDjN_GIWRjblwSGoKKIaUFJTgmMNsJrfWO6c5cZu8xnJc4kDm35ITLO2ePeYakXEDKubdwi0x1K'
  lat: 40.105179
  level: 5
  lon: -88.226931
  name:  'Astronomy Department Sundial'
- ap: 7035
  img:  'http://lh3.ggpht.com/8FqlniFErK7cq59awiT84u8KyV4FIRd5krZzfYa58zJToFps7whdBnriPqvO_kFKeLUE3SWbJhCOPuvUQzaGFA'
  lat: 40.100691
  level: 8
  lon: -88.251337
  name:  'In Loving Memory of Zeus'
- ap: 7035
  img:  'http://lh4.ggpht.com/1n-hHkU1cTz6dykw37WBVQqctZlzyl9gYgy7IMi1zcMf1t0ry6F1JPnwlvUjq_6YNdolofY_rLbuL_uLQwg'
  lat: 40.112913
  level: 6
  lon: -88.237848
  name:  '2nd St. Basin Ampitheater '
- ap: 7035
  img:  'http://lh5.ggpht.com/ZBaYXHOKUz2Vxe_dieY9xFrO4KgTUtaLB91ggoRg5ypkxwdZOdAbLLO0ZJl8gH1FuR5TuvtWg0i5GJI4_TmiCw'
  lat: 40.11676
  level: 4
  lon: -88.194563
  name:  'Pavilion in the Woodland'
- ap: 6659
  img:  'http://lh6.ggpht.com/I-l0KMezFAwrNcsN5-RPQCQbH4VnCa-C2GtwAQwrtAOcyFmOp_PxGmTwtTHCrR-O1hokLKIrtjyzuTsdP1E'
  lat: 40.112048
  level: 6
  lon: -88.236887
  name:  'Scott Park Rain Garden'
- ap: 6659
  img:  'http://lh5.ggpht.com/AmsS7GEfFX-_Icem2DP6mjQahV1jeut1CGdeqLqfpyzx0m5SqhVY4eoAohizF0xsevPQufmLRMoVj2rW7Fe8'
  lat: 40.111689
  level: 7
  lon: -88.231193
  name:  'Koi Building Art'
- ap: 6472
  img:  'http://lh3.ggpht.com/AflEYleLSbb1ODQvIdBOrTrq1Zkk-rgHU4WaHjaZ6Md2zDSaqq8cERAJWcwG1QFkrzGf6gp3oC-DZuLOCDb4'
  lat: 40.112779
  level: 7
  lon: -88.239045
  name:  'Layalina Mediterranean Grill'
- ap: 6472
  img:  'http://lh5.ggpht.com/dRrlHXlT2nMNgZNHiYo52ha9L-Xay9DyOJR2Cpqs74hgAJ09abn9OTAtMzRVedt1_R9ObZllLO98vRhNMfgTgVsJCk1S-HJwX_XgiGpG4lz3a328'
  lat: 40.11671
  level: 7
  lon: -88.24263
  name:  'Cafe Kopi'
- ap: 6472
  img:  'http://lh6.ggpht.com/SCYK-XeMmOyfRrTt1-aQNoDA-2Sib4m5Ch26mTwo6XNdVeVnfi7W74Ik6IRLAPSoKzSS97pgwt50Jl9oSgGfP029USxZzQWKNJo3rbs-6YHBPBif'
  lat: 40.116792
  level: 7
  lon: -88.241752
  name:  'WEFT 90.1 FM Community Radio'
- ap: 6472
  img:  'http://lh3.ggpht.com/rUgM7jkTqL0VHxvsSW0yWuNJF5UrU62ITflghfn4PfKjn6L4WGz0ALkv98fc_q9dmK9SSpU1PXIawGvcRwE'
  lat: 40.098246
  level: 8
  lon: -88.251974
  name:  'Hessel Park'
- ap: 6472
  img:  'http://lh4.ggpht.com/YkAjLbUQwdId1pIn7-0sv7p3fU5sUakSrInODEYBL40IL2O6a6iP0KdmXupzcZMPqJ3arf7sss9irQ7NDzzF'
  lat: 40.110882
  level: 5
  lon: -88.231138
  name:  'Boneyard Greenway'
- ap: 6285
  img:  'http://lh6.ggpht.com/2lDM_Uj6QcUJmWkmPhNWg-vfkJbBQAo6zb7eXC5qDTaJ5xAsoU7jPPqYmLo7zztC2Za1oH3QVrHQ78-XabqR'
  lat: 40.116398
  level: 7
  lon: -88.242485
  name:  'Champaign Servicemen and Women Memorial'
- ap: 6285
  img:  'http://lh4.ggpht.com/B_I1b0Jy3vW41RX8jjCNPP68AULplU0Pf8ddolyKmpEWCfBVShQkmjF1HfTPzDjmBBQGgOs0jHW-rUR0mv8BkA'
  lat: 40.098789
  level: 8
  lon: -88.251685
  name:  'Curtis William McKinney Memorial'
- ap: 6285
  img:  'http://lh5.ggpht.com/HhVreJipNvxPRVFpmsh2BPo9PcpPO2Q2l3jCpDjIKgfKGycoTNPXR4DKiYccBXW4X-4dJf_vV0ESsWAWHcChsg'
  lat: 40.100936
  level: 7
  lon: -88.250855
  name:  'Donald F. Bresnan Memorial'
- ap: 6285
  img:  'http://lh4.ggpht.com/oknWvsn3j_8LLqgIevkEiU6a-r9RO-ylFPYVgOPQ6wBXGmnyvWFCGC4eG8qo7Z28JPMEoBE4DUFq2FPfFdXR9Q'
  lat: 40.112908
  level: 7
  lon: -88.237287
  name:  'Stone Arch Bridge'
- ap: 6285
  img:  'http://lh4.ggpht.com/PmGpygZ2fBs43twk2Y44XZbgGcHWv0YimAq7Fp3vlIRRqUyLpSmDmFwcn1ucfmJarcQrAAXJjYAXAhNyxSrz'
  lat: 40.110049
  level: 5
  lon: -88.231968
  name:  'Potbelly Mural'
- ap: 6098
  img:  'http://lh4.ggpht.com/4LxsGZZMk3DnpJXUvqzrL54CHSP5TDXjUnDJyHmCCTtCJIjGEI7kxT9g4uxfSPh0X6yGLgQo1jfqbu7B8VEr'
  lat: 40.099084
  level: 6
  lon: -88.251826
  name:  'Irina P. Stewart Memorial Plaque'
- ap: 6098
  img:  'http://lh6.ggpht.com/xxeIna-Mp_s6sWP2q0pQb8ArgRjTHMAPs_70QPHu6125M3ToW1y8q40xpyyMdqzNrz8XipF7ZIQUKsy1fBtX'
  lat: 40.116846
  level: 4
  lon: -88.19223
  name:  'The Ambucs Park Woodland'
- ap: 6098
  img:  'http://lh5.ggpht.com/HecdcuIKHPW3-6JCUlxHgv4kdBv7MXPpXBiWEczpoqzICIiFGkoPXGYJlGZLUCRJGjph6toVnnVWKVoXijhZIA'
  lat: 40.115947
  level: 4
  lon: -88.192222
  name:  'Ambucs Park'
- ap: 6096
  img:  'http://lh6.ggpht.com/ZpJuVeWuDsVo9oPzh9mGzFjeTz2FQluKlriJijNL29HFEEWmMBqok5fCxVis8MpHqJYCBQUhRLNU9yuE7luP'
  lat: 40.129233
  level: 6
  lon: -88.238696
  name:  'Bristol Park'
- ap: 5909
  img:  'http://lh4.ggpht.com/IZUCSooIdo5qUAG278Al-JEKCRv842M0uDMusE78yaL4p-QCYu2A4UXE6X2jTFemr_w8ZfD6g_lQqjwbdg'
  lat: 40.109702
  level: 6
  lon: -88.227571
  name:  'The Ray Bulinski Room'
- ap: 5722
  img:  'http://lh3.ggpht.com/oSQ_YOHo2mfYjOa8bPK9ellznKK29UluW-SeXoGYra9VFg8dJp6YQRdHbHHaTExqXs1qUMBNmpI2hUPcC4GI'
  lat: 40.106789
  level: 7
  lon: -88.222992
  name:  'Beginnings of Computer Music Plaque'
- ap: 5722
  img:  'http://lh5.ggpht.com/fGRHfMAqdWrUnPE8GStKSdMkgQmu9qvuxAC4VzcU1v2KyxQu2BeuJKhvhefSeFNTkgFh6YdR-F4P6plMbh0'
  lat: 40.110194
  level: 5
  lon: -88.231488
  name:  'Fighting Illini Memorial'
- ap: 5535
  img:  'http://lh3.ggpht.com/07XrBN-er6Ecleor0n9RJ4DfGO6B2yn-ZxjI-Uy8Ba46Jtb6cXNVmATPiPiGyk-1jZ4wxa7-EeIWbWUqArCG'
  lat: 40.142554
  level: 5
  lon: -88.243468
  name:  'Dog Heart'
- ap: 5535
  img:  'http://lh3.googleusercontent.com/hJZWoErzM-MuXulq4FlhlZwMbJX1Isd81GBUBVKayd57jVIVxUle3itd-1DRKo2VaNXznWr1X639fa44Etk'
  lat: 40.141919
  level: 7
  lon: -88.244611
  name:  'Marketplace Mall Carousel'
- ap: 5535
  img:  'http://lh5.ggpht.com/4DJAFPeZ_w65Km7VDnsbOqouQaeBuPuxA0KHPQToT_B6o1hBxzdu3kn89UhHgv22Ygj52Fx9QqcbzOytuw'
  lat: 40.100078
  level: 7
  lon: -88.250683
  name:  'Brian Clark Memorial Plaque'
- ap: 5535
  img:  'http://lh4.ggpht.com/eoFw5gx9tcBj51FvuWLBsaFZ7TdxW0i1ez8HiVWtHsPE262Fcf5-fE7MAIzvgDr2tLCZzG79np6cdQDZzWou'
  lat: 40.112029
  level: 6
  lon: -88.23655
  name:  'Scott Park Bridge'
- ap: 5535
  img:  'http://lh6.ggpht.com/T15jgBwdGgKfY5ZEkmL6_eEeGWALRclzodBAIpqOXMAO4sP9g1Mt8CwDQCh5tDr_sZan-95c8YRI6F-W63_-'
  lat: 40.105692
  level: 5
  lon: -88.227097
  name:  'A Son of Deucalion'
- ap: 5348
  img: http://i.imgur.com/5j1qaiT.png
  lat: 42.767748
  level: '?'
  lon: -86.202078
  name:  '193db228ecc047efb4d1c7d373ad83dd.16'
- ap: 5348
  img: http://i.imgur.com/5j1qaiT.png
  lat: 42.781053
  level: '?'
  lon: -87.757742
  name:  '9a047756efef4b0b809bdb07c058c4b5.16'
- ap: 5348
  img:  'http://lh4.ggpht.com/ryDcZUJK2aQ_fI0-hY850_t4ZmG2hNmtCx7cxbX83w3cnUWdI-ywpTuQrUVQNxGl3_DcxxNr6bupfDTsagRa'
  lat: 40.117107
  level: 7
  lon: -88.242467
  name:  'Radio Maria'
- ap: 5348
  img:  'http://lh3.ggpht.com/oHMQr2Z5LayQFbZOwOZK4ZbYQ1OVxs85-qNTvSj8epsP72vQiOdrzVmkuMPFQtCSf9Rr0oqcnSLFjLn-sPw'
  lat: 40.116592
  level: 5
  lon: -88.243236
  name:  'Champaign City Bldg. Landmark Plaque'
- ap: 5348
  img:  'http://lh6.ggpht.com/S7Utf4_59vQkAP5JhC3mdbzVLKBTt-0zoJ2UjfxUnN10VBbixO-_VwvssWd1LbFSx_yafaijd_U0wTGo870'
  lat: 40.100941
  level: 8
  lon: -88.251314
  name:  'Gabriel Patrick Maxeiner Memorial Plaque'
- ap: 5348
  img:  'http://lh5.ggpht.com/ENeQgqydWbi9-Oyf7vizunoRqJdsZV4o0RA_956wjGI8hqpTCHBPyWMpbTrrkwYpj5tgzDRvevGmvH4eFRU'
  lat: 40.099593
  level: 6
  lon: -88.251724
  name:  'Blessings from Devon Elaine Cattell'
- ap: 5348
  img:  'http://lh6.ggpht.com/qSCp5fQMlyCQ-GOAgiSFy5gaHJei705Pa3eOlJiYO5wGjZTYtjA8q7QWWfAWcLKjxZSaFiMfXOPR8SO7rWU'
  lat: 40.099353
  level: 7
  lon: -88.251876
  name:  'Raymond B. Cattell Memorial'
- ap: 5161
  img:  'http://lh3.ggpht.com/G1CvGhpethi5UmprDWxZN9rTblHa3anSsQz1UPgJtkREkfN7lDFoxFObst0609Cg5mofuZxJKr0ddNKhY4VL'
  lat: 40.098464
  level: 8
  lon: -88.251426
  name:  'Ruth Haasis Memorial'
- ap: 5161
  img:  'http://lh5.ggpht.com/0Ll2ab4pgOcvmpTrWmn4pfXaPEf2myKfU4AJY7_vKquWsFLrHBYTczg-A6Z96aQQu83na1h1jmcUN88wcd6H'
  lat: 40.117139
  level: 4
  lon: -88.191974
  name:  'Ambucs Express'
- ap: 4972
  img:  'http://lh3.googleusercontent.com/U_-4hKnh83ZT50dnywqzC7jR6ialVAMHwoWLMsG5km5adHpOU2FNmfe58sV_IDOBaVBAJbKZafokPWLzKLGgTQ'
  lat: 40.111268
  level: 1
  lon: -88.223809
  name:  'Goodwin Avenue Bridge'
- ap: 4972
  img:  'http://lh3.ggpht.com/xId6g6VicbS3F1vf-TwfkAOcAj2J4qElQNbgW1wmhWy5cxh-ZSjfN5a3K9w7mGOmQymgNDrLMQCjkUPl_ifzcA'
  lat: 40.111517
  level: 1
  lon: -88.224103
  name:  'Ceramics Building'
- ap: 4598
  img:  'http://lh3.googleusercontent.com/3nkY0B9PDqzlWJ_EKh5GnTZ8z0U6X9-2dI5dapKA5Q3F4iKrE99AJZoy6NSvh2nU1WTG2hL70276yJjJ0G8'
  lat: 40.141598
  level: 5
  lon: -88.238817
  name:  'Red Shield Center'
- ap: 4598
  img:  'http://lh4.ggpht.com/UMvDj76dmjciQ_vZTRw8gY3Lnk2_nqKRrO3PhynvLoGu5sdqvnCHOyOAGWlZiLuB0GM7PZpQIMyFChAOfg2Z'
  lat: 40.12505
  level: 5
  lon: -88.240115
  name:  'Beardsley Park South Entrance'
- ap: 4598
  img:  'http://lh5.ggpht.com/KuDVZqnpBQnne0a_UqpN4wpsQFlw3nVXAWtRKP_AdZ3CjQ0MHUBgU_2hE8hb71h31FTQbduYmB6DNuVKA0s'
  lat: 40.116822
  level: 4
  lon: -88.243445
  name:  'Remembering Horeb'
- ap: 4598
  img:  'http://lh6.ggpht.com/g00CHgvPQnSjjPtDBIePwTKCNdh3HB7MmvYFvkSM7tmZuoBJ4WaKiltQhrfxIflpUy2xiNU-Z_Z2PGCTnXfK'
  lat: 40.110725
  level: 5
  lon: -88.223784
  name:  'Anthony Leggett Superfluidity Nobel Prize Memorial Plaque'
- ap: 4598
  img:  'http://lh5.ggpht.com/5WZPQL7oa-VYm5x9viEwKiCeApkaxUNXa-mHYU-9S9_fOCFAqFLktoU4hnu-RM6tx8X0tMs2PHUyDnkS6fqI'
  lat: 40.111391
  level: 1
  lon: -88.224416
  name:  'Gone Fishing'
- ap: 4598
  img:  'http://lh3.googleusercontent.com/vw4Js8jf11Ok889K1stO5ujNjIO9Ah9DEbsg1xBTrVbaeyBetcG75B8YS8CkQA0KVC8NA5Z02n220SI1UzdB'
  lat: 40.10985
  level: 5
  lon: -88.227236
  name:  'Illini Union'
- ap: 4598
  img:  'http://lh6.ggpht.com/yD7CHjpaf-cL3AcbXXrUaGWgMnfw38K3EZbqWYVBmyEzzCK6wRavKxcIWhEcpyTBDiX61ttCH_wg2oJbEwQt'
  lat: 40.11671
  level: 4
  lon: -88.192622
  name:  'The Ron Meyer Express'
- ap: 4411
  img:  'http://lh5.ggpht.com/KadNuhjGK6FUXezGHW1W1kfPOQV5l7gJP594EQm5nPZFLTgcTsjl4ixa-j7XitgtyJyou3q0pTfMr4i2E_avIA'
  lat: 40.118013
  level: 6
  lon: -88.243445
  name:  'Clock at Neil and Main'
- ap: 4411
  img:  'http://lh3.googleusercontent.com/FMrsRGg4e1AuMu6m4uCIpM5nawtelx8reIfMtog4nuxXU9C7--UKQnUEAm9s4Vc7OfMjfIDX5loNOw4Agz2HAw'
  lat: 40.118715
  level: 5
  lon: -88.242373
  name:  'Richard D James Mural'
- ap: 4411
  img:  'http://lh3.googleusercontent.com/M1BXbCtfOfi1ipACxyQaE2jCbcLCxQTsJVIUli8GgprQaS2WmnVuSsqMoFaWub8LM6VF7KK4wSH9SSGdrXM'
  lat: 40.117287
  level: 5
  lon: -88.242984
  name:  'Mural for the Blind Pig Brewery'
- ap: 4411
  img:  'http://lh5.ggpht.com/C6wRSaEWO1NYGY5luyYZKHG3Z3aib4aflaPdV7B9G6N6adE890g3QuPRSvCUhsdFHqjoVUjo27mfz9WsjXyuhQ'
  lat: 40.100521
  level: 7
  lon: -88.250864
  name:  'Gabriel Patrick Maxeiner Memorial'
- ap: 4411
  img:  'http://lh3.ggpht.com/VrbXGwlUosNLEkVdshWUFoVa3KtlJQoEU4yLYygvftYbPCmxo644Uvar_v8Kb9RS53hB0tXgvV44GotrxZyu'
  lat: 40.098592
  level: 8
  lon: -88.251676
  name:  'Ruth and Fred Steigmann Plaque'
- ap: 4411
  img:  'http://lh4.ggpht.com/vKgqIecJshMQxrhO-ZhMjcIyARuJdyU63wKfzAG0wouZex6LVzO46Qi5zM1N3Jx8xyantDFk9sQGsSEBhb-y'
  lat: 40.101327
  level: 7
  lon: -88.251412
  name:  'Zeus Memorial'
- ap: 4411
  img:  'http://lh5.ggpht.com/1FFq1l5byXiUE1FTO1Ki4CnurAyDTSJ7tatUNPN2PTAm6auSif6bq49bEe3gkQdpk6ixuhsUd-6KYXSi9NV9'
  lat: 40.113425
  level: 6
  lon: -88.238014
  name:  'Champaign Waterfall'
- ap: 4411
  img:  'http://lh4.ggpht.com/HMXgPSuj_Qc06z-u_ElF6pgeWVoxqEAZoT0woVULj2jB8M-G8a4In71YBTnsPrCaJTLx0DFoqB8lQ2847L9M'
  lat: 40.112187
  level: 6
  lon: -88.235913
  name:  'Scott Park Pavilion'
- ap: 4411
  img:  'http://lh3.ggpht.com/tXDyz6XRrR2AKSg9Rrj1z6jBG4dz7uR9qFmSUO1bWljMEw67ncNiq-2Hx3O9Fs029iRtvCV1gdlGN7pG69L0'
  lat: 40.114104
  level: 7
  lon: -88.237694
  name:  'Lo Park Fountain'
- ap: 4411
  img:  'http://lh3.ggpht.com/1Z3mCRroEUysinW4hlDhAFNnfog3gwBM_aM8wYT6tQPiXMMmaRE9CrO5XM6QMe3UPHzMQSoxFmvWlkwOTRAv'
  lat: 40.111111
  level: 6
  lon: -88.230176
  name:  'U of I Mural'
- ap: 4411
  img:  'http://lh6.ggpht.com/eVUed3229Zh9saFzaZQcI6LXsyDB0IJxc9v-Aa9Oa0AhjQLXBIVSuu1qUQwJVXWgmXYPY9sqTzK73Le4BuU'
  lat: 40.11122
  level: 1
  lon: -88.224097
  name:  'Nuclear Radiation Laboratory'
- ap: 3848
  img:  'http://lh6.ggpht.com/5CDidk0pqfUtSW_Yqouuf3diX8drdMu9DoT728QpSz8q6A-WxNhT0yLcgM_7gGpyIAeXrHiTkIzzaVJFgnN9WA'
  lat: 40.099852
  level: 6
  lon: -88.251947
  name:  'Our Friend Tim Palmer'
- ap: 3848
  img:  'http://lh5.ggpht.com/tfAfnmo6mSMc6U0P533NMFJRGwn6lasmx-MLR2JJg1QOizMKkghFU8E7hb2zgYgdQEbgnCJUlvZIMdrrJe4'
  lat: 40.100822
  level: 8
  lon: -88.25193
  name:  'Seeds of Kindness Bench'
- ap: 3661
  img:  'http://lh5.ggpht.com/Ubq0MuIsu5MU-I8JiOC7oX_aheDNBNsG-UlSMPqA5BRkHJX9BDDUPWGQxXllzVgaxFeo23u3zu_hlJesprpNJg'
  lat: 40.133421
  level: 4
  lon: -88.280893
  name:  'Greenbelt Bikeway'
- ap: 3661
  img:  'http://lh5.ggpht.com/ZfmaOk3UM4PNzP-z0AvBPFqYLc6wAEDSPhL1cSVjXMAFSv4Jadm-hV--eP3OaJuaksphYKN5s6bhWhluTGs'
  lat: 40.133327
  level: 5
  lon: -88.280335
  name:  'Prairie Grid'
- ap: 3661
  img:  'http://lh3.ggpht.com/STEfnDDHEff3fffoWiEjvWm4SETgCRyRIvPgf92kzrsxo3sdh1SNg1AmGiFqvspDfSx0OXri-AXVfOZRWRMe'
  lat: 40.13156
  level: 6
  lon: -88.239027
  name:  'Human Kinetics Park'
- ap: 3661
  img:  'http://lh5.ggpht.com/0m1i3CJSj3bKhLj5BgXi8SFpgoihNsBoN6fpccgDU2tjtPcA5BqB1IxvR0yAX9FWkgt3_Q8gbAyGfdJDliGP'
  lat: 40.115142
  level: 6
  lon: -88.238658
  name:  'First Street Antiques'
- ap: 3661
  img:  'http://lh5.ggpht.com/-UWK84I78Sftf7yg-E2pg6xEAWTvyiThgJBJlxbqOZPYKNmzQ8uGgEEMetzplrG1HpXG5kQqNItUeXKxOHDsGA'
  lat: 40.100286
  level: 8
  lon: -88.251747
  name:  'Tennis Anyone'
- ap: 3661
  img:  'http://lh6.ggpht.com/yYW6Egg1lWn6UqqLzlgqwCQhtbuxiZSW4TmvI1XBPs33OTTJ0oh51XZXOIILxGI2juoO-E_YfG5UHmeb34rSOw'
  lat: 40.109165
  level: 5
  lon: -88.230269
  name:  'John Street Plaque'
- ap: 3661
  img:  'http://lh4.ggpht.com/j8nn4oxG37YIXPvQKVP6CBbVkveyhoHNg8O8QFxZKgbKVegaP5OdjJl8L8HTjzdBoVKPJIFHmwN26NfE9n4'
  lat: 40.111897
  level: 1
  lon: -88.222485
  name:  'Engineering Student Project Laboratory'
- ap: 3661
  img:  'http://lh5.ggpht.com/KQ7QYG8rWnVxSme_uq3cOu8IreZRbztWWKHTNPBy_6GvCqP3ywy-HEoSUxqloLDeUggEVV0UhKLy8Ja0v0yPdQ'
  lat: 40.110844
  level: 3
  lon: -88.224091
  name:  'Institute of Aviation'
- ap: 3474
  img: http://i.imgur.com/5j1qaiT.png
  lat: 41.959231
  level: '?'
  lon: -87.640317
  name:  '545997a83dd54f2ebec2222456485699.16'
- ap: 3474
  img: http://i.imgur.com/5j1qaiT.png
  lat: 41.812283
  level: '?'
  lon: -89.686219
  name:  '2c47cde8fd624412b83048dc716c978b.16'
- ap: 3474
  img: http://i.imgur.com/5j1qaiT.png
  lat: 42.356918
  level: '?'
  lon: -90.002898
  name:  '4b2b62e3565247ada71f7778b3670cf1.16'
- ap: 3474
  img: http://i.imgur.com/5j1qaiT.png
  lat: 41.816052
  level: '?'
  lon: -89.694085
  name:  'c604d1508e9c497bb0473a6aaface8c9.16'
- ap: 3474
  img: http://i.imgur.com/5j1qaiT.png
  lat: 41.962826
  level: '?'
  lon: -87.634756
  name:  '247a6de775a146a4accf8b1a11a1e0cc.16'
- ap: 3474
  img: http://i.imgur.com/5j1qaiT.png
  lat: 41.9686
  level: '?'
  lon: -87.630978
  name:  '47ea0a512aca4efc981ddb89e220e8b4.16'
- ap: 3474
  img:  'http://lh4.ggpht.com/bzGBa_8g8we9vEYlZ-a10Ugz_B36DNFCNFsnUmAPy3Aji53kcVj0FaVE28zxnedZgY5Ozi94A8obmXuFQ1vL'
  lat: 40.132632
  level: 3
  lon: -88.279968
  name:  'Vernon W Fitch Memorial'
- ap: 3474
  img:  'http://lh5.ggpht.com/nWEtxuKQdy0teBBue1DYmG7P3SF5-3A6zlB7GwVHBWlolAZYGq6Br78lWcF9ltFy-KeSlozXie2RmU6JfCUX'
  lat: 40.142673
  level: 5
  lon: -88.244603
  name:  'Italian Statue'
- ap: 3474
  img:  'http://lh4.ggpht.com/_jAAuDi8SO5uupi8JlB3HZaFG40S15izNv_3vqOt7ro2rRHuXrfdEKfEFvRESdAjCEz3RVDpyrxJGSIrju5d'
  lat: 40.117916
  level: 6
  lon: -88.243087
  name:  'Sholem Building'
- ap: 3474
  img:  'http://lh6.ggpht.com/cZVUlNaHjfsB6Lu5hnj8JjUk4lvsgOV7DFz4Nl47-RaQObW1VPRpos6hTDD6WgYrNxCh9UKfn5DFU-K7lRe9pQ'
  lat: 40.1164
  level: 6
  lon: -88.242747
  name:  'Sidewalk Art'
- ap: 3474
  img:  'http://lh4.ggpht.com/W2chhQwPqSJEkl57NVoIL-OE4KFvJfp7Bsrrxza1apCYltcT3npz95LJxqHxvT9ZZu7wxF2gQy-5bpKal2p2'
  lat: 40.115838
  level: 7
  lon: -88.241338
  name:  'Illinois Terminal'
- ap: 3474
  img:  'http://lh5.ggpht.com/D9O580D9hlBOqeMvt2V4nL-eHP62h4vG4YFgk-WTw7GunusU9AOffFuHZ9XYWoB8YrGxpCMu2Y77-LCAgcdT'
  lat: 40.119328
  level: 1
  lon: -88.243755
  name:  'Birthplace of Champaign / Beautiful Beardsley Hotel'
- ap: 3474
  img:  'http://lh4.ggpht.com/ETgOsKlMmsv5wRT-aM33VVVEgFvp3ZoMxqXmYKxROpFAYnfPqjWhltqYBG7ajEuM8XKf3mVeSaF7r9grm2t8'
  lat: 40.113448
  level: 6
  lon: -88.237188
  name:  'Boneyard Creek Second Street  Basin'
- ap: 3474
  img:  'http://lh3.ggpht.com/161K1avC8teYs8PtJMANd0cBrff72XYRYh2Gjg2_KhkEh6_F6MLd3cfHIXwK8zegd65ISEVxmEoD5THpeY-Q'
  lat: 40.112553
  level: 6
  lon: -88.236253
  name:  'Scott Park North Entrance'
- ap: 3474
  img:  'http://lh3.googleusercontent.com/ZEt3dzGoBmn_BW1MwPTE7MY4Jcoj66UkwEA7wA7H40hbb-SwJheC1V67Dh89eAbpG6H_SeWDV3E0X5lRAkQ'
  lat: 40.111342
  level: 7
  lon: -88.23557
  name:  'Boneyard Greenway'
- ap: 3474
  img:  'http://lh3.ggpht.com/MhImfPRi7WC74Qg-w4TCrNnC1hTih4TLCipNyUswQRp6HDkM5XS2cJqL0vrBH5sb7VdgzafkvLVAVEk3R-W6'
  lat: 40.105511
  level: 5
  lon: -88.227195
  name:  'Bruce Perona Memorial Plaque'
- ap: 3474
  img:  'http://lh4.ggpht.com/Zom5xkViTBf5wGkPFjYta7PfPZDicQD2VL2bQItgdzMxvQ1x7zqM3Zgynd7a6XBMT6qMAMKagxWMdpMlPcveaw'
  lat: 40.105849
  level: 5
  lon: -88.227679
  name:  'Lincoln Scholarship Plaque'
- ap: 3474
  img:  'http://lh3.googleusercontent.com/zmBaxEMhC7WvQDOei5LjXnSrM2p368YlSMZPtCtSY0t6bGsHjg5Bc91PGGsJ0oGn_hifKeBSMB_3BKH3hbwP'
  lat: 40.105567
  level: 5
  lon: -88.227662
  name:  'Freedom of the Press Plaque'
- ap: 3474
  img:  'http://lh6.ggpht.com/SboHv2_AWJ6ll559fK1A5a1UIAKf04oIHrgidra_E6L8gDK_mQ-DaM7hKYkv7MT6ZAA8pzgPxv_Vy-eNN7g'
  lat: 40.110608
  level: 5
  lon: -88.231957
  name:  '217 Tattoo Co.'
- ap: 3474
  img:  'http://lh3.googleusercontent.com/m4BfhR8F_biDdmGv1YgOItIkuAJVJbk8uEG-3oLHTGRyzY6G0nbW_Kaf4gQqQdlj439JNrBoINARSmM_VMZcVQ'
  lat: 40.109336
  level: 5
  lon: -88.208978
  name:  'Korean New Life Church'
- ap: 3474
  img:  'http://lh6.ggpht.com/JeyTR9Ntp2SxIdvTxHGqu5zXzMo7stGncs5TYYFLlRf0WEb6U4dc4EOvDZ1szjub_UqgSO_HgZ7tUKs9PUAkEQ'
  lat: 40.109634
  level: 5
  lon: -88.206203
  name:  'Zeb'
- ap: 3474
  img:  'http://lh4.ggpht.com/EveE1r4LU3oEoTrxc2hAzywPFArsSkIcAydfuBtNSmnwv76V6mqWgNEpe7srr7g3ZAOILSYHsfCdLLlwzU-9VA'
  lat: 40.110716
  level: 5
  lon: -88.207208
  name:  'Seasons Mural'
- ap: 3098
  img:  'http://lh3.ggpht.com/LR76HrJqriPFUoc2XSs7jb2SotnStZv20kI7rgUx8B5HqhmetnTW4MA1tCp1ws4g5gw0sf9g7M3Lwq4VwfpD'
  lat: 40.111687
  level: 6
  lon: -88.225353
  name:  'Transportation Building - University Of Illinois'
- ap: 2724
  img:  'http://lh5.ggpht.com/vYay8RKsCV_BP_MkeFm7se0VZoYthm-1pThiATAADleBlTsPowobgZyUoU7DUto6p5cpg9adpCcTgNR6iop0Jw'
  lat: 40.120121
  level: 5
  lon: -88.251967
  name:  'Sesquicentennial Neighborhood Sign'
- ap: 2724
  img:  'http://lh4.ggpht.com/BEyFLhgqk0ySf2zElnARv5eyaQggj_zbHSagW3_DGt9BieScmU4jGPvJCjezTjbiCP-DOJPLPfJ3HhnYAiQLEQ'
  lat: 40.119288
  level: 6
  lon: -88.248086
  name:  'The Hartford'
- ap: 2724
  img:  'http://lh6.ggpht.com/yjfa0jJLjsfLRf9Zn9iafMp3MuIhgCi0WiOCF8GqTGiGvzEnsPGrFa0H1n-uzWhVehLbt44ShthsA32VzHd5iQ'
  lat: 40.099737
  level: 7
  lon: -88.251157
  name:  'Tyler Van Atkins Memorial'
- ap: 2724
  img:  'http://lh5.ggpht.com/f710C9AvOEB7ieCI4f382wWUP4OgDxiqPzbxqxct6Ugf2PWBfyXyDpG_JcRQ6PaZ_jS0jpXXBhNSt_u9rFA'
  lat: 40.113864
  level: 1
  lon: -88.224839
  name:  'Plato: A Social Networking Revolution Begins'
- ap: 2349
  img:  'http://lh3.googleusercontent.com/OJqY1AUoZ28MDbchhtJ4BXjAeEUJsIUW9en5XctYJukeTYOV_zmwBnngt6wmdVqSjj0G4qwF-Mr7Hsqx8LKl'
  lat: 40.109736
  level: 2
  lon: -88.224983
  name:  'Methodist Symbolism'
- ap: 2537
  img: http://i.imgur.com/5j1qaiT.png
  lat: 40.106513
  level: '?'
  lon: -88.5585
  name:  'Lodge Christian Church'
- ap: 2537
  img: http://i.imgur.com/5j1qaiT.png
  lat: 39.890958
  level: '?'
  lon: -88.976114
  name:  'c75750473e7743a18bb7904b1b89dd18.16'
- ap: 2537
  img: http://i.imgur.com/5j1qaiT.png
  lat: 40.312242
  level: '?'
  lon: -88.201368
  name:  '2012 Employee Dedication Bench'
- ap: 2537
  img:  'http://lh3.ggpht.com/wkPcdDupubV3THJo6r2OpMtshziiIkqBISPTCPe8boa-8nH33u83Mznkr1yYWNR_l60RCy8HO_obqrdNGUI'
  lat: 40.093633
  level: 4
  lon: -88.246611
  name:  'Fountain at Illini Plaza'
- ap: 2537
  img:  'http://lh4.ggpht.com/Oocso9yyW_QlJlddbFRk8zzguP4PfXU8kI9T5rJbiyNwSgNMG0BmSoK3TdG2cEgH-p2Xd_vpQMxA_RcxLUP3'
  lat: 40.109066
  level: 5
  lon: -88.247875
  name:  'The Church of Scientology'
- ap: 2537
  img:  'http://lh3.ggpht.com/rgh_2qJQUPC1OrARUkiQqPKoNReiqZYOimm5Nszb77pDh72OszuyiJBKn-vDxHUuyjO2XTeKU9GBHc3oHIYr'
  lat: 40.115283
  level: 5
  lon: -88.287899
  name:  'Greenbelt Bikeway'
- ap: 2537
  img:  'http://lh3.googleusercontent.com/E_ZPlSyleqUMg0OilyQYOVjaoZT-y4SbH4plEyw9dIUNETTaaR5s71RJOIy8h5u1Ae97gUfiLGrIdMPXjNQ'
  lat: 40.11727
  level: 5
  lon: -88.286997
  name:  'Kaufman Lake'
- ap: 2162
  img:  'http://lh6.ggpht.com/ukIJOts1W6BPpII4XC4_Q5Wh8Gz8aCNeGUuAtaLknm7OKhNYvlDd71ZN8hcxCRcJDhDjV0qBZgFRyYMGNeS6'
  lat: 40.100203
  level: 2
  lon: -88.281602
  name:  'Karlee Elizabeth Feinen Memorial'
- ap: 2537
  img:  'http://lh6.ggpht.com/_MJDV4NA2u24dbhr1ulyabSdnTuUBUv1xFpOPKbit_dHtoaRkFxqDHaRZBZ196LNyiSHUE5lNT4MCbhqCrzh'
  lat: 40.098459
  level: 5
  lon: -88.282083
  name:  'Flower Island'
- ap: 2387
  img:  'http://lh4.ggpht.com/9Rg84EpxbL2Yg5gK7imF1lg4LpVcRz8fS4QGQe_hQfaeN-crjjc8p1MnWvQtnHIJ9c2N-tOiI2lgFMkIfP-V'
  lat: 40.127139
  level: 4
  lon: -88.23398
  name:  'Church of the Living God'
- ap: 2537
  img:  'http://lh5.ggpht.com/UTu16bRRNKyJj2cFsU4mRCMkGJbH7YCAm0gQdiJKjnnZtB00kMEb_-Lhf6AnAXRia4MH6FBrWQGkBCrMUz8'
  lat: 40.120135
  level: 5
  lon: -88.253121
  name:  'Rain Garden'
- ap: 2537
  img:  'http://lh3.ggpht.com/urNQaRe_wrjSAoW-Iis4CKHBvHhg6xwTvUcQPw4MqlQNK9ZuhMKEVtca2hGJnOCbyCC7ehJNuG00XZlaGXo'
  lat: 40.118898
  level: 6
  lon: -88.247032
  name:  'First Presbyterian Church'
- ap: 2537
  img:  'http://lh4.ggpht.com/mlUN5QXAR7rKFvUg7yhxcae3udkR7zCJVaWt5sq_YA47piV6tRi42RNN9fEtT_FafT7lhqg26WM1VETbz5E'
  lat: 40.098239
  level: 6
  lon: -88.25376
  name:  'Hessel Park Christian Reformed Church'
- ap: 2537
  img:  'http://lh4.ggpht.com/hJDi8J7CZU-933hT0Culp2nhslv6p8rDRPdTFz6FwNaAjB5CmfkaQzj9sM--E-QBvI8yvIJn1F2jxy7ZKWlh'
  lat: 40.10816
  level: 6
  lon: -88.234245
  name:  'Stratford House'
- ap: 2537
  img:  'http://lh4.ggpht.com/OFVPvdgB3GVpaQknHdnt2okgP3xcQksAH3wvOGYVuP85MMlxo3bQ2SRpBb0hzNfjQoC_5LlRqaE6jLB-h9Gr'
  lat: 40.108092
  level: 6
  lon: -88.234589
  name:  'Koinonia Plaque'
- ap: 2537
  img:  'http://lh5.ggpht.com/orl0d4FNIpZ7xsdZmVyH_732dMd4uGM01fQ-P5V82KufzWBOMbpankzTgjeS3frZhS7apS3qCrS2o4jtw7pAkg'
  lat: 40.105605
  level: 5
  lon: -88.227414
  name:  'Charlene E. Haight Bench'
- ap: 2537
  img:  'http://lh5.ggpht.com/2PB1u3cNuASfw9D_MIUzI1JvNofebK7zsuGqKoUApr-nUWYZ8y5CzxH6g7CdcY7ShBaVGrBrurkbwrdUPD7JBk55TH0Ouao5b_g2jUI1saBNUE8'
  lat: 40.106744
  level: 6
  lon: -88.225347
  name:  'The Red Herring Vegetarian'
- ap: 2537
  img:  'http://lh4.ggpht.com/DTGKMEvXrKSLJVBZP6bN7EF-DMHt5l_x3o-C-Ln0FjrGCQcTdcLNaZDI2_OCwEzuqgh8HyyqJwyQkc4-0H8g'
  lat: 40.106037
  level: 5
  lon: -88.226237
  name:  'Triplets'
- ap: 2537
  img:  'http://lh3.ggpht.com/x5fBw8MRogV8dm3kPO5zKNkUrQxn0dM7d1PIoASdX1_Rc8H5Duex4iZdOoIlqazCGll25TmptsWIRq1JFmj6'
  lat: 40.112135
  level: 6
  lon: -88.225762
  name:  'Computer Based Education Plaque'
- ap: 2537
  img:  'http://lh3.ggpht.com/rT55OoX-8s-w_ikrqOgpC7QkK-Iqp4ylicElGoWFagKRQ8LX3Uvv8TZ5Xc8BlId1btzo5FTbgddPN72kYwA'
  lat: 40.114327
  level: 1
  lon: -88.224492
  name:  'Siebel Courtyard Structure'
- ap: 2537
  img:  'http://lh5.ggpht.com/dEeT4acpLu-WQFlZWd3psap5qAqqPTSVzm8Qt1QtpqtwZ0j1V9eKFcmpgN9K_x1PL4XVchuevw25rxHekz3tvQ'
  lat: 40.111968
  level: 6
  lon: -88.226793
  name:  'Bardeen Quad Structure'
- ap: 2537
  img:  'http://lh5.ggpht.com/4eagHlnlpVbtFi_knZN73PIs2A--Ipj6SOlkQADePlfnzfOnJn-cAv0IoNNv4qR8WrbUFImUKHBknyaoAewO'
  lat: 40.111383
  level: 3
  lon: -88.225675
  name:  'Only Rain Down The Drain'
- ap: 2537
  img:  'http://lh3.ggpht.com/Prv8wUbEpOsrluZ4pHXYwIQLreDfbvMRV7kMb39yXob8h_r5vXNRC-wSR6pi-2NeP0uIRJsaeWtsGe96cJ_U'
  lat: 40.112295
  level: 6
  lon: -88.207196
  name:  'War Memorial @ Downtown Urbana'
- ap: 2537
  img:  'http://lh3.ggpht.com/R0zPYMelKt6ABg3zkWyG1YtEMZm-4wbpveEmzXpn4vtolg3zStvSDscmdgZ4t1YW7vbSTYCBMS74-Tmq-XPU'
  lat: 40.112166
  level: 5
  lon: -88.20625
  name:  'Abraham Lincoln - Eighth Judic'
- ap: 2312
  img:  'http://lh5.ggpht.com/POqHe98NzuBf0a60NvZTCOYoC0L6aw_FSOZMaxr88kV1-papt0D2DM7cRXxDK-_qXTmzSJspa4Zzh9ao7rOaN0iWFYVm5G01GVzh-4gAlR8OFvTH'
  lat: 40.09976
  level: 3
  lon: -88.205422
  name:  'Ann and Ben Schrumpf Memorial'
- ap: 2537
  img:  'http://lh4.ggpht.com/m41WytddHvUQZQvwN8vv-Mf6LHne1_3LkN4y39ZCxrwY2v0-Q7lDbE63wlDSkhpMjG7OxDM0LO5Sh9DNyjo4lbZBu-mAykPo3qPOd6orSfwlfucL'
  lat: 40.099946
  level: 5
  lon: -88.205936
  name:  'Blair Park Center Stone'
