- ap: 9096
  img:  'http://lh5.ggpht.com/4DJAFPeZ_w65Km7VDnsbOqouQaeBuPuxA0KHPQToT_B6o1hBxzdu3kn89UhHgv22Ygj52Fx9QqcbzOytuw'
  lat: 40.100078
  level: 8
  lon: -88.250683
  name:  'Brian Clark Memorial Plaque'
- ap: 8722
  img:  'http://lh6.ggpht.com/yjfa0jJLjsfLRf9Zn9iafMp3MuIhgCi0WiOCF8GqTGiGvzEnsPGrFa0H1n-uzWhVehLbt44ShthsA32VzHd5iQ'
  lat: 40.099737
  level: 8
  lon: -88.251157
  name:  'Tyler Van Atkins Memorial'
- ap: 8722
  img:  'http://lh6.ggpht.com/qSCp5fQMlyCQ-GOAgiSFy5gaHJei705Pa3eOlJiYO5wGjZTYtjA8q7QWWfAWcLKjxZSaFiMfXOPR8SO7rWU'
  lat: 40.099353
  level: 8
  lon: -88.251876
  name:  'Raymond B. Cattell Memorial'
- ap: 8159
  img:  'http://lh3.ggpht.com/rUgM7jkTqL0VHxvsSW0yWuNJF5UrU62ITflghfn4PfKjn6L4WGz0ALkv98fc_q9dmK9SSpU1PXIawGvcRwE'
  lat: 40.098246
  level: 8
  lon: -88.251974
  name:  'Hessel Park'
- ap: 7972
  img:  'http://lh6.ggpht.com/5CDidk0pqfUtSW_Yqouuf3diX8drdMu9DoT728QpSz8q6A-WxNhT0yLcgM_7gGpyIAeXrHiTkIzzaVJFgnN9WA'
  lat: 40.099852
  level: 8
  lon: -88.251947
  name:  'Our Friend Tim Palmer'
- ap: 7222
  img: http://i.imgur.com/5j1qaiT.png
  lat: 40.054116
  level: '?'
  lon: -88.559883
  name:  '2046c1b467af43c69e75eed0b046551b.12'
- ap: 7035
  img:  'http://lh4.ggpht.com/vKgqIecJshMQxrhO-ZhMjcIyARuJdyU63wKfzAG0wouZex6LVzO46Qi5zM1N3Jx8xyantDFk9sQGsSEBhb-y'
  lat: 40.101327
  level: 7
  lon: -88.251412
  name:  'Zeus Memorial'
- ap: 7035
  img:  'http://lh4.ggpht.com/B_I1b0Jy3vW41RX8jjCNPP68AULplU0Pf8ddolyKmpEWCfBVShQkmjF1HfTPzDjmBBQGgOs0jHW-rUR0mv8BkA'
  lat: 40.098789
  level: 8
  lon: -88.251685
  name:  'Curtis William McKinney Memorial'
- ap: 7035
  img:  'http://lh3.ggpht.com/G1CvGhpethi5UmprDWxZN9rTblHa3anSsQz1UPgJtkREkfN7lDFoxFObst0609Cg5mofuZxJKr0ddNKhY4VL'
  lat: 40.098464
  level: 8
  lon: -88.251426
  name:  'Ruth Haasis Memorial'
- ap: 7035
  img:  'http://lh4.ggpht.com/4LxsGZZMk3DnpJXUvqzrL54CHSP5TDXjUnDJyHmCCTtCJIjGEI7kxT9g4uxfSPh0X6yGLgQo1jfqbu7B8VEr'
  lat: 40.099084
  level: 8
  lon: -88.251826
  name:  'Irina P. Stewart Memorial Plaque'
- ap: 7035
  img:  'http://lh3.ggpht.com/lzCSS0_tjwUV7JQ2fgLI0e05IrzPxlVUs-6aEPOwUv67IanQJSTi71gkw0SGm8asmoE_r3Xoh048Fd9xRpE'
  lat: 40.099169
  level: 8
  lon: -88.251419
  name:  'Lyman Larson Memorial'
- ap: 6098
  img:  'http://lh3.ggpht.com/VrbXGwlUosNLEkVdshWUFoVa3KtlJQoEU4yLYygvftYbPCmxo644Uvar_v8Kb9RS53hB0tXgvV44GotrxZyu'
  lat: 40.098592
  level: 8
  lon: -88.251676
  name:  'Ruth and Fred Steigmann Plaque'
- ap: 5535
  img: http://i.imgur.com/5j1qaiT.png
  lat: 40.054845
  level: '?'
  lon: -88.559114
  name:  '95569e4aa0384feb9a08c8e2e3694613.16'
- ap: 5348
  img: http://i.imgur.com/5j1qaiT.png
  lat: 39.6245
  level: '?'
  lon: -89.0199
  name:  '61442a1b1a1a47d189de296bb28ef245.12'
- ap: 5348
  img: http://i.imgur.com/5j1qaiT.png
  lat: 42.772688
  level: '?'
  lon: -86.21244
  name:  '8552938d383e44fb8994d5885d59a9ed.12'
- ap: 5161
  img:  'http://lh5.ggpht.com/ENeQgqydWbi9-Oyf7vizunoRqJdsZV4o0RA_956wjGI8hqpTCHBPyWMpbTrrkwYpj5tgzDRvevGmvH4eFRU'
  lat: 40.099593
  level: 8
  lon: -88.251724
  name:  'Blessings from Devon Elaine Cattell'
- ap: 4411
  img: http://i.imgur.com/5j1qaiT.png
  lat: 41.964092
  level: '?'
  lon: -87.633659
  name:  '16dd983c6c30490faf1c45bfd3e1ff1e.16'
- ap: 4411
  img: http://i.imgur.com/5j1qaiT.png
  lat: 39.616368
  level: '?'
  lon: -89.020614
  name:  '5606581f52b345538caabbf7d125607d.16'
- ap: 4411
  img: http://i.imgur.com/5j1qaiT.png
  lat: 39.624027
  level: '?'
  lon: -89.01966
  name:  '2ad90b34988548428256318981d034cf.12'
- ap: 4411
  img: http://i.imgur.com/5j1qaiT.png
  lat: 41.963042
  level: '?'
  lon: -87.634398
  name:  '70afae3a6c894f6799117a1c37f05e9d.16'
- ap: 4411
  img: http://i.imgur.com/5j1qaiT.png
  lat: 39.623336
  level: '?'
  lon: -89.019624
  name:  'bb63f677d20e4b23b350e271c0350de4.16'
- ap: 4411
  img:  'http://lh5.ggpht.com/HhVreJipNvxPRVFpmsh2BPo9PcpPO2Q2l3jCpDjIKgfKGycoTNPXR4DKiYccBXW4X-4dJf_vV0ESsWAWHcChsg'
  lat: 40.100936
  level: 8
  lon: -88.250855
  name:  'Donald F. Bresnan Memorial'
- ap: 4411
  img:  'http://lh4.ggpht.com/PHV-1ZpFzCAl_ViCKwBY_x2pIDbVyaT7wJH1sTvFJCxrSdRrO1x7NaXq9OdRGwz_Mls4iwk6wuGHMBArfV54'
  lat: 40.098688
  level: 8
  lon: -88.25063
  name:  '"New Holland Yellow Dinosaurs" at Hessel Park'
- ap: 4411
  img:  'http://lh5.ggpht.com/C6wRSaEWO1NYGY5luyYZKHG3Z3aib4aflaPdV7B9G6N6adE890g3QuPRSvCUhsdFHqjoVUjo27mfz9WsjXyuhQ'
  lat: 40.100521
  level: 8
  lon: -88.250864
  name:  'Gabriel Patrick Maxeiner Memorial'
- ap: 3659
  img: http://i.imgur.com/5j1qaiT.png
  lat: 42.363848
  level: '?'
  lon: -90.535217
  name:  '82b73d5f5bea490c9b1e881e264cca1f.16'
- ap: 3474
  img: http://i.imgur.com/5j1qaiT.png
  lat: 41.964336
  level: '?'
  lon: -87.633564
  name:  '7fbe13944b5d4af78e982aada5eda453.16'
- ap: 3474
  img: http://i.imgur.com/5j1qaiT.png
  lat: 40.054303
  level: '?'
  lon: -88.559674
  name:  'e0de34c88bdb446794a1b9ccc8b2cf6f.12'
- ap: 3474
  img: http://i.imgur.com/5j1qaiT.png
  lat: 41.961753
  level: '?'
  lon: -87.635149
  name:  '6c2507186ab34c85872712308bb809fe.16'
- ap: 3474
  img: http://i.imgur.com/5j1qaiT.png
  lat: 39.85225
  level: '?'
  lon: -89.407735
  name:  '0902457b2cfb436e83e5b902773fbe00.16'
- ap: 3474
  img: http://i.imgur.com/5j1qaiT.png
  lat: 40.055766
  level: '?'
  lon: -88.55817
  name:  'd58ab4134c7045a89392fa7ae2746a7c.16'
- ap: 3474
  img: http://i.imgur.com/5j1qaiT.png
  lat: 39.852335
  level: '?'
  lon: -89.408568
  name:  'f7bd5526c2df47e3b18740f978660f66.12'
- ap: 3474
  img:  'http://lh4.ggpht.com/mlUN5QXAR7rKFvUg7yhxcae3udkR7zCJVaWt5sq_YA47piV6tRi42RNN9fEtT_FafT7lhqg26WM1VETbz5E'
  lat: 40.098239
  level: 8
  lon: -88.25376
  name:  'Hessel Park Christian Reformed Church'
- ap: 2724
  img: http://i.imgur.com/5j1qaiT.png
  lat: 41.327192
  level: '?'
  lon: -89.141758
  name:  '293203cc2664476eb7005bbc0dc0da08.16'
- ap: 2537
  img: http://i.imgur.com/5j1qaiT.png
  lat: 42.264937
  level: '?'
  lon: -89.634883
  name:  '0144fd7bebce4b9ca1f25b8f5f79385d.16'
- ap: 2537
  img: http://i.imgur.com/5j1qaiT.png
  lat: 42.154561
  level: '?'
  lon: -89.7388
  name:  'dfe33069c1024fa1a0b58c1f376fd0e0.16'
- ap: 2537
  img: http://i.imgur.com/5j1qaiT.png
  lat: 42.262742
  level: '?'
  lon: -89.634841
  name:  'bd547800b21546e085b1c6cd3fd7db67.16'
- ap: 2537
  img: http://i.imgur.com/5j1qaiT.png
  lat: 42.076038
  level: '?'
  lon: -86.505459
  name:  '7f369a48152149c3bf0fa11185994557.16'
- ap: 2537
  img: http://i.imgur.com/5j1qaiT.png
  lat: 41.887896
  level: '?'
  lon: -87.61644
  name:  'bd3c7fdd085f444690de2cf60644bfe0.16'
- ap: 2537
  img: http://i.imgur.com/5j1qaiT.png
  lat: 42.262788
  level: '?'
  lon: -89.632559
  name:  '32575a01b0c14c068931672a74295a4a.16'
- ap: 2537
  img: http://i.imgur.com/5j1qaiT.png
  lat: 41.794705
  level: '?'
  lon: -89.680392
  name:  'a80dea5461284780a3e983d148be0a02.16'
- ap: 2537
  img: http://i.imgur.com/5j1qaiT.png
  lat: 41.804238
  level: '?'
  lon: -89.689174
  name:  '0dc5746d2d3d47e19e4731f89fc890db.16'
- ap: 2537
  img: http://i.imgur.com/5j1qaiT.png
  lat: 42.153837
  level: '?'
  lon: -89.739712
  name:  'a121bc8bf889431f9344cecfe0b36305.12'
- ap: 2537
  img: http://i.imgur.com/5j1qaiT.png
  lat: 42.26282
  level: '?'
  lon: -89.631698
  name:  'f88cd768c9ba4fce90d76919a5d4f261.16'
- ap: 2537
  img: http://i.imgur.com/5j1qaiT.png
  lat: 42.289572
  level: '?'
  lon: -89.63191
  name:  'e184ea2cb5794000829cd006e0aada0e.16'
- ap: 2537
  img:  'http://lh6.ggpht.com/Jz3ahY5LQ13wKWLY9SEvexiinJa3GeO1eB_FynplikRpa77swLST6cUAJjPpqKDSq2KU4Dcyui-QBstz_Z3k'
  lat: 40.094624
  level: 6
  lon: -88.282953
  name:  'Greenbelt 2'
- ap: 2537
  img:  'http://lh6.ggpht.com/p2F3xw4xL4UdiMM9aSy628ISSglrvjPexpF3j340tMAP9MX07yh_sJv7kHVkeud8lyFf2ZwDohw3zsRS2PSd'
  lat: 40.093914
  level: 6
  lon: -88.281531
  name:  'Terry M. Warmbier Memorial'
- ap: 2462
  img:  'http://lh4.ggpht.com/9hzMj8KV-HraIucojjHAEgyMZsJAR9TWvNS-QSBB5LTYBOTwwqfTQySJ_Sz88eP3eyFWFYhx5qDVY93t8fk'
  lat: 40.108032
  level: 5
  lon: -88.225702
  name:  'Centennial Court'
- ap: 2462
  img:  'http://lh5.ggpht.com/gkIcCbfmQWyJ7s9ryhzfOOn1K-oa8huqzZN80X2psVjx_6Iur5egjGncbUIAMLiAJAf9qG1Ac8lX2MomHYY'
  lat: 40.108185
  level: 5
  lon: -88.225203
  name:  'Statue at Medical Sciences'
