- ap: 9995
  img:  'http://lh4.ggpht.com/ULEhKlvERD4aidwSKPhLFujl0N0mZWcHPxtcJ7hNJkyDjYek9yrB4UD_G8bU-O9-12L1LYpDkM068BiYmpm9weZeGJsz-K5whCvUYTfmDqaIp1Fp'
  lat: 40.117
  level: 3
  lon: -88.247111
  name:  'Wesley Robert Weedman Memorial'
- ap: 10033
  img:  'http://lh4.ggpht.com/H1kV6JSczzSbcCblAHg5ZOgITW1mBAz0_oLbqbzxBlijGTBn7TP6KwA6UI0AAGrCN4VF0DAF79Vcj6_2R4dsB8LRTq6tud6v'
  lat: 40.116164
  level: 5
  lon: -88.241661
  name:  'Zipcar-45 E. University Avenue'
- ap: 9470
  img:  'http://lh3.ggpht.com/WDQ55kRMYCIrw9Pm69IuV6cBTI2nx7Z1gU9yxX2oE2oH9EdPnO1ltxSROAjUmHmBu84SEtHmLKregkDqlLYzUg'
  lat: 40.117126
  level: 6
  lon: -88.240623
  name:  'Depot Barber Shop'
- ap: 9283
  img:  'http://lh3.ggpht.com/rgh_2qJQUPC1OrARUkiQqPKoNReiqZYOimm5Nszb77pDh72OszuyiJBKn-vDxHUuyjO2XTeKU9GBHc3oHIYr'
  lat: 40.115283
  level: 5
  lon: -88.287899
  name:  'Greenbelt Bikeway'
- ap: 9021
  img:  'http://lh5.ggpht.com/ONr7OWgjlaWwJELaKTJEC1ZVpkIkuN-2c01D2AligYZC9Zbt8lH0SMkirhrWfHdjmVDmCtzhJWoVxoZM-NM'
  lat: 40.116766
  level: 3
  lon: -88.247614
  name:  'Mary Shaw Memorial Tree'
- ap: 8909
  img:  'http://lh3.ggpht.com/hBux3yLZOMWBK1dtc47OrhISfV3SPojGgtZOxqqf7-yoc82f280WMG1r2mi43iZQsqfwzmN53VJHHHEFVs0'
  lat: 40.116458
  level: 4
  lon: -88.247065
  name:  'West Side Park Entrance'
- ap: 8909
  img:  'http://lh5.ggpht.com/FeG7Xn052FyJtG43yF0j2iYs3BdENjAx_oZUTzI70y4H0qeexU7B8NrXaT20cmXSKwnWV8xFSc3OlG_KQU09pE8fyCAYXWWPbTzC0_GZ1aynCFni'
  lat: 40.116185
  level: 4
  lon: -88.243429
  name:  'C.V. Lloyde'
- ap: 8909
  img:  'http://lh4.ggpht.com/3gTAX6rKgNjLmBOYvAVTgSPQej5yRF_38uRllp9H4n5N6pvwWo5kDMDwlIkFVPPl30BXPSGAlZ9pO9B4DMk'
  lat: 40.116218
  level: 5
  lon: -88.242141
  name:  'Live Action Games'
- ap: 8346
  img:  'http://lh6.ggpht.com/SCYK-XeMmOyfRrTt1-aQNoDA-2Sib4m5Ch26mTwo6XNdVeVnfi7W74Ik6IRLAPSoKzSS97pgwt50Jl9oSgGfP029USxZzQWKNJo3rbs-6YHBPBif'
  lat: 40.116792
  level: 5
  lon: -88.241752
  name:  'WEFT 90.1 FM Community Radio'
- ap: 8159
  img:  'http://lh6.ggpht.com/btym2_WGYuFNu2SNiR8qif7GXLMOPT7XpuHE7RPOipPC9Q5lEPfImKAzf2vm9RUe2rN0u3TePq4pM0IuZiLS'
  lat: 40.116436
  level: 4
  lon: -88.243459
  name:  'Champaign City Building'
- ap: 7972
  img:  'http://lh6.ggpht.com/5R8z1wwducaGMkvLFryu9HzC91eX02E3KDY04s9Il7Qrdw8efQiRGZ_vbgqW0Fuvp4-I_d9ugFC6lPc7lxia'
  lat: 40.113465
  level: 5
  lon: -88.291684
  name:  'Anna Jean Russell Memorial Tree'
- ap: 7972
  img:  'http://lh6.ggpht.com/ea6HxAw7m0OhhPqJJkZR9u60pR1sab_JdxaOyEltqmQd-63FFJzPY72jEnu08g9Gcjjj5cf3jyyS_M1E7OIbfg'
  lat: 40.11616
  level: 4
  lon: -88.241422
  name:  'It''s A Mistree'
- ap: 7972
  img:  'http://lh3.googleusercontent.com/5FkLhIMVmAJJSslAXVxY1RNxi-4q5mNAVPK2XgU5LwRM8qcB8BGXOK0GmF6Y_xfgPOhwF_CrbcgVZlJx-Pza'
  lat: 40.11652
  level: 6
  lon: -88.241845
  name:  'Mike ''N Molly''s'
- ap: 7785
  img:  'http://lh5.ggpht.com/WgDPQ47lNn2nlvNDPgwM_c-1MpVvxdVZtjZmFtixtr3rIi91xqYhgtSbyJGqRFnSXCUHy_RjABgEj2LSzOs'
  lat: 40.113343
  level: 4
  lon: -88.290525
  name:  'Fish Chimes at Kaufman Lake'
- ap: 7596
  img:  'http://lh4.ggpht.com/nWSZEVnpEj78GBs58tujBturUcAqKjsgYU_9v_qXRS_K_ROKLNgBwnqKopJse169VJqqWtn6oo3h_qABlaw'
  lat: 40.117571
  level: 5
  lon: -88.240851
  name:  'The Accord'
- ap: 7409
  img:  'http://lh6.ggpht.com/eeOtj4-6PU8Dt6QXk_TJjgkoEGRW9L8YzUqZE8QV5ZMCHnqA5CzoQoxKpnjCvXwaIflUUvPJmO_S7BdvMhcuzw'
  lat: 40.117588
  level: 5
  lon: -88.241787
  name:  'Adam & Eve Mourning Over the Soul of Abel'
- ap: 7409
  img:  'http://lh5.ggpht.com/dRrlHXlT2nMNgZNHiYo52ha9L-Xay9DyOJR2Cpqs74hgAJ09abn9OTAtMzRVedt1_R9ObZllLO98vRhNMfgTgVsJCk1S-HJwX_XgiGpG4lz3a328'
  lat: 40.11671
  level: 6
  lon: -88.24263
  name:  'Cafe Kopi'
- ap: 7409
  img:  'http://lh6.ggpht.com/PXc3YHSOsx0c_WrfpzvHHiHEl1FSv5RvbgXj7Ji3-xS7oBwJIkFCD8eQySiUega_iQvX8FiUBuDhXdK9l9QWIA'
  lat: 40.116623
  level: 2
  lon: -88.240844
  name:  'R. Forrest Colwell Memorial'
- ap: 7409
  img:  'http://lh6.ggpht.com/cZVUlNaHjfsB6Lu5hnj8JjUk4lvsgOV7DFz4Nl47-RaQObW1VPRpos6hTDD6WgYrNxCh9UKfn5DFU-K7lRe9pQ'
  lat: 40.1164
  level: 6
  lon: -88.242747
  name:  'Sidewalk Art'
- ap: 6997
  img:  'http://lh5.ggpht.com/77v6DfPMOKjAUzTfAuqZzYtMmpFMJV7lPr7FgQb_Fa46w1xmepHb0h-0CpG5WZy1b9vd5_DZ0uLxxZw9-DhJ'
  lat: 40.117163
  level: 3
  lon: -88.246602
  name:  'Garden for the Gardener Plaque'
- ap: 6846
  img:  'http://lh3.googleusercontent.com/hvoLMUc9UoNVVPttxWTc8PzOWdu5MBmPETnBexH7Alyl20WGCrNa0G_j7DwvD3qbhqpTaeThFhGDV2rCtp8'
  lat: 40.107629
  level: 7
  lon: -88.224484
  name:  'Bucky Balls'
- ap: 6659
  img:  'http://lh5.ggpht.com/IgNzl1mq8OGLo32nCph_TZvtqlPh79vEYYvHZb2F6YXW1jx9_ESV5dv13U9k7CRftyKHGoW2RtSSUFzPKbU'
  lat: 40.113072
  level: 2
  lon: -88.289765
  name:  'Kaufman Park'
- ap: 6247
  img:  'http://lh6.ggpht.com/rjO65LTfxlehqnFITx_AAA2JKpsmpj8hWVQifyHaji2E1suLvQntKGeHtT8TjDg7CZ94W3wDKW2MrfGY45k'
  lat: 40.11699
  level: 3
  lon: -88.247796
  name:  'Feathergill Honorary Plaque'
- ap: 6472
  img:  'http://lh5.ggpht.com/gkIcCbfmQWyJ7s9ryhzfOOn1K-oa8huqzZN80X2psVjx_6Iur5egjGncbUIAMLiAJAf9qG1Ac8lX2MomHYY'
  lat: 40.108185
  level: 7
  lon: -88.225203
  name:  'Statue at Medical Sciences'
- ap: 6060
  img:  'http://lh3.ggpht.com/yeYI3q7rDQLA5xBcWfH-Caw2Uh740ZPRQjjyvOrZz7ZyLI-gxBpi8yqxqDrlOBzG9YHs6YlxdgX0obTpXlQ'
  lat: 40.117681
  level: 4
  lon: -88.241405
  name:  'Jupiter''s Downtown'
- ap: 5798
  img:  'http://lh5.ggpht.com/BUGNnLReyCBJJj9_zpqgwv5_CAyiW8fWBpyVs0ip1hT5NEE6YKCYzlc8ahldKzk_xv-4uckNJNb6NrJd6r33qg'
  lat: 40.116989
  level: 3
  lon: -88.242255
  name:  'Blind Pig'
- ap: 6098
  img:  'http://lh4.ggpht.com/MvwoDsxwfyNLHzfGkFJl-4VFeX7OvqB0hsMCrZ2D9Olh8GSghAJDfFfDh7a7cOtMIGwEDMyesZoKvKCXAGj4'
  lat: 40.116553
  level: 6
  lon: -88.242268
  name:  'Esquire Lounge'
- ap: 5798
  img:  'http://lh4.ggpht.com/7jfpHo9VtrONulGtzUfsP3lI3AsKBnUxCQaLU9xAMpVCQbWD24db4z9Otn0Sfz_OnEXSbdwKUGm3MZBV6QZrhQ'
  lat: 40.117194
  level: 2
  lon: -88.247472
  name:  'Rebecca Mabry Memorial Tree'
- ap: 5723
  img:  'http://lh3.googleusercontent.com/L3lfMswaooWEA3nJNFGES354rtENCzxYkoWuVLXEXaTiXbqTNnsl34TRd8tbMwnGQHkAnr37-HLMutIe3_Uz'
  lat: 40.117254
  level: 2
  lon: -88.247074
  name:  'Westside Park Double Dutch-A Jump For Joy'
- ap: 6098
  img:  'http://lh6.ggpht.com/2lDM_Uj6QcUJmWkmPhNWg-vfkJbBQAo6zb7eXC5qDTaJ5xAsoU7jPPqYmLo7zztC2Za1oH3QVrHQ78-XabqR'
  lat: 40.116398
  level: 6
  lon: -88.242485
  name:  'Champaign Servicemen and Women Memorial'
- ap: 5722
  img:  'http://lh3.ggpht.com/PijfKs7HCJf1vVcIxcTF1HPOYaa5iS4ZECXZUQ2dDDSn9ZCXSd8FGHThRUiEIC-oMNmClt0seIzn8FsaGPER'
  lat: 40.112752
  level: 5
  lon: -88.289696
  name:  'El Toro Fountain'
- ap: 5572
  img:  'http://lh6.ggpht.com/Jj5dr0C8flwov23nPbKRDVme7HOE0xZvNC6JkRscLlNqRr6uxkxBExdu-rQUdt9kZtd9e5dvHsv6Vs1Hdtd9'
  lat: 40.117186
  level: 4
  lon: -88.241556
  name:  'Champaign Limestone Sidewalk'
- ap: 5348
  img: http://i.imgur.com/5j1qaiT.png
  lat: 40.272743
  level: '?'
  lon: -88.675349
  name:  'Adams Leaning Wheel Grader'
- ap: 5348
  img: http://i.imgur.com/5j1qaiT.png
  lat: 40.878365
  level: '?'
  lon: -88.777245
  name:  'a58a2b0d69594c249e6fa1e2f1d103b1.12'
- ap: 5348
  img: http://i.imgur.com/5j1qaiT.png
  lat: 40.334333
  level: '?'
  lon: -88.766527
  name:  'e080a514718246ae91d93e990746b2a9.16'
- ap: 5348
  img:  'http://lh5.ggpht.com/7MD3uqic9NvHKG2s5NBkAL6kdsBT10BzFJ6jTSaOfZS8mbyTlRDRYtizrxfH8ZvyqpRWXJHgmC5bk9imHqQf'
  lat: 40.114042
  level: 5
  lon: -88.289889
  name:  'Optimist Club Dedication 1991'
- ap: 5348
  img:  'http://lh6.ggpht.com/TtWbekdbsTWA9hOrt2dc1ID1DnRuGoRbAle9mL9aZvc_aJygqJ9jAMjqrWtVr87WnELkFrSVIpO_4VVZQ67P'
  lat: 40.113103
  level: 5
  lon: -88.290672
  name:  'Kaufman Lake'
- ap: 5048
  img:  'http://lh5.ggpht.com/BPYtoLzDqibtj79fwGYxizNqHsBoJp5OzVO4Z-75rudKppazgw7D0eoXHOpH20iQd2Uc9MHXs72-r7fOJDNzpz3KRHIpZwzmXBope3LI8GA4SfsY'
  lat: 40.117754
  level: 3
  lon: -88.241676
  name:  'Jos. Kuhn and Co. Building'
- ap: 5048
  img:  'http://lh3.ggpht.com/8Nxm7sw1mIfTkxKb-GsE_e5DuPgup8SmX1SJRLGZmvopdsQsPx8E9eDzuISKXBjwveamwn6H26EmIJZzVwkr'
  lat: 40.117449
  level: 3
  lon: -88.246902
  name:  'Champaign Park District Flower Island'
- ap: 5348
  img:  'http://lh5.ggpht.com/v26lJtVx6k_bS8UIv0cuwFV2H-bR_kPwjkydaZjqk7BOG1VyLpoQFvuFB7ZmKZpWB_uCHi70HLzZoI4xZgo1'
  lat: 40.116491
  level: 3
  lon: -88.246701
  name:  'Emmanuel Memorial Episcopal Church'
- ap: 5048
  img:  'http://lh4.ggpht.com/kikXgFanbehTzblqLlN2WzEcVgfnP2HD4JE7GI1GOKTu44g13lknkSsdu9prj71y0zKIBFJv_0RIkFW3vXY'
  lat: 40.117574
  level: 3
  lon: -88.247603
  name:  'Travis Marmion Memorial Tree'
- ap: 5348
  img:  'http://lh4.ggpht.com/4rZUtsKLzttseF-bliT_X7wEGP_joarKKLt8DNtp99fViYcqD4TAWTfZ_Ur6oEdBJdT-1JeZl4tnk_sTtgN0'
  lat: 40.116361
  level: 3
  lon: -88.247369
  name:  'Gerry Schriefer Plaque'
- ap: 5348
  img:  'http://lh3.ggpht.com/-MRGQEVV5mNMzB4sb8JAsgVC56kTzYaFEf3mpRsfXAiO4KIrLw3LGFkt7Au97yDwY-AUSfghHcri53Zpmn-Z4Q'
  lat: 40.11621
  level: 3
  lon: -88.242535
  name:  'Inman Building Historic Plaque'
- ap: 5348
  img:  'http://lh4.ggpht.com/W2chhQwPqSJEkl57NVoIL-OE4KFvJfp7Bsrrxza1apCYltcT3npz95LJxqHxvT9ZZu7wxF2gQy-5bpKal2p2'
  lat: 40.115838
  level: 3
  lon: -88.241338
  name:  'Illinois Terminal'
- ap: 5348
  img:  'http://lh4.ggpht.com/pWMrJGcrxdHbkyzK9GJLFBQdvgWtZzdJOIMHr66tCffHpsZd5e8NTrSPkYm0T9i4vtEVhARdLo6tZ7xLadU'
  lat: 40.108294
  level: 6
  lon: -88.224348
  name:  'Bird Of Prey Statue'
- ap: 5161
  img:  'http://lh6.ggpht.com/c2I39IJvSBKmCLonmhP_RN1vLEpYY1recBXFm8xpGHxES4bAN2kvAcda8ZzvT75uq0yWQCv7N_dzP6ce5-Tu'
  lat: 40.108043
  level: 7
  lon: -88.22469
  name:  'Building of Molecular and Cellular Biology Sculpture'
- ap: 4785
  img:  'http://lh3.googleusercontent.com/SjusdEZ1n6AkcvHdrM3TfGAqP_W5LJRmm4qEdm5xmdvHcBejD6Jg0kXCZaHyUk5WGeE8Zu0RrSSq_1VDXFU'
  lat: 40.117419
  level: 5
  lon: -88.240991
  name:  'Old News Gazette Offices'
- ap: 4598
  img:  'http://lh4.ggpht.com/vKkSwERLa3zQO2UUIiYl1AEruAx1QTPcP4jSmPt89PG4AviJ1WhlVVH8qmqJ0aY2gqJmHcqdZFcM2pQconc'
  lat: 40.139375
  level: 5
  lon: -88.272793
  name:  'Salt And Light Ministries'
- ap: 4598
  img:  'http://lh5.ggpht.com/ulBje3DZHcOGkPDTXihNL1tamRAm_GO1CREW8fA5fV0Znq1eF2J1hnbSZh35emEA1h9cL1qTj9FqGtb8VywgXQ'
  lat: 40.13765
  level: 4
  lon: -88.273074
  name:  'Garden Hills Park'
- ap: 4598
  img:  'http://lh3.googleusercontent.com/hJZWoErzM-MuXulq4FlhlZwMbJX1Isd81GBUBVKayd57jVIVxUle3itd-1DRKo2VaNXznWr1X639fa44Etk'
  lat: 40.141919
  level: 6
  lon: -88.244611
  name:  'Marketplace Mall Carousel'
- ap: 4373
  img:  'http://lh4.ggpht.com/ryDcZUJK2aQ_fI0-hY850_t4ZmG2hNmtCx7cxbX83w3cnUWdI-ywpTuQrUVQNxGl3_DcxxNr6bupfDTsagRa'
  lat: 40.117107
  level: 4
  lon: -88.242467
  name:  'Radio Maria'
- ap: 4598
  img:  'http://lh6.ggpht.com/4lSW4EwRiN3ZMZYjxrHWvIT7z6LDW-K6E686ImBYJg9AY_QNi-hZrn6ok63-XHe6Ls0E5tiQUt_QiGwGXvsqnA'
  lat: 40.116613
  level: 3
  lon: -88.240555
  name:  'Mural at the Station'
- ap: 4598
  img:  'http://lh3.ggpht.com/eIZLSi2oHXQIznnki3LOUvKrTTcJ6a2d9xmuW9B9IjzRMAyaWG19Qw6gTUGWsC5V7R3LlRVD-ySQPp_6uK_aZw'
  lat: 40.117519
  level: 6
  lon: -88.240577
  name:  'Spiral Flight'
- ap: 4598
  img:  'http://lh6.ggpht.com/BANSBFfuZ3_0ya-JodV7jEB1a-DwSOyegBwPKAODSUFHLmvI7b8zwSiLUAvvqIAYjpU6S_Lm8XRBJ30KDGCIEg'
  lat: 40.116917
  level: 3
  lon: -88.24078
  name:  'North Star Sculpture'
- ap: 4411
  img:  'http://lh3.ggpht.com/07XrBN-er6Ecleor0n9RJ4DfGO6B2yn-ZxjI-Uy8Ba46Jtb6cXNVmATPiPiGyk-1jZ4wxa7-EeIWbWUqArCG'
  lat: 40.142554
  level: 5
  lon: -88.243468
  name:  'Dog Heart'
- ap: 4186
  img:  'http://lh6.ggpht.com/hmDofhQgtMboyY40gAShyf0g__uH_qYaFzVKnGKShUBNn-JjwpN526PPOYKyq8kvusIGRrMQIZ7ozPedDVm4iA'
  lat: 40.117495
  level: 4
  lon: -88.241616
  name:  'Lincoln Building'
- ap: 4411
  img:  'http://lh6.ggpht.com/cnBQN3RYcZFSdxYB52bvMYRD2aTSlDG0_cqBQ8coo0ueKTtGxldE0xGjNPF6xlYJtnba8oUyEKwBeYbO8CY5'
  lat: 40.116631
  level: 5
  lon: -88.246951
  name:  'Lyle Blue Memorial'
- ap: 4261
  img:  'http://lh3.ggpht.com/oHMQr2Z5LayQFbZOwOZK4ZbYQ1OVxs85-qNTvSj8epsP72vQiOdrzVmkuMPFQtCSf9Rr0oqcnSLFjLn-sPw'
  lat: 40.116592
  level: 3
  lon: -88.243236
  name:  'Champaign City Bldg. Landmark Plaque'
- ap: 4186
  img:  'http://lh5.ggpht.com/KuDVZqnpBQnne0a_UqpN4wpsQFlw3nVXAWtRKP_AdZ3CjQ0MHUBgU_2hE8hb71h31FTQbduYmB6DNuVKA0s'
  lat: 40.116822
  level: 2
  lon: -88.243445
  name:  'Remembering Horeb'
- ap: 4411
  img:  'http://lh5.ggpht.com/XQVr2AUWddJQMpYbapEIpcTLBeBvcpgmW016VjkAOXrp8_P2VsMxQY8FVhtDhA73iTCXCPiydjFIJcbcSa8_'
  lat: 40.116206
  level: 4
  lon: -88.24306
  name:  'Indigo Art Gallery'
- ap: 4411
  img:  'http://lh6.ggpht.com/tEtHQ3gjXHp940OLn9txVBSOCdT8UfYUs3C29Cgx6HiCLrS3KBboU3Wms2rEVMQWEf7lf67xfK7MIUmimDw'
  lat: 40.116631
  level: 3
  lon: -88.247334
  name:  'Jack C. Richmond Lion''s Club Bench'
- ap: 4186
  img:  'http://lh5.ggpht.com/2jocF-ooKfacyT7HSwrwNcZTSN02yFkcmXBkPx777CYuD5O6sHPHwyUabblNOl_37YOxba1Gjid-TOwLVBlJ8g'
  lat: 40.116448
  level: 2
  lon: -88.248459
  name:  'Uppercutted Sculpture'
- ap: 4411
  img:  'http://lh5.ggpht.com/ZAQQMo0g8dPiNKbmyCGqg9AkmfoW8FzqAcUNP-9buWZIQhHPeijk0LUaIvIY2yZTCOy0nd-9jGV_uR7-XY8J'
  lat: 40.117334
  level: 5
  lon: -88.240517
  name:  'Glory Pipes 2.0'
- ap: 3848
  img:  'http://lh6.ggpht.com/duOeXcOSQLWosdD0JJXg3pWWQp4t5sL0x9qDHoTIBFNOzEW0t53Lt2cnwgV2E_Su0l1ajIQxPtVbbK_sDRaS'
  lat: 40.141775
  level: 6
  lon: -88.242671
  name:  'Marketplace Mall Fountain'
- ap: 3661
  img:  'http://lh3.googleusercontent.com/E_ZPlSyleqUMg0OilyQYOVjaoZT-y4SbH4plEyw9dIUNETTaaR5s71RJOIy8h5u1Ae97gUfiLGrIdMPXjNQ'
  lat: 40.11727
  level: 5
  lon: -88.286997
  name:  'Kaufman Lake'
- ap: 3661
  img:  'http://lh5.ggpht.com/QruW49d2dc1uhQlK1BaZIeo6ruDNkqQfmvZz83eQ-1aC9ytGUcpFaHnKRTnXRc70F2EZ0-pVKGr9Slo0_9RfxA'
  lat: 40.139749
  level: 5
  lon: -88.273955
  name:  'Northside Church of Christ'
- ap: 3661
  img:  'http://lh6.ggpht.com/MzDfG6eMMwVr56zIpVxRJKU2aoUq-95CLeBhoiEQQKzpC2zulq5jFDLv1IK0JcRy5Q0PhRAreZ1p2ElsdnNu'
  lat: 40.108048
  level: 6
  lon: -88.226279
  name:  'Nuclear Magnetic Resonance II Plaque'
- ap: 3661
  img:  'http://lh6.ggpht.com/BzDhCANV_iNTHhKFBGLuaUqOvChRZtPWnJ2Xk4h7NsKJHmTGgCWtFHWv2PpDA2fCsHHKSCRTrUNK8AKrLRnS'
  lat: 40.108066
  level: 6
  lon: -88.230687
  name:  'Community United Church of Christ'
- ap: 3474
  img: http://i.imgur.com/5j1qaiT.png
  lat: 40.441099
  level: '?'
  lon: -89.313489
  name:  'fa303e162e1349c7ac2d93cf3df18bf0.16'
- ap: 3474
  img: http://i.imgur.com/5j1qaiT.png
  lat: 40.940924
  level: '?'
  lon: -88.579844
  name:  '11a3e2cd969c410eb119ebd99257965e.16'
- ap: 3474
  img: http://i.imgur.com/5j1qaiT.png
  lat: 40.392777
  level: '?'
  lon: -88.872222
  name:  '457d173f728846fbaf0e7d83f3625cba.11'
- ap: 3474
  img: http://i.imgur.com/5j1qaiT.png
  lat: 40.009462
  level: '?'
  lon: -89.285372
  name:  '2004915b6d3348c89d837978cd9cd14e.16'
- ap: 3474
  img: http://i.imgur.com/5j1qaiT.png
  lat: 40.315862
  level: '?'
  lon: -89.169925
  name:  '5309f922fe6c4222b4d34f8cde23db27.16'
- ap: 3474
  img: http://i.imgur.com/5j1qaiT.png
  lat: 39.978874
  level: '?'
  lon: -89.840093
  name:  '64d1742712134348ad75e983d6019cbf.16'
- ap: 3474
  img:  'http://lh5.ggpht.com/pSVHjk6puyYdv3ztHlpJGnbkZyGsGsirMnxkDhlt8UMko4AhtTQbrzwInBCu5lK4Ttf7furE5pNW2AZh8HuSZQ'
  lat: 40.138109
  level: 5
  lon: -88.270158
  name:  'Glory Center International Church'
- ap: 3474
  img:  'http://lh5.ggpht.com/nWEtxuKQdy0teBBue1DYmG7P3SF5-3A6zlB7GwVHBWlolAZYGq6Br78lWcF9ltFy-KeSlozXie2RmU6JfCUX'
  lat: 40.142673
  level: 5
  lon: -88.244603
  name:  'Italian Statue'
- ap: 3174
  img:  'http://lh5.ggpht.com/k_9eqZVvGcr3ZNyeeSNDM1-Y7od35KmnQQptB9usrdpTdpGW2c_5-12rYy9hGazdx7qhlYrEXxaJ_ZIVFywlcA'
  lat: 40.106706
  level: 3
  lon: -88.232116
  name:  'Illini Tower'
- ap: 3474
  img:  'http://lh4.ggpht.com/S734i_6SihPtJW8WdegLb3gEuKeNx8e1qDm6CXjREzYHohw7XqL82m4EF2K5nS2TixHweLn3EuJ4YoQnrsw'
  lat: 40.107751
  level: 4
  lon: -88.231532
  name:  'Graduate School of Library and Information Science'
- ap: 2911
  img:  'http://lh6.ggpht.com/pxaCt7clhIXc1RVGMMJZsmnbEWNWjFYJiUrQMev_SeOmXBothvOzmfnirQ5_W8CMa7hpigqydQhKMa4XFCAi'
  lat: 40.108173
  level: 6
  lon: -88.230209
  name:  'Mural on South Sixth Street'
- ap: 2724
  img: http://i.imgur.com/5j1qaiT.png
  lat: 40.312242
  level: '?'
  lon: -88.201368
  name:  '2012 Employee Dedication Bench'
- ap: 2724
  img: http://i.imgur.com/5j1qaiT.png
  lat: 40.172593
  level: '?'
  lon: -88.239993
  name:  'Faith Baptist Church'
- ap: 2574
  img:  'http://lh6.ggpht.com/XsUl74M1oxj6ptAvGEBOMH2wivRhxBNns62UJSGcPiQkuJIgPrmUYxMpSZZUfXRMMjrwoxlFK_DbAM78UrOh'
  lat: 40.113499
  level: 4
  lon: -88.244374
  name:  'Shatterglass Studios Mural'
- ap: 2349
  img:  'http://lh5.ggpht.com/1fPvqpqXG5PDCkmegoWb9Tv9N5_MZh9XjmZpbyNEs5yPDsCscbrPB1cO_Pf8GT35HYrTF01FZ6s5VPIpjJ_20A'
  lat: 40.107098
  level: 2
  lon: -88.228984
  name:  'Saint Andrew''s Church'
- ap: 2724
  img:  'http://lh4.ggpht.com/l4w3T1e27S5zPAMN3Mr-LqJ51cbm26ThR-ubvfUFHpl28dkeRb_CQThuhJ_HSNhdYt_dX9NTAN9hKFsDeWJQ'
  lat: 40.108295
  level: 4
  lon: -88.224083
  name:  'The Landing'
- ap: 2724
  img:  'http://lh6.ggpht.com/fBCIw-ohQqPYmU_DWfwbcZnXqbmVh6zOWlUta8mx1F53zxG1Wxr08J9-fOCaz1B9i_8Nb3Il_kqdxzdyRyc'
  lat: 40.109043
  level: 3
  lon: -88.224397
  name:  'Archaea Plaque'
- ap: 2724
  img:  'http://lh5.ggpht.com/MWJ2u6CgyftB6h05_WRqj_eYi-vhbwuOZ_9mxAS3eS-wY6XbpKlfBgzmohkwEj6Q2FoR0mm678IAtKTcei8'
  lat: 40.106846
  level: 2
  lon: -88.226647
  name:  'Illini Supersweet Corn Plaque'
- ap: 2724
  img:  'http://lh3.googleusercontent.com/O0A6xsiat2O0IjuyckSS9k1cq1UOF3Cie-GIi1L5d58akNeRMYcb7agKQErL26RwfdgTl-W4anRPPhu-lKpy'
  lat: 40.128515
  level: 5
  lon: -88.212038
  name:  'Busey Woods Trail - A Helping Hand'
- ap: 2724
  img:  'http://lh3.googleusercontent.com/5Te-dafekqHMAY-HjKfNk0CcYyFpxK86OuYWSOTFv8saT6pfl_rqyJMVlnF2ccsu1T2mA6ScXOl5SUPIMypR'
  lat: 40.126769
  level: 5
  lon: -88.215041
  name:  'Busey Woods Swampland Overlook'
- ap: 2724
  img:  'http://lh3.googleusercontent.com/__dofGL-oELNLYymrJ5VDONThxrG0oMe5aQcopgTFJgu56wHeV1y-scJDNms_C4LRoqDe-qKwDBNRNkCiJnNUQ'
  lat: 40.127703
  level: 5
  lon: -88.211526
  name:  'Busey Woods Trail - Wet to Dry'
- ap: 2724
  img:  'http://lh5.ggpht.com/n-WJVk4VFfgCVfLuyItrEjDCHgOd5YN1Z1ts6qT6-RmXvFyDeNKYarXwzwHKyd5B9tGmezRoEzKX4EFKmaY'
  lat: 40.124947
  level: 5
  lon: -88.210509
  name:  'Trail Marker in Busey Woods'
- ap: 2537
  img: http://i.imgur.com/5j1qaiT.png
  lat: 40.196436
  level: '?'
  lon: -88.380815
  name:  'e3f5b5440cee404493661424c7ba263c.16'
- ap: 2537
  img: http://i.imgur.com/5j1qaiT.png
  lat: 41.656745
  level: '?'
  lon: -90.077607
  name:  'dfffcd70df9842bcb26c93e06ed75bd7.12'
- ap: 2537
  img: http://i.imgur.com/5j1qaiT.png
  lat: 41.570778
  level: '?'
  lon: -89.127801
  name:  '4bf70cbe46bb41489e8108e397ed5b30.16'
- ap: 2537
  img: http://i.imgur.com/5j1qaiT.png
  lat: 41.37168
  level: '?'
  lon: -90.165095
  name:  'c95c110111b44cd08149a1712123ed13.16'
- ap: 2537
  img: http://i.imgur.com/5j1qaiT.png
  lat: 41.556376
  level: '?'
  lon: -89.460081
  name:  '6c12dc3974dc45158c01b41e37791b4b.16'
- ap: 2537
  img: http://i.imgur.com/5j1qaiT.png
  lat: 40.121245
  level: '?'
  lon: -88.646546
  name:  'fc8d491c7aca43cd85f6b908fdeb1e0b.16'
- ap: 2537
  img: http://i.imgur.com/5j1qaiT.png
  lat: 42.734611
  level: '?'
  lon: -87.772005
  name:  'ed9c6f0f26c844e1be1b506defbab8a5.16'
- ap: 2537
  img: http://i.imgur.com/5j1qaiT.png
  lat: 41.962826
  level: '?'
  lon: -87.634756
  name:  '247a6de775a146a4accf8b1a11a1e0cc.16'
- ap: 2537
  img: http://i.imgur.com/5j1qaiT.png
  lat: 39.986664
  level: '?'
  lon: -88.263703
  name:  'a85dfd2e3bf348b187b00223745cd8ad.16'
- ap: 2537
  img: http://i.imgur.com/5j1qaiT.png
  lat: 39.970363
  level: '?'
  lon: -88.349161
  name:  'b5cc5d8af6734321b8c8b1abb7dc3dc6.12'
- ap: 2537
  img:  'http://lh3.ggpht.com/5awYU9vtQhrJgqVWTgorW3FfOKgjEZtgRjWYRBTLqZxOOiuKje_aALtsSDOrslkMHWZqO4ZLwael60DZWxY'
  lat: 40.111807
  level: 4
  lon: -88.295361
  name:  'Unity Baptist Church'
- ap: 2537
  img:  'http://lh5.ggpht.com/8EXhrgcMBH0nDBQWTAlAwNIhxzaY7maIjYjg3fJnzGIp6_FNs98dPrYY4mtl4vhkPI5WQ1Xp8_V4vj2hAb9a'
  lat: 40.112026
  level: 5
  lon: -88.295327
  name:  'Carpenter''s Union Hall'
- ap: 2537
  img:  'http://lh3.googleusercontent.com/GDPeCcTdJQAFt7LgbquPo-YOAp7bq5HCFbElMBeXztI4hraTGO-j1GcNOwKaaSRRLcEHG13Gu-VDboEG4a7-'
  lat: 40.149097
  level: 6
  lon: -88.276148
  name:  'Illinois Heartland Library System'
- ap: 2537
  img:  'http://lh3.googleusercontent.com/3nkY0B9PDqzlWJ_EKh5GnTZ8z0U6X9-2dI5dapKA5Q3F4iKrE99AJZoy6NSvh2nU1WTG2hL70276yJjJ0G8'
  lat: 40.141598
  level: 5
  lon: -88.238817
  name:  'Red Shield Center'
- ap: 2537
  img:  'http://lh3.ggpht.com/6Fer3GtYrst46oErqZdyi-cArt8MkVMBnho4Lei9skNu9ne3ktFspBwKvXS0rum8O2K7Qpso6J6lO0sipio'
  lat: 40.110656
  level: 6
  lon: -88.240991
  name:  'Mural At Wild Side '
- ap: 2462
  img:  'http://lh3.ggpht.com/IKYzmqr6aeIX2d99jn1dQHjjq0-h7glRdyPEPoTdQnggoAgc8uutzh3X4OYjcCllXVp5r9rYyYnVPwNALI8B'
  lat: 40.115178
  level: 5
  lon: -88.246191
  name:  'Clark Bar'
- ap: 2537
  img:  'http://lh3.ggpht.com/9aQBG-poFARclK9XL7iFIvWePkawZwWhv4Sh0zQhQ0Sy9gdDD508d4gCtpcUP9UNoYM6uztea0aQ05RPd9rZLg'
  lat: 40.115412
  level: 5
  lon: -88.245046
  name:  'Eddie Thorpe''s Memorial Rock And Tree'
- ap: 2537
  img:  'http://lh6.ggpht.com/uJ6kk4uQVfzQ22nbmRS5caadkRcM8fSpAlbvgM8KacYRDBYZtQTBKIHX7ju9ejvrdRG_oIr5QDELOwvb7L0'
  lat: 40.121759
  level: 5
  lon: -88.24366
  name:  'King''s Assembly Church'
- ap: 2537
  img:  'http://lh5.ggpht.com/hjAc940kWyt9QT4G_BJyJKaTef3jL_Njnm8ubUtQD7u6qVsD9_7TiJbgZpKeqAv60kNw8FYspVxkn-Bt1cxYBw'
  lat: 40.109959
  level: 6
  lon: -88.24318
  name:  'Mini Park II Sculpture'
- ap: 2462
  img:  'http://lh5.ggpht.com/wX6-mbTE7nT00T6ildapKbI5ZrnhPIt4l91DhMseyo3GYFrgQIuqbjh8ntZY6NxGZ-qa6fKWlyoBOPdIdNIt'
  lat: 40.114653
  level: 6
  lon: -88.243729
  name:  'The Phoenix'
- ap: 2537
  img:  'http://lh4.ggpht.com/vLN74xdc8Mdgab4UjP1QUbyX42bkPBXnIqzYzkmRDi4naHiBk2kM1wUA7Mx3Pxl1dpPoMBAg9pV956MqTDk'
  lat: 40.068391
  level: 5
  lon: -88.242282
  name:  'Dohme Park Flags & Mural'
- ap: 2237
  img:  'http://lh3.ggpht.com/dlNcqhZvSXijpkfvwOrcW3aTD-ILaZMONMnmaEZv35uhdz7QbonCx9poCoucdHPTAu4q8P67w-GccKI-V7n2'
  lat: 40.068578
  level: 1
  lon: -88.241988
  name:  'Ernest R & Marian Adair'
- ap: 2537
  img:  'http://lh4.ggpht.com/9hzMj8KV-HraIucojjHAEgyMZsJAR9TWvNS-QSBB5LTYBOTwwqfTQySJ_Sz88eP3eyFWFYhx5qDVY93t8fk'
  lat: 40.108032
  level: 5
  lon: -88.225702
  name:  'Centennial Court'
- ap: 2462
  img:  'http://lh5.ggpht.com/2PB1u3cNuASfw9D_MIUzI1JvNofebK7zsuGqKoUApr-nUWYZ8y5CzxH6g7CdcY7ShBaVGrBrurkbwrdUPD7JBk55TH0Ouao5b_g2jUI1saBNUE8'
  lat: 40.106744
  level: 5
  lon: -88.225347
  name:  'The Red Herring Vegetarian'
- ap: 2537
  img:  'http://lh5.ggpht.com/kElaGOaV9aI8SrnM1D65gx9J0Ky1AKrN9Yo-pXVmDhELt2pee4MwVRiCqCmlqWzUWj5pS33GnEzAiXmiWKsw'
  lat: 40.108111
  level: 6
  lon: -88.229625
  name:  'Illini Sports Mural'
- ap: 2537
  img:  'http://lh6.ggpht.com/WtqWBwqpYTSw3g9ru5NwcFn5iK5STxWgy2kv4OUTWqwtzx76-9Msz0eqoiw0qpEYE1U4zdt9rzzNZMDNagNg'
  lat: 40.107943
  level: 5
  lon: -88.226751
  name:  'Class Of 1917 Plaque'
- ap: 2237
  img:  'http://lh4.ggpht.com/3_LELG2r-A5s2d-x2dWyz6h7HzfjVR_KZn9AG0vhih9EalQIG43iL6LdKqKNpnGdGwguP9ZfnGF0KMq_KDE'
  lat: 40.105799
  level: 3
  lon: -88.230188
  name:  'Color Glass Windows at the Newman Center'
- ap: 2537
  img:  'http://lh4.ggpht.com/7U0YXCB_DIhnqPJyjyLpNn6kg4lU8HvKL87ddBKWq1sptvVLvCEiCuNEnghQtqDGSN2OBNcOUK9nZcYjY4Vr'
  lat: 40.107887
  level: 5
  lon: -88.225998
  name:  'Lifesaving Antibiotic Plaque'
- ap: 2537
  img:  'http://lh5.ggpht.com/pnMcOl0FAs-A861T6mvs4EQGCm08ZQGxUcMdclhxsgyUThD6KymilbixZqTcT464ZFRUnjMoFee37DuNXxcm'
  lat: 40.10719
  level: 4
  lon: -88.226585
  name:  'College of Agriculture'
- ap: 2537
  img:  'http://lh6.ggpht.com/xxeIna-Mp_s6sWP2q0pQb8ArgRjTHMAPs_70QPHu6125M3ToW1y8q40xpyyMdqzNrz8XipF7ZIQUKsy1fBtX'
  lat: 40.116846
  level: 3
  lon: -88.19223
  name:  'The Ambucs Park Woodland'
- ap: 2537
  img:  'http://lh5.ggpht.com/0Ll2ab4pgOcvmpTrWmn4pfXaPEf2myKfU4AJY7_vKquWsFLrHBYTczg-A6Z96aQQu83na1h1jmcUN88wcd6H'
  lat: 40.117139
  level: 3
  lon: -88.191974
  name:  'Ambucs Express'
