- ap: 6472
  img:  'http://lh6.ggpht.com/j712bbvDknzGlAU87nZA1Bx45Ng-0MGA9Uvuv-3WzIKA3W51mXOZpJ-TzVSbuU3uE2AsJ5wcO7_B6WDpdRr0'
  lat: 40.110684
  level: 6
  lon: -88.226053
  name:  'BCS Superconductivity Theory Plaque'
- ap: 6098
  img:  'http://lh3.googleusercontent.com/erdNDM4HaNMn_EeFz0IoM_0LQWykLGJ1Y7-URXSvEithPHs8Rnwf7oWZyxVKu7qOpPdKjeeCy3dkywZ7n6KrsA'
  lat: 40.111615
  level: 6
  lon: -88.235593
  name:  'Fred B Lamb Trail'
- ap: 6098
  img:  'http://lh3.googleusercontent.com/0hydzoUNO41CcF2qZhlhMbaEgMVFjql3_RSDgrJLVIToqRsqh2aBcAoXsrxAlwXqgTcB1R71HZiHrjq1KdnXgA'
  lat: 40.11243
  level: 7
  lon: -88.235749
  name:  'Fountain at Scott Park'
- ap: 5348
  img:  'http://lh6.ggpht.com/I-l0KMezFAwrNcsN5-RPQCQbH4VnCa-C2GtwAQwrtAOcyFmOp_PxGmTwtTHCrR-O1hokLKIrtjyzuTsdP1E'
  lat: 40.112048
  level: 6
  lon: -88.236887
  name:  'Scott Park Rain Garden'
- ap: 5348
  img:  'http://lh4.ggpht.com/eoFw5gx9tcBj51FvuWLBsaFZ7TdxW0i1ez8HiVWtHsPE262Fcf5-fE7MAIzvgDr2tLCZzG79np6cdQDZzWou'
  lat: 40.112029
  level: 6
  lon: -88.23655
  name:  'Scott Park Bridge'
- ap: 5348
  img:  'http://lh3.googleusercontent.com/OJqY1AUoZ28MDbchhtJ4BXjAeEUJsIUW9en5XctYJukeTYOV_zmwBnngt6wmdVqSjj0G4qwF-Mr7Hsqx8LKl'
  lat: 40.109736
  level: 6
  lon: -88.224983
  name:  'Methodist Symbolism'
- ap: 5348
  img:  'http://lh6.ggpht.com/BsXdEO7HLxNLSdztPo_4GNNcbxZCxswiDT4pmmcfDQ8YO2SFVW-VnwyEZBvkuhf1rxKAtoKNLvV4rDJ-YVCYUK1qiX-dId_R8P-JskyFYAK9ruM-'
  lat: 40.110234
  level: 6
  lon: -88.224055
  name:  'The Etc'
- ap: 4785
  img:  'http://lh3.ggpht.com/LR76HrJqriPFUoc2XSs7jb2SotnStZv20kI7rgUx8B5HqhmetnTW4MA1tCp1ws4g5gw0sf9g7M3Lwq4VwfpD'
  lat: 40.111687
  level: 6
  lon: -88.225353
  name:  'Transportation Building - University Of Illinois'
- ap: 4598
  img:  'http://lh3.ggpht.com/oSQ_YOHo2mfYjOa8bPK9ellznKK29UluW-SeXoGYra9VFg8dJp6YQRdHbHHaTExqXs1qUMBNmpI2hUPcC4GI'
  lat: 40.106789
  level: 7
  lon: -88.222992
  name:  'Beginnings of Computer Music Plaque'
- ap: 4598
  img:  'http://lh5.ggpht.com/OF0rdXnVnZe6syFsa4G9CE6iyvhfoYQN3QH9RESyB78MTKDC2NXYJuVd0TAnACMccmsKXhNcBH6qzWy9DPQ'
  lat: 40.105073
  level: 3
  lon: -88.231952
  name:  'University of Illinois Armory'
- ap: 4411
  img:  'http://lh3.ggpht.com/g1H1SJintXK5Zb7ng6DN7wix1q5otnzMK5JCJDnecwuIiohJmhXLJs1XzItxaTSYEuPPOqd4x-dGqd0WK5YU'
  lat: 40.13349
  level: 5
  lon: -88.313072
  name:  'Sunset Skate Park'
- ap: 4411
  img:  'http://lh3.ggpht.com/xSCQSCRT6pHyQi9LDI3OamMdZnhLQ06OSlHRHnJC0FkDo93VgOcr3gyAV0aPAKagwq9V5iViSSCgIr6_fWCB'
  lat: 40.134441
  level: 5
  lon: -88.314067
  name:  'Seasons Within the Wetland Environmental Sign'
- ap: 4411
  img:  'http://lh5.ggpht.com/NUOCD82iNRGW1NGqEC4FKet1u5_cm4WRNc2c9_YABAjGf6-OSCLz7HgYkP1ZuVAbpMl6Qi10HRW16Oc9jNM2'
  lat: 40.106401
  level: 4
  lon: -88.236182
  name:  'Washington Park'
- ap: 3848
  img:  'http://lh5.ggpht.com/ek0AuIkZd5CWKmIdjFjq5gOvptOzC8VJUnyatNG8ZyUoT8-mvkd4seW8Gpbl4kkgiatIbr57h5kK_5z6NSGD'
  lat: 40.131581
  level: 5
  lon: -88.312816
  name:  'Sunset Ridge Park'
- ap: 3848
  img:  'http://lh3.ggpht.com/wOZOXhKOnhbKEPMQke-zGIG_vheDkHM8q19B1n_is5H7t1whBcQxBIGZI6VIPNw8mdCNXG6EUZeSjd1YLdngdg'
  lat: 40.108965
  level: 5
  lon: -88.227184
  name:  'U of I Mother''s Association Plaque'
- ap: 3848
  img:  'http://lh6.ggpht.com/hPutcAvS7zQN-tagfEY-fvkvdlgj7j5sZwUSLY883Twc7tHyslIAp7lzWYciJmCytDfsbFQtavAlzqGwCgFZkw'
  lat: 40.105562
  level: 1
  lon: -88.234991
  name:  'Acacia House'
- ap: 3661
  img:  'http://lh5.ggpht.com/TwKxvDv1ImbH5RTs7GHqqK_rPohVtqtgToH7YuDkkwa5BRFiMEcY1vWcFrJLkhaXW6cd2YVL0_Vro2JaA3K1'
  lat: 40.131575
  level: 4
  lon: -88.314062
  name:  'Mark L. Rambow Memorial'
- ap: 3661
  img:  'http://lh6.ggpht.com/pRR6eCp2PyD3vDZlmHjKOeq8OKg0KhFPVnuWAP-pB7RR36eKA3TlQwYX5pwYfBjPyVyB4oPXXOomdbqpVcY'
  lat: 40.116065
  level: 5
  lon: -88.313206
  name:  'Alan Green Memorial'
- ap: 3661
  img:  'http://lh5.ggpht.com/2PB1u3cNuASfw9D_MIUzI1JvNofebK7zsuGqKoUApr-nUWYZ8y5CzxH6g7CdcY7ShBaVGrBrurkbwrdUPD7JBk55TH0Ouao5b_g2jUI1saBNUE8'
  lat: 40.106744
  level: 6
  lon: -88.225347
  name:  'The Red Herring Vegetarian'
- ap: 3661
  img:  'http://lh5.ggpht.com/dEeT4acpLu-WQFlZWd3psap5qAqqPTSVzm8Qt1QtpqtwZ0j1V9eKFcmpgN9K_x1PL4XVchuevw25rxHekz3tvQ'
  lat: 40.111968
  level: 5
  lon: -88.226793
  name:  'Bardeen Quad Structure'
- ap: 3474
  img: http://i.imgur.com/5j1qaiT.png
  lat: 42.415257
  level: '?'
  lon: -90.052065
  name:  'b3b7f166bdc54e86b8a0a32899205fc9.16'
- ap: 3474
  img: http://i.imgur.com/5j1qaiT.png
  lat: 41.717516
  level: '?'
  lon: -89.925659
  name:  'f31142eb701441cf817894f288d333ba.16'
- ap: 3474
  img: http://i.imgur.com/5j1qaiT.png
  lat: 41.788629
  level: '?'
  lon: -89.850087
  name:  'eb44ecbb3e604ae496bc8b924c1069e9.16'
- ap: 3474
  img: http://i.imgur.com/5j1qaiT.png
  lat: 41.812283
  level: '?'
  lon: -89.686219
  name:  '2c47cde8fd624412b83048dc716c978b.16'
- ap: 3474
  img: http://i.imgur.com/5j1qaiT.png
  lat: 42.356918
  level: '?'
  lon: -90.002898
  name:  '4b2b62e3565247ada71f7778b3670cf1.16'
- ap: 3474
  img: http://i.imgur.com/5j1qaiT.png
  lat: 41.816052
  level: '?'
  lon: -89.694085
  name:  'c604d1508e9c497bb0473a6aaface8c9.16'
- ap: 3474
  img:  'http://lh5.ggpht.com/6W_b3aoHNnxViA4TkycmE5hhV5q_VHfypLNlgG4sAyw2eJ5Meyzi2-vwTA8miyKA5pZApxbfpAa7uc0zlCM'
  lat: 40.134758
  level: 5
  lon: -88.313172
  name:  'Sunset Ridge Prairie '
- ap: 3474
  img:  'http://lh4.ggpht.com/A15Qc2ImqJFORKlDItFStr3pkJ1pX5dRyG8VO6RoziKIqMOMMTQdJa-fUInsxL4o7Yxg1XNHfexBZuNAyLG0yw'
  lat: 40.132021
  level: 4
  lon: -88.31285
  name:  'Sunset Ridge Park Dedication'
- ap: 3474
  img:  'http://lh5.ggpht.com/-aOZyLFNK96FhUdQBYhmRPZrs_PB1oiLRcrPjKwFBANQ42LxLbbHfTZVw_F01meecQXfNQwJYy7qqVh8Q0gR9g'
  lat: 40.133768
  level: 6
  lon: -88.281275
  name:  'Butterfly'
- ap: 3474
  img:  'http://lh5.ggpht.com/Ubq0MuIsu5MU-I8JiOC7oX_aheDNBNsG-UlSMPqA5BRkHJX9BDDUPWGQxXllzVgaxFeo23u3zu_hlJesprpNJg'
  lat: 40.133421
  level: 4
  lon: -88.280893
  name:  'Greenbelt Bikeway'
- ap: 3474
  img:  'http://lh5.ggpht.com/ZfmaOk3UM4PNzP-z0AvBPFqYLc6wAEDSPhL1cSVjXMAFSv4Jadm-hV--eP3OaJuaksphYKN5s6bhWhluTGs'
  lat: 40.133327
  level: 6
  lon: -88.280335
  name:  'Prairie Grid'
- ap: 3474
  img: http://i.imgur.com/5j1qaiT.png
  lat: 40.152192
  level: '?'
  lon: -88.252279
  name:  'Toalson Park South Entrance'
- ap: 3474
  img: http://i.imgur.com/5j1qaiT.png
  lat: 40.152342
  level: '?'
  lon: -88.252345
  name:  'Toalson Park Basketball Hoop'
- ap: 3474
  img: http://i.imgur.com/5j1qaiT.png
  lat: 40.152871
  level: '?'
  lon: -88.253305
  name:  '50197185529145c883d36b74db0ec522.16'
- ap: 3474
  img:  'http://lh4.ggpht.com/HMXgPSuj_Qc06z-u_ElF6pgeWVoxqEAZoT0woVULj2jB8M-G8a4In71YBTnsPrCaJTLx0DFoqB8lQ2847L9M'
  lat: 40.112187
  level: 6
  lon: -88.235913
  name:  'Scott Park Pavilion'
- ap: 3474
  img:  'http://lh4.ggpht.com/9hzMj8KV-HraIucojjHAEgyMZsJAR9TWvNS-QSBB5LTYBOTwwqfTQySJ_Sz88eP3eyFWFYhx5qDVY93t8fk'
  lat: 40.108032
  level: 6
  lon: -88.225702
  name:  'Centennial Court'
- ap: 3399
  img:  'http://lh6.ggpht.com/y10QgRCNt0Bsefqp3olKgJp98whQkS0-vWqPskj3421hcSq96BG-b_KROqsO1mBEcNiYtAKhXuXG0EV0eaUW'
  lat: 40.107152
  level: 2
  lon: -88.235244
  name:  'Bromley Hall'
- ap: 2724
  img:  'http://lh3.ggpht.com/rgh_2qJQUPC1OrARUkiQqPKoNReiqZYOimm5Nszb77pDh72OszuyiJBKn-vDxHUuyjO2XTeKU9GBHc3oHIYr'
  lat: 40.115283
  level: 5
  lon: -88.287899
  name:  'Greenbelt Bikeway'
- ap: 2537
  img:  'http://lh5.ggpht.com/THzk1iE4eBFdHkEgW_OGBWS54BbJw46faUZQS1Ad_IROHGgmVaXrphXJuL1O8N9k4G8_jaDT4P9tmLxMNi0W'
  lat: 40.131713
  level: 5
  lon: -88.29276
  name:  'Campus Solar System - Sun'
- ap: 2537
  img:  'http://lh5.ggpht.com/qcPrCawV71BDvDKZgWvM7Mpyo0O3jE5Yu_3XjoulzyX8BWngzTHYScWApCGgWNCdP9JHc3BOauJEB_L0-YI'
  lat: 40.085444
  level: 5
  lon: -88.329043
  name:  'Environmental Plaque - Stream'
- ap: 2537
  img:  'http://lh4.ggpht.com/BDVsIEWOaH0zZsTgU8IbvmVNJTrl3EljfhNXeVt4C2BILNtXm5hpAq_6mLrTl66aJcUyYv4hFJKhxedLkKo'
  lat: 40.11679
  level: 4
  lon: -88.281854
  name:  'International Society of Arboriculture'
- ap: 2537
  img:  'http://lh4.ggpht.com/a1FVYK5FqYQAl_d_TEIbk8PE4kKJVyIHNjJiJWlhHcozcrVi9qVZ137z5mYYlOeePqk0aqBqWwdZxEIgkxz0HA'
  lat: 40.132588
  level: 2
  lon: -88.279491
  name:  'Ronald D Schafer Plaque'
- ap: 2537
  img:  'http://lh3.googleusercontent.com/abyzHmsDcu4wr2nZ5KrzfryQDjq08lgz16ggCtHboK-pAhp8lhjyJoStUFTg-XDe4SPzYjAxvNLQuix4tsgc'
  lat: 40.132193
  level: 5
  lon: -88.279832
  name:  'Tribute to Olympic Athletes'
- ap: 2537
  img:  'http://lh5.ggpht.com/XSTOU98iZoBFcDNR_YYJQfmQaiD_vXAP5Z7R79nVC7k06VMhH8tHSb9Yb9Pe8OnV1svwvlvy6iyz6vMjg3_EzA'
  lat: 40.132804
  level: 2
  lon: -88.285013
  name:  'W Glenn Karr Memorial Plaque'
- ap: 2537
  img:  'http://lh3.googleusercontent.com/mRLfm7nmeWoRTWuL9j9CIdpj5Wi6Lj_ghejJOVgI2tREVdkZjp_vLtvGFd53n6ey4lYuJCvRblhcq2QJAzHc'
  lat: 40.132819
  level: 5
  lon: -88.286151
  name:  'Dodds Park'
- ap: 2537
  img:  'http://lh3.googleusercontent.com/E_ZPlSyleqUMg0OilyQYOVjaoZT-y4SbH4plEyw9dIUNETTaaR5s71RJOIy8h5u1Ae97gUfiLGrIdMPXjNQ'
  lat: 40.11727
  level: 5
  lon: -88.286997
  name:  'Kaufman Lake'
- ap: 2537
  img: http://i.imgur.com/5j1qaiT.png
  lat: 42.506931
  level: '?'
  lon: -87.809715
  name:  'eb61ff00b0e54b91a4d04719a9bbf026.16'
- ap: 2537
  img: http://i.imgur.com/5j1qaiT.png
  lat: 43.255376
  level: '?'
  lon: -86.349504
  name:  '872e24d718b64530a4b3bc6c538d6aaa.16'
- ap: 2537
  img:  'http://lh4.ggpht.com/eiIi_ozTDxkb4MdOndoTytdxfIB-1IAlz7B6mPPsVwLsPSvNxgR3f1ynOCQiAHPJAfWvPR6x6kWP0shmEfu5Mw'
  lat: 40.1198
  level: 5
  lon: -88.243467
  name:  'Incursion'
- ap: 2537
  img:  'http://lh3.ggpht.com/qkbAVT5J9ZNQHzzLNSiw9MN3XrDX3B8bj-xJzu8jKrFdykdTZdsEIlzOKXKVfJ5dZNrhJmG8VHZNeF5pR1G6'
  lat: 40.119977
  level: 5
  lon: -88.242247
  name:  'Seed House Historic'
- ap: 2537
  img:  'http://lh3.ggpht.com/2WMtYMnBjTlw-gPK9quwjMde6Heie7SQHCZT41kPiIpOwxXEIQWbB_euK-R5rZhqUcmGuZJ0tIBh_801KGyVsw'
  lat: 40.11453
  level: 4
  lon: -88.227324
  name:  'Beckman Institute - Upwells Fountain'
- ap: 2537
  img:  'http://lh4.ggpht.com/hJDi8J7CZU-933hT0Culp2nhslv6p8rDRPdTFz6FwNaAjB5CmfkaQzj9sM--E-QBvI8yvIJn1F2jxy7ZKWlh'
  lat: 40.10816
  level: 2
  lon: -88.234245
  name:  'Stratford House'
- ap: 2537
  img:  'http://lh4.ggpht.com/OFVPvdgB3GVpaQknHdnt2okgP3xcQksAH3wvOGYVuP85MMlxo3bQ2SRpBb0hzNfjQoC_5LlRqaE6jLB-h9Gr'
  lat: 40.108092
  level: 2
  lon: -88.234589
  name:  'Koinonia Plaque'
- ap: 2537
  img:  'http://lh4.ggpht.com/GCS0-CwKl9SLe2zfeL7FPDuKv5ZFDhlnX3hMXZSJLvK-u73RlgWbn_FgnOHZi-0wqMk52z_YLSAMReYTSaoP'
  lat: 40.10659
  level: 5
  lon: -88.227679
  name:  'Lincoln Hall'
- ap: 2537
  img:  'http://lh3.ggpht.com/mtgiI5TKcuExETpmdSqIFabkYgVZTaXXLJnaIyzxeHPIunWoj_Fj8BqqwZG4nVQwSnngv15YxD-c_m9CHkr3'
  lat: 40.111202
  level: 5
  lon: -88.226447
  name:  'Boneyard Creek Memorial Streamflow Gaging Station'
- ap: 2537
  img:  'http://lh5.ggpht.com/28al1CSkHNCrM9Sb57TYmawr1uFh6r5raWMJKD4QjLCj6N5YHEYIIizONs_hHF3pHuIppLjqxbTFcvrI9Dq9'
  lat: 40.111205
  level: 4
  lon: -88.227583
  name:  'Theory of Superconductivity Plaque'
- ap: 2537
  img:  'http://lh3.googleusercontent.com/hvoLMUc9UoNVVPttxWTc8PzOWdu5MBmPETnBexH7Alyl20WGCrNa0G_j7DwvD3qbhqpTaeThFhGDV2rCtp8'
  lat: 40.107629
  level: 6
  lon: -88.224484
  name:  'Bucky Balls'
- ap: 2537
  img:  'http://lh3.ggpht.com/A87H2Ev-nSq_HCpnUCxDLdRG04MKhj9Uap_0Ii4kdUx_db5SwcKhAAOey5ls43XiDLYaw7uYymdNMcsAXfNo'
  lat: 40.106182
  level: 3
  lon: -88.235521
  name:  'Evans Scholars'
- ap: 2537
  img:  'http://lh3.ggpht.com/gSjoDo9KYu-lgQFkD5uUnj4HXGc1BOihKfh-rNeZu_Q3hHyEkaBoalqYiV46QcvH9y4o8cPkHP_cmo_LxCyo4Q'
  lat: 40.10214
  level: 4
  lon: -88.218932
  name:  'Twin City Bible Church'
- ap: 2537
  img:  'http://lh6.ggpht.com/uuDZEurp-UqLKU1BShf2vQxSG1vwpk-MDBizyO6dIijDD3nTavBfEGfQ4lPiXtDc-2867s28mDJ0ko7kvC3sxQ'
  lat: 40.100485
  level: 5
  lon: -88.219408
  name:  'Pennsylvania Avenue Residence Halls'
