- ap: 11718
  img:  'http://lh5.ggpht.com/Q32BPmFRIQYqXI5gLOV9ifHvFlGdyD_yws2172-sHnSZ-StunhCM0Abqd9rBWSaKBWN7RPpa1h-nok4Mc23i'
  lat: 40.101062
  level: 8
  lon: -88.249275
  name:  'Narayan & Shanti Achanta Memorial Plaque'
- ap: 11533
  img:  'http://lh6.ggpht.com/yjfa0jJLjsfLRf9Zn9iafMp3MuIhgCi0WiOCF8GqTGiGvzEnsPGrFa0H1n-uzWhVehLbt44ShthsA32VzHd5iQ'
  lat: 40.099737
  level: 8
  lon: -88.251157
  name:  'Tyler Van Atkins Memorial'
- ap: 10783
  img:  'http://lh3.ggpht.com/rUgM7jkTqL0VHxvsSW0yWuNJF5UrU62ITflghfn4PfKjn6L4WGz0ALkv98fc_q9dmK9SSpU1PXIawGvcRwE'
  lat: 40.098246
  level: 8
  lon: -88.251974
  name:  'Hessel Park'
- ap: 10783
  img:  'http://lh3.ggpht.com/GXyi2ghi2DR3h7uIHNYiEZPYixRhDo7LO0WHQ0PyEzb-150r7ar7JGeVjUoPuObC-GFWf22UWqnYCMtED0M-'
  lat: 40.100341
  level: 8
  lon: -88.249937
  name:  'Alice Marie Weber Plaque'
- ap: 10781
  img:  'http://lh3.ggpht.com/K-b9T4FjMxrtkS2Awkze3fELfwY2Va92gMQloHtHf4bfeKPPRzOUJxaSYYi6-OHHQbpDVY3ONWwPgIa78fBX'
  lat: 40.118332
  level: 6
  lon: -88.250276
  name:  'Mckinley Aquatics Center'
- ap: 10220
  img:  'http://lh3.ggpht.com/lSr_gDGX9o1BHZX9FUPCKAO2VVQjZ_NwTBaSNhNgjVyJ2p6BnLDByC_vIkhu637-W5nKMW2SShi0gXOlXNqY7A'
  lat: 40.097979
  level: 8
  lon: -88.247785
  name:  'Jarling''s Custard Cup'
- ap: 9846
  img:  'http://lh5.ggpht.com/C6wRSaEWO1NYGY5luyYZKHG3Z3aib4aflaPdV7B9G6N6adE890g3QuPRSvCUhsdFHqjoVUjo27mfz9WsjXyuhQ'
  lat: 40.100521
  level: 8
  lon: -88.250864
  name:  'Gabriel Patrick Maxeiner Memorial'
- ap: 9846
  img:  'http://lh5.ggpht.com/q-mJ2EvrjGn2PfbBh3Pl3XIGUyzTqxGjZmTMhn3k9_2Qi0S2hs3k2ZvpKb4kvt60AXHiyQdxqft5ZecPcg7x'
  lat: 40.098959
  level: 8
  lon: -88.250141
  name:  'Bob and Wilma Tinkham'
- ap: 9659
  img:  'http://lh6.ggpht.com/5CDidk0pqfUtSW_Yqouuf3diX8drdMu9DoT728QpSz8q6A-WxNhT0yLcgM_7gGpyIAeXrHiTkIzzaVJFgnN9WA'
  lat: 40.099852
  level: 8
  lon: -88.251947
  name:  'Our Friend Tim Palmer'
- ap: 9096
  img:  'http://lh4.ggpht.com/-MJc8fCVxpxV7prlhkP3sXPWZ7jsr8Behc29zUJqdz_V57jSg7SzyMUUv7B9Frzu36mJhM2PQkr_LJk-zyM'
  lat: 40.117729
  level: 5
  lon: -88.243645
  name:  'Boltini Lounge'
- ap: 8909
  img:  'http://lh5.ggpht.com/aeGh3iXJqJ7skg-2JHEpngMSfcp1qDIEPoLMxzQNqbS5Y7HcxN7oE789bXiVFoFIcdCn7-3AhLPtxT_WE2E'
  lat: 40.0985
  level: 8
  lon: -88.248681
  name:  'Siti Sculpture'
- ap: 8909
  img:  'http://lh6.ggpht.com/BKeORacgeVrG8XzxTuXmpq5UxomWpK-I2n7Xy0PVbdSciNx9MJl869TcibnFIiV5PJHGv5R3QOpX6ZgLUwU'
  lat: 40.099706
  level: 8
  lon: -88.250065
  name:  'Lois Barham Memorial Tree'
- ap: 8909
  img:  'http://lh3.ggpht.com/KzADjdPRAvwycpfTBdAeDwFJ0AxZJG2dPmbPWkXq55QLV9PfpJ_-DsXWIlVgsISUApRdJ5cAxRWx0k0W2hI'
  lat: 40.09979
  level: 8
  lon: -88.249107
  name:  'Jerome Cook Memorial'
- ap: 8907
  img: http://i.imgur.com/5j1qaiT.png
  lat: 40.20265
  level: '?'
  lon: -88.393912
  name:  '9c9b58d1e22949bc983b080f051d97d6.16'
- ap: 8722
  img:  'http://lh6.ggpht.com/qSCp5fQMlyCQ-GOAgiSFy5gaHJei705Pa3eOlJiYO5wGjZTYtjA8q7QWWfAWcLKjxZSaFiMfXOPR8SO7rWU'
  lat: 40.099353
  level: 8
  lon: -88.251876
  name:  'Raymond B. Cattell Memorial'
- ap: 8722
  img:  'http://lh5.ggpht.com/4DJAFPeZ_w65Km7VDnsbOqouQaeBuPuxA0KHPQToT_B6o1hBxzdu3kn89UhHgv22Ygj52Fx9QqcbzOytuw'
  lat: 40.100078
  level: 8
  lon: -88.250683
  name:  'Brian Clark Memorial Plaque'
- ap: 8720
  img:  'http://lh3.ggpht.com/I2Up882o0nHzQof3uWaDFK7KQHkYOu1XgKoXUgQotITYJDh--80GzLnOSI8TxKF3RxsF32zcsYmRF8Fiugpt'
  lat: 40.116413
  level: 6
  lon: -88.249814
  name:  'West Side Park'
- ap: 8533
  img:  'http://lh5.ggpht.com/BoAN9OSCH5u7G1sestzZaXjjik82i-SteF6-r5KTTyl530q9H5G3ibjJdqpGGY-nL8MypRXn2twwvn_y5nMmug'
  lat: 40.133159
  level: 6
  lon: -88.28778
  name:  'Campus Solar System - Saturn'
- ap: 8533
  img:  'http://lh3.ggpht.com/NfRR7PyM2-UNoQGKgRsf6sUZdUTMp0sWqha9caVs49hYb0AnT9OznQX0dQGxKJNP6KiHWJ0WRUMSQh1m4-rwvg'
  lat: 40.117976
  level: 7
  lon: -88.245082
  name:  'Robeson Building '
- ap: 8533
  img:  'http://lh6.ggpht.com/0IsQORyEW-bPA7sEbGspygtoI7ixEshm_2fUw5oeh9AeXg6JN5w0ypYIshpuKm-C0nG4Vm2XmpLvtWTZzWzd'
  lat: 40.111607
  level: 6
  lon: -88.233753
  name:  'Chabad Menorah'
- ap: 8157
  img:  'http://lh5.ggpht.com/pSVHjk6puyYdv3ztHlpJGnbkZyGsGsirMnxkDhlt8UMko4AhtTQbrzwInBCu5lK4Ttf7furE5pNW2AZh8HuSZQ'
  lat: 40.138109
  level: 6
  lon: -88.270158
  name:  'Glory Center International Church'
- ap: 8157
  img:  'http://lh5.ggpht.com/vYay8RKsCV_BP_MkeFm7se0VZoYthm-1pThiATAADleBlTsPowobgZyUoU7DUto6p5cpg9adpCcTgNR6iop0Jw'
  lat: 40.120121
  level: 5
  lon: -88.251967
  name:  'Sesquicentennial Neighborhood Sign'
- ap: 7972
  img:  'http://lh6.ggpht.com/YdeB0EKlsopL39a9YXWj4JBZgXNNLWHgfe4PQzdpWCNWc0fR1YTj8WjARDHnmrusvKWTqKLcGg8U9frhtsw'
  lat: 40.09821
  level: 8
  lon: -88.249879
  name:  'Hessel Park'
- ap: 7972
  img:  'http://lh5.ggpht.com/T0WLAJf0s4nu2Phxax31eu6pO6zNoA4JpvHMLyfMKttzJALEWB8EAWOziQwgjdWE3YjBbG1XjGYsgihqCSX9'
  lat: 40.100414
  level: 8
  lon: -88.249061
  name:  'Randy William Auteberry Memorial'
- ap: 7972
  img:  'http://lh3.ggpht.com/sisvfsphxy7AK_2qrrqb7lNJk3_7ciHSVJyodINYITBc-UqugyNOooCxKupgJKEg5m_x95eZwouSO2WCmN60ew'
  lat: 40.098579
  level: 8
  lon: -88.249603
  name:  'Chef Ra Memorial Plaque'
- ap: 7972
  img:  'http://lh4.ggpht.com/B_I1b0Jy3vW41RX8jjCNPP68AULplU0Pf8ddolyKmpEWCfBVShQkmjF1HfTPzDjmBBQGgOs0jHW-rUR0mv8BkA'
  lat: 40.098789
  level: 8
  lon: -88.251685
  name:  'Curtis William McKinney Memorial'
- ap: 7972
  img:  'http://lh5.ggpht.com/fDRifvVcFT_dKhPuNBN4rR9lNHL0Q6NvbMnGr2-ZdiirR2rJrBcWRi4vyM3-DYNHymUs7bWchaWRaUtBpg'
  lat: 40.098541
  level: 8
  lon: -88.250389
  name:  'Dennis Robert Costello Memorial'
- ap: 7972
  img:  'http://lh4.ggpht.com/PHV-1ZpFzCAl_ViCKwBY_x2pIDbVyaT7wJH1sTvFJCxrSdRrO1x7NaXq9OdRGwz_Mls4iwk6wuGHMBArfV54'
  lat: 40.098688
  level: 8
  lon: -88.25063
  name:  '"New Holland Yellow Dinosaurs" at Hessel Park'
- ap: 7972
  img:  'http://lh5.ggpht.com/-UWK84I78Sftf7yg-E2pg6xEAWTvyiThgJBJlxbqOZPYKNmzQ8uGgEEMetzplrG1HpXG5kQqNItUeXKxOHDsGA'
  lat: 40.100286
  level: 8
  lon: -88.251747
  name:  'Tennis Anyone'
- ap: 7972
  img:  'http://lh5.ggpht.com/yEiiHAgbSW12_Cpdb0_ksVrjWt6yb6BFtEwm3wjzPJN68wl0QhkI_oaTXxM__Dud8x9jZitaHmpZHZNxDHrD'
  lat: 40.099056
  level: 8
  lon: -88.249136
  name:  '"Cricket" and Bob Barger Memorial'
- ap: 7785
  img:  'http://lh3.ggpht.com/G1CvGhpethi5UmprDWxZN9rTblHa3anSsQz1UPgJtkREkfN7lDFoxFObst0609Cg5mofuZxJKr0ddNKhY4VL'
  lat: 40.098464
  level: 8
  lon: -88.251426
  name:  'Ruth Haasis Memorial'
- ap: 7783
  img:  'http://lh3.googleusercontent.com/mFMoKbSLtdP7TnaDrMHLxDWN1FGdQeY6BuKqxtEYSN--Sp6L7DgrpNlGARlPutxd0UNQuEW3WwuNl_Hny6_1'
  lat: 40.13183
  level: 6
  lon: -88.288788
  name:  'Student Union Building'
- ap: 7783
  img:  'http://lh5.ggpht.com/_9uqsDQROIwqIhKx_URY4DdZAapoZBEWK6Eaclt5mM5vPsjwQAD-v8Bv-4b-Smq2F8X4zOgzLx2KwySkFWc'
  lat: 40.118448
  level: 6
  lon: -88.25211
  name:  'First Church of Christ, Scientist'
- ap: 7596
  img:  'http://lh4.ggpht.com/Ww9lgcscjGtB0ieiqyf2qK2ZzV0y3mZVpoi5ZZdPpArkbOa2B5aNli_k7t86GjD7eAeEFOw8W0oZvfr61S6Kxg'
  lat: 40.139196
  level: 7
  lon: -88.257755
  name:  'Market View Fountain'
- ap: 7596
  img:  'http://lh6.ggpht.com/WVVbmiu2GGTnPTszcnYYILHKlkZDoxB-QY6Yv7YPoUfdVn92jYnKjpVKNkfWdFrPjq-BaFeKGJWLZlE-bbA'
  lat: 40.120467
  level: 7
  lon: -88.2577
  name:  'Salvation Army Church'
- ap: 7596
  img:  'http://lh4.ggpht.com/xS51--rXA9M_IHpXWgFQxKZU-YbD-1zk-nug6k7RyKl8rYeam_YFwMmLNWRRHHzI-rOTGyhTJQQ314WudSQJ'
  lat: 40.117132
  level: 6
  lon: -88.243009
  name:  'Fountain in the Alley'
- ap: 7596
  img: http://i.imgur.com/5j1qaiT.png
  lat: 40.203785
  level: '?'
  lon: -88.390448
  name:  '3e498955983f48bbb55d0e1fae996ef2.16'
- ap: 7594
  img:  'http://lh4.ggpht.com/Gyz7BDhWdUinBQfD8duByX5-aBgPmB9oSesH20dH8uGJnTiaIHkeRJARtH6YQUUD5A5X2IjPTlT989AfutNc'
  lat: 40.092773
  level: 6
  lon: -88.250951
  name:  'William C. Fox Waterway'
- ap: 7409
  img:  'http://lh4.ggpht.com/vKgqIecJshMQxrhO-ZhMjcIyARuJdyU63wKfzAG0wouZex6LVzO46Qi5zM1N3Jx8xyantDFk9sQGsSEBhb-y'
  lat: 40.101327
  level: 8
  lon: -88.251412
  name:  'Zeus Memorial'
- ap: 7409
  img:  'http://lh3.ggpht.com/rm0mJKw5ksUEH6_YQLi-f3uo56Wv-4h1P-Q_Ws61holRtnLG9Qt0NObbSBzDxPm3tvIhWgzHLvftIMBC_5dZ'
  lat: 40.118435
  level: 3
  lon: -88.247677
  name:  'Burnham Athenaeum'
- ap: 7409
  img:  'http://lh4.ggpht.com/mlUN5QXAR7rKFvUg7yhxcae3udkR7zCJVaWt5sq_YA47piV6tRi42RNN9fEtT_FafT7lhqg26WM1VETbz5E'
  lat: 40.098239
  level: 7
  lon: -88.25376
  name:  'Hessel Park Christian Reformed Church'
- ap: 7222
  img:  'http://lh5.ggpht.com/tfAfnmo6mSMc6U0P533NMFJRGwn6lasmx-MLR2JJg1QOizMKkghFU8E7hb2zgYgdQEbgnCJUlvZIMdrrJe4'
  lat: 40.100822
  level: 8
  lon: -88.25193
  name:  'Seeds of Kindness Bench'
- ap: 7222
  img:  'http://lh4.ggpht.com/-2q6p_jcZ5xVswdwpO98pGsMWXnqxUlsBmhWA2F6xs0MbwejV7FTN7-kHSb4nlsfg3uUsrvdDmUM5v1lQ-Ia'
  lat: 40.086252
  level: 5
  lon: -88.249351
  name:  'A Lady Waiting for the Bus'
- ap: 7222
  img: http://i.imgur.com/5j1qaiT.png
  lat: 40.203703
  level: '?'
  lon: -88.394049
  name:  '1ab1edcdd05447019675c2b4b0d30cbb.16'
- ap: 7222
  img: http://i.imgur.com/5j1qaiT.png
  lat: 40.203973
  level: '?'
  lon: -88.393369
  name:  'Mabery Gelvin Botanical Garden'
- ap: 7035
  img:  'http://lh4.ggpht.com/tLO2wjyCgyune3KDOlQMV_oiDRxVsHqO1gAG_0xs9TvKOiuWRVmJcO29WI7jELxoxncaXpy91kMa89Uj65JVNw'
  lat: 40.11784
  level: 6
  lon: -88.24286
  name:  'Kaufman Memorial'
- ap: 7035
  img:  'http://lh4.ggpht.com/_jAAuDi8SO5uupi8JlB3HZaFG40S15izNv_3vqOt7ro2rRHuXrfdEKfEFvRESdAjCEz3RVDpyrxJGSIrju5d'
  lat: 40.117916
  level: 6
  lon: -88.243087
  name:  'Sholem Building'
- ap: 7035
  img:  'http://lh6.ggpht.com/3o0ObAARFV_8mBVCC_QD0iLOPVzNkakXybhLnSVEuXIJfDLKMxeYj-EkWIw9NPoZIVRf5Dkrid2yf_NEQ-iE'
  lat: 40.100347
  level: 8
  lon: -88.249385
  name:  'Travis Marmion Memorial'
- ap: 7035
  img:  'http://lh5.ggpht.com/CRkkFx_9jq2hCt1HtflqZDqCdmSG5MN88FV0rLXk1PZm7maZWzLTKZhjqlSKUx1Tg0tSB62l75w2VFsyUZI'
  lat: 40.09991
  level: 8
  lon: -88.249899
  name:  'Benjamin Biddle Memorial Plaque'
- ap: 7035
  img:  'http://lh3.ggpht.com/VLipBehsKPCp8ewQnBV1ZCz7uE75zcY46iGDyFfFHgX1o55t3DONb3wcBcL5RMYSqABRK0TgIW3DluNy8y6WaA'
  lat: 40.101131
  level: 8
  lon: -88.250539
  name:  'Hessel Park'
- ap: 7035
  img:  'http://lh5.ggpht.com/8zq5tMevCiipZK8N9-8SZw3vdsA2HwH0E02ormQshGxHVZrB2WPK7OPC8zt6pjLlgpXVuEYHVA_08_Q8fPw-'
  lat: 40.099647
  level: 7
  lon: -88.249648
  name:  'Max Overmyer Memorial Playground'
- ap: 7035
  img:  'http://lh3.ggpht.com/lzCSS0_tjwUV7JQ2fgLI0e05IrzPxlVUs-6aEPOwUv67IanQJSTi71gkw0SGm8asmoE_r3Xoh048Fd9xRpE'
  lat: 40.099169
  level: 8
  lon: -88.251419
  name:  'Lyman Larson Memorial'
- ap: 7035
  img:  'http://lh6.ggpht.com/S7Utf4_59vQkAP5JhC3mdbzVLKBTt-0zoJ2UjfxUnN10VBbixO-_VwvssWd1LbFSx_yafaijd_U0wTGo870'
  lat: 40.100941
  level: 8
  lon: -88.251314
  name:  'Gabriel Patrick Maxeiner Memorial Plaque'
- ap: 7035
  img: http://i.imgur.com/5j1qaiT.png
  lat: 40.203721
  level: '?'
  lon: -88.39221
  name:  'dd9c9d84f4934d84a0769ff14c381db2.16'
- ap: 7033
  img:  'http://lh3.ggpht.com/gS3gT_deXzbDvejCL-5ygs31dw9bLQqYr2nDcLPZiv6nQzahJl12awG1a2pwKbFuoTlsHQYxQ2O7HDXL4-8'
  lat: 40.110358
  level: 8
  lon: -88.230181
  name:  'Murphy''s Pub '
- ap: 6846
  img:  'http://lh5.ggpht.com/zdaFJ-aI4Re55DtEiADt-qd1MMBuWZqEByU3BbT-0eYI80maTD-8JB5vJgtwKPFsFk-V75s-itU-cBisa-W9'
  lat: 40.132819
  level: 6
  lon: -88.286151
  name:  'Dodds Park'
- ap: 6846
  img:  'http://lh5.ggpht.com/V9AFUiWKES88x0FruZILBXEBv1d476XQMgH8JsCHDQgvjDvk95Mgjf5vcl-Nx7CkPvfhwVGIrvB1EA5Tlh2j'
  lat: 40.132437
  level: 6
  lon: -88.29022
  name:  'Dr. Ray Braun Memorial'
- ap: 6509
  img:  'http://lh3.ggpht.com/5iH9kzVECg-dsKRPYTzLzAT5eoYnDhGrcJB1N-hLShal9eEun1_Ml0oFX2c42cGNjKj8-yvsEnUn2j4C_90'
  lat: 40.11792
  level: 3
  lon: -88.249845
  name:  'Thomas R. Sandrock'
- ap: 6472
  img:  'http://lh4.ggpht.com/XmQtS5vWS277-auG5r5x80jUieF2311Xfv6rWkYqVBZ3wz2cqxRtgabyzOhXn0fCpSpDD6Y_CFd9Rzti4eqj'
  lat: 40.148874
  level: 6
  lon: -88.268577
  name:  'Newt Dodds Tennis Center'
- ap: 6472
  img:  'http://lh6.ggpht.com/Ka3_jVwGHc3wyrranDgkb0UqVN7M7Nbduod4wPmrn2Z51l0LRk5C3Pqg-Ml443gh9dYYglolVJmLLA8ZZcF90CPY5mu8fVkZyRifcuECtQnRhlBCGA'
  lat: 40.111685
  level: 6
  lon: -88.208653
  name:  'Iron Post'
- ap: 6285
  img:  'http://lh5.ggpht.com/WgDPQ47lNn2nlvNDPgwM_c-1MpVvxdVZtjZmFtixtr3rIi91xqYhgtSbyJGqRFnSXCUHy_RjABgEj2LSzOs'
  lat: 40.113343
  level: 4
  lon: -88.290525
  name:  'Fish Chimes at Kaufman Lake'
- ap: 6285
  img:  'http://lh5.ggpht.com/KYppjeOoIlb4lbowRrrC5qRdYW7_KU8rzjtDMpvhh-Q_c6VZOTtVmOqmmxChJA2hjlpS5dJ1JnhUQcKUAXDWHA'
  lat: 40.117976
  level: 7
  lon: -88.242642
  name:  'Stevick Building'
- ap: 6285
  img:  'http://lh4.ggpht.com/g8tAznMB64NxNMd4eYtF27DhNprtAqnBEt_llGcKp1qpKQeUvyHBi8p5QuGURqAGieaeJscmQPi6Wosmutg'
  lat: 40.111328
  level: 5
  lon: -88.209207
  name:  'Urbana Free Library'
- ap: 6285
  img:  'http://lh6.ggpht.com/pJ6tplh0N7msB5KPVdko5jnm8iOWp2nYvwj7PLdT4kvt0PLvNpLPtETG61IjI_bgGJ3UtidjV7AytpU9sNjm'
  lat: 40.11215
  level: 5
  lon: -88.208835
  name:  'Bennet Building'
- ap: 6283
  img:  'http://lh6.ggpht.com/NMgUdPOdhvhvKZh7ugwXgybshZBZ2mkaEWMNKYdFPX6cfIYENSCqE9YpAXSNVuq_9VVWXJB-ShCBAPfF2Yvs'
  lat: 40.102513
  level: 7
  lon: -88.243679
  name:  'Robert Hosier Memorial Garden'
- ap: 6098
  img:  'http://lh5.ggpht.com/kDVKmp7jSlZ1o-7qOsCnRovJeghgXHZ8aCDs-HOlcHhrSbcYXNYN2IOODVgKVnUMF_i6KDi2h96TMWnnUlUl'
  lat: 40.117287
  level: 6
  lon: -88.242984
  name:  'Dandelion Mural'
- ap: 6098
  img:  'http://lh3.ggpht.com/J_h4tdb4wqy8bmmQfDuy5yqTR2IlkzKojfvsMOvlD-3tf1pKxbDlhA6W9Q8RX-JaSxhItMr4bmCxiUQXTLbz'
  lat: 40.10064
  level: 7
  lon: -88.24958
  name:  'Edward A. Cousins Plaque'
- ap: 6098
  img:  'http://lh6.ggpht.com/n0f7lyo15OzZn5IJHsohIGAA58iioentPZGEY4zeMZCCoX4GjEEkqfaTCIbrx9OnezriThnbFV14kYcwKTgL1g'
  lat: 40.098444
  level: 7
  lon: -88.248167
  name:  'Healthcare Not War Mural'
- ap: 6098
  img:  'http://lh6.ggpht.com/YVbqGVTjJuDMDdj71CP2mWvnUIdgO25PgoDdJwEGnEE_M9I1aDgKyjSr9JOZVU6UQTZQtfUo9RAWyz92n3jtCQ'
  lat: 40.098475
  level: 8
  lon: -88.249208
  name:  'In Fond Memory of William Moore Jr'
- ap: 6098
  img:  'http://lh5.ggpht.com/HhVreJipNvxPRVFpmsh2BPo9PcpPO2Q2l3jCpDjIKgfKGycoTNPXR4DKiYccBXW4X-4dJf_vV0ESsWAWHcChsg'
  lat: 40.100936
  level: 8
  lon: -88.250855
  name:  'Donald F. Bresnan Memorial'
- ap: 6098
  img:  'http://lh3.ggpht.com/8FqlniFErK7cq59awiT84u8KyV4FIRd5krZzfYa58zJToFps7whdBnriPqvO_kFKeLUE3SWbJhCOPuvUQzaGFA'
  lat: 40.100691
  level: 8
  lon: -88.251337
  name:  'In Loving Memory of Zeus'
- ap: 6098
  img:  'http://lh3.googleusercontent.com/Tixp17uCaP682s77UzvCwWCOE6vg7iB2qEFLjACq7xtVJdHE0K3yKYsl3_SwKbiUfQWwgTQRbvfka3U0NvNc'
  lat: 40.098819
  level: 8
  lon: -88.249214
  name:  'Bette McKown Honorary'
- ap: 6098
  img:  'http://lh5.ggpht.com/3t7XZHqwxLZ8Lc9YomR8FInm74U2PAA-DBk8kmdxXIrcXbKa1CoBDTlgdDJeO-_yVT3qNKRnNLzbdil1eH41iA'
  lat: 40.09935
  level: 7
  lon: -88.249766
  name:  'Jim Bickel Honorary Plaque'
- ap: 6098
  img:  'http://lh4.ggpht.com/4LxsGZZMk3DnpJXUvqzrL54CHSP5TDXjUnDJyHmCCTtCJIjGEI7kxT9g4uxfSPh0X6yGLgQo1jfqbu7B8VEr'
  lat: 40.099084
  level: 8
  lon: -88.251826
  name:  'Irina P. Stewart Memorial Plaque'
- ap: 6098
  img:  'http://lh3.ggpht.com/0fx36DDt01FPFW1y8WziZsKZ7WiQgWY2-ljRI_JXbbYO5cJaWXQrFZE7cZQwDvO_ElFVawkL_CguQ9fjsy4'
  lat: 40.1122
  level: 4
  lon: -88.209066
  name:  'Lincoln & Photography'
- ap: 6096
  img:  'http://lh5.ggpht.com/XSTOU98iZoBFcDNR_YYJQfmQaiD_vXAP5Z7R79nVC7k06VMhH8tHSb9Yb9Pe8OnV1svwvlvy6iyz6vMjg3_EzA'
  lat: 40.132804
  level: 6
  lon: -88.285013
  name:  'W Glenn Karr Memorial Plaque'
- ap: 6096
  img: http://i.imgur.com/5j1qaiT.png
  lat: 40.160669
  level: '?'
  lon: -88.314706
  name:  'Grandview Memorial Gardens'
- ap: 6096
  img:  'http://lh5.ggpht.com/e0BZy-ClP4miKQ9vYfkRIgxEUrpGMn9VCB-nRa_Kj579pT19ZzPuvvL1MRfd1Xu_pzF1eA-hvVhF6zLxaUTCsA'
  lat: 40.104118
  level: 5
  lon: -88.285677
  name:  'Mike Phillips Memorial Plaque'
- ap: 6096
  img:  'http://lh4.ggpht.com/HEEvU2OlgWiV5huAu3cvNKaI-C8YKYTO3qB8WMTO7EbsjTO84KS6jLjbGCq7THZq6l63UiUKCSEqY2IADYns'
  lat: 40.091766
  level: 6
  lon: -88.250003
  name:  '"The Cranes" at Fox Corporate Center'
- ap: 6096
  img:  'http://lh3.ggpht.com/2WMtYMnBjTlw-gPK9quwjMde6Heie7SQHCZT41kPiIpOwxXEIQWbB_euK-R5rZhqUcmGuZJ0tIBh_801KGyVsw'
  lat: 40.11453
  level: 7
  lon: -88.227324
  name:  'Beckman Institute - Upwells Fountain'
- ap: 5909
  img:  'http://lh6.ggpht.com/vqiOPPON1phvYOdOmbFDrxhN6cbYjeLHVgH42EV0XsJjVNd81EM1DKY_aRVM-rwJ9Il5tLc3QsL_gOS4qAkF'
  lat: 40.139891
  level: 6
  lon: -88.257367
  name:  'Market View Baby Fountain'
- ap: 5909
  img:  'http://lh6.ggpht.com/Pnd8JOVl_Lm-LFi5TL9dblCUNbrwX2rh4_oKgOC5Ynga-E_Y207oGsL4Uz931FTapBrs35H98qxJU4Cm_Gk'
  lat: 40.113024
  level: 6
  lon: -88.229095
  name:  'University Place Christian Church'
- ap: 5722
  img:  'http://lh4.ggpht.com/0UzQDuaKLiiPhEgEmKghfkzvXj6lROhxPIDJuI4nWLJFvdxJwGNcJZ1va0K_9cy4L2u0Zyeqv_qlIAwch5o'
  lat: 40.133475
  level: 6
  lon: -88.293988
  name:  'Parkhill Applied Technology Center'
- ap: 5722
  img:  'http://lh5.ggpht.com/IgNzl1mq8OGLo32nCph_TZvtqlPh79vEYYvHZb2F6YXW1jx9_ESV5dv13U9k7CRftyKHGoW2RtSSUFzPKbU'
  lat: 40.113072
  level: 6
  lon: -88.289765
  name:  'Kaufman Park'
- ap: 5722
  img:  'http://lh3.ggpht.com/wkPcdDupubV3THJo6r2OpMtshziiIkqBISPTCPe8boa-8nH33u83Mznkr1yYWNR_l60RCy8HO_obqrdNGUI'
  lat: 40.093633
  level: 6
  lon: -88.246611
  name:  'Fountain at Illini Plaza'
- ap: 5720
  img:  'http://lh3.ggpht.com/2bCNiD7SWsS3uzFLMO2cZh-LpHUEMQGnfTmcNx5vJapXho2TuXke630-7zop2Sq4fuY8nWVqy4VCG23mvnIJ'
  lat: 40.104168
  level: 8
  lon: -88.238808
  name:  'Alpha Gamma Rho'
- ap: 5535
  img:  'http://lh6.ggpht.com/TtWbekdbsTWA9hOrt2dc1ID1DnRuGoRbAle9mL9aZvc_aJygqJ9jAMjqrWtVr87WnELkFrSVIpO_4VVZQ67P'
  lat: 40.113103
  level: 5
  lon: -88.290672
  name:  'Kaufman Lake'
- ap: 5535
  img:  'http://lh3.googleusercontent.com/W5PjcRhelt3420IFjpSdOXtmIiv0M99Qv9Xupe6lckHDJDW4zHE9GyACkz8wXBF0_OIO2Jex9d7S8UQ4FJLa'
  lat: 40.118361
  level: 5
  lon: -88.244573
  name:  'Art Theater'
- ap: 5535
  img:  'http://lh3.ggpht.com/urNQaRe_wrjSAoW-Iis4CKHBvHhg6xwTvUcQPw4MqlQNK9ZuhMKEVtca2hGJnOCbyCC7ehJNuG00XZlaGXo'
  lat: 40.118898
  level: 7
  lon: -88.247032
  name:  'First Presbyterian Church'
- ap: 5535
  img:  'http://lh3.ggpht.com/0IkSOblVdAgYOJ2Bk2QqvqWjdstWNQgp7g9oSz1Sq70jG6cLusjwYW76irF9h-c7cafatMcyGsjw85xwYgPQyw'
  lat: 40.118353
  level: 6
  lon: -88.246658
  name:  'First United Methodist Church'
- ap: 5535
  img:  'http://lh4.ggpht.com/24wGJwnamMm4J20H07gbeT2nN7pTLWHh7lQjuFh6Nn5A67w8dzxKcAOw1_syPiuVU0VxmKs7MvN3FYyD52U_vg'
  lat: 40.112295
  level: 4
  lon: -88.208208
  name:  'Crane Alley'
- ap: 5533
  img:  'http://lh3.ggpht.com/BTOxkIG5jV6VaSJtyt1Kge-WlIsvddZuz7YzzqkQhAMWxgfE71ab2wqWdKY20M9-6zbGlVq43XMJ2CrZDqU'
  lat: 40.127246
  level: 8
  lon: -88.276738
  name:  'Kraft Giant Macaroni'
- ap: 5533
  img:  'http://lh4.ggpht.com/vbIH-PkUCBuwDTIRXA4p5jtGQ86SqYlc1e-g3Y9Ef2zaSb0ozkDD41Iq51orLhtPyShj4UzC6CPn0Unt8SY'
  lat: 40.145108
  level: 7
  lon: -88.260083
  name:  'Historic Interpretive Map of Champaign'
- ap: 5348
  img:  'http://lh3.ggpht.com/JM911OdVKmQnAXjY3hLL0qd5NnPCgPAmJ9aMYF-_9aptS_7NkLgtsMyPBHibRhomXqfXCtcHURyAdGxRVMBhXT2_HvtezfKyLBCQf_idvcHp6RfTkA'
  lat: 40.117427
  level: 6
  lon: -88.243235
  name:  'Cowboy Monkey'
- ap: 5348
  img:  'http://lh5.ggpht.com/KadNuhjGK6FUXezGHW1W1kfPOQV5l7gJP594EQm5nPZFLTgcTsjl4ixa-j7XitgtyJyou3q0pTfMr4i2E_avIA'
  lat: 40.118013
  level: 6
  lon: -88.243445
  name:  'Clock at Neil and Main'
- ap: 5348
  img:  'http://lh4.ggpht.com/DJiaqGgwCaKSjYczELIcjQOeBtoEqd--7TZYBJWO9_Nd16vjKwlco9tKatJTdAKT1CPoO7Cj39_rZvp8p0Ch'
  lat: 40.087241
  level: 5
  lon: -88.248222
  name:  'NCSA Blue Waters'
- ap: 5348
  img: http://i.imgur.com/5j1qaiT.png
  lat: 40.204412
  level: '?'
  lon: -88.394094
  name:  '2a77bf7698f24379838733d064f5ce04.16'
- ap: 5346
  img:  'http://lh4.ggpht.com/gduQJyd_w8B-OfSBc3f2WHXTDEQS6LrCw1u2Q4UN45Hy4u63pJbPd7WDChrtwQg-YY3ghtec_Gy78xppTAfo3w'
  lat: 40.111153
  level: 6
  lon: -88.28617
  name:  'O''Malley''s Alley '
- ap: 5161
  img:  'http://lh5.ggpht.com/ENeQgqydWbi9-Oyf7vizunoRqJdsZV4o0RA_956wjGI8hqpTCHBPyWMpbTrrkwYpj5tgzDRvevGmvH4eFRU'
  lat: 40.099593
  level: 8
  lon: -88.251724
  name:  'Blessings from Devon Elaine Cattell'
- ap: 4972
  img:  'http://lh5.ggpht.com/j6Gqd19ib1ziWv7UKoq4_fMXeXtxxdV85TchQ49_mIgeJYs7oUWOj860aB2Ok8NGNY5wNfMqDn7zeSKOgpxEzQ'
  lat: 40.108781
  level: 6
  lon: -88.271694
  name:  'Champaign Church of Christ'
- ap: 4972
  img: http://i.imgur.com/5j1qaiT.png
  lat: 40.152792
  level: '?'
  lon: -88.253532
  name:  'Toalson Park'
- ap: 4972
  img:  'http://lh5.ggpht.com/oCw3ZC6UKF3aiK6dkbz72dhzUsJNhOmfVjVsXJET_YP5e1p53pLTa8Dep24gLqeY9FghWE0kaAB64vvn7nq0'
  lat: 40.105008
  level: 8
  lon: -88.243265
  name:  'McCollum Park Peacock'
- ap: 4972
  img:  'http://lh6.ggpht.com/pxaCt7clhIXc1RVGMMJZsmnbEWNWjFYJiUrQMev_SeOmXBothvOzmfnirQ5_W8CMa7hpigqydQhKMa4XFCAi'
  lat: 40.108173
  level: 6
  lon: -88.230209
  name:  'Mural on South Sixth Street'
- ap: 4972
  img: http://i.imgur.com/5j1qaiT.png
  lat: 40.203562
  level: '?'
  lon: -88.395264
  name:  'Blue Star Memorial By-Way'
- ap: 4785
  img:  'http://lh4.ggpht.com/T-65fHAmnGmht8xdcXCF8weDy3uDecS4uOASIFtQBn7v84jrUpS3m9_rbJ1MNz5Syzjr8g_zO6YPklMYjlZQ'
  lat: 40.13695
  level: 6
  lon: -88.259966
  name:  'Goodwill Donation Center'
- ap: 4785
  img:  'http://lh6.ggpht.com/yoGdHEqpRRqOE5pA5wHdi_ismU_TrB-kTiqVV63EO630KsU608TIfjLijcqJ38At7MyyrE2urWFMPY1Sops'
  lat: 40.118121
  level: 8
  lon: -88.258039
  name:  'Mini Park V'
- ap: 4785
  img:  'http://lh6.ggpht.com/aHhLEb8O6JqkElC1drnlJBmq8qeC2WzA4W48qkRQwuE9B6opSfHVKARNHu-uAZN-jvPRznVdmobggqRbw9E'
  lat: 40.100674
  level: 7
  lon: -88.281589
  name:  'Catherine Josephine Feinen Memorial'
- ap: 4710
  img:  'http://lh4.ggpht.com/ryDcZUJK2aQ_fI0-hY850_t4ZmG2hNmtCx7cxbX83w3cnUWdI-ywpTuQrUVQNxGl3_DcxxNr6bupfDTsagRa'
  lat: 40.117107
  level: 5
  lon: -88.242467
  name:  'Radio Maria'
- ap: 4783
  img:  'http://lh6.ggpht.com/Jltxi7PZ9OVi8hBCUxdt9oxXQk9zmbrtHpM_jru2WhVYyY0UkNZ8h5SU3CdwMRNzZ1ZKabPR8hDCPz7p3Ms'
  lat: 40.114439
  level: 4
  lon: -88.245013
  name:  'New Covenant Fellowship'
- ap: 4598
  img: http://i.imgur.com/5j1qaiT.png
  lat: 40.152871
  level: '?'
  lon: -88.253305
  name:  '50197185529145c883d36b74db0ec522.16'
- ap: 4598
  img: http://i.imgur.com/5j1qaiT.png
  lat: 40.152342
  level: '?'
  lon: -88.252345
  name:  'Toalson Park Basketball Hoop'
- ap: 4598
  img:  'http://lh5.ggpht.com/auV57ljlnFqueFTLTeFUjp6iIJxsNFs7P_alBDZ2FNvEvUPvRMBhZCrgQOVfMPf7RIyYAHZLElyAiVoJXCFYkw'
  lat: 40.135716
  level: 6
  lon: -88.291946
  name:  'Campus Solar System - Jupiter'
- ap: 4598
  img:  'http://lh4.ggpht.com/IM3Yvrk727rz6f1euz6nTpei6llE4E4oqn_l-WbxZIN3K6dF8pEa7wGKzbjqfr0DBRubxiNFztHBePH9-Iw'
  lat: 40.132147
  level: 6
  lon: -88.291251
  name:  'Staerkel Planetarium '
- ap: 4598
  img:  'http://lh6.ggpht.com/5R8z1wwducaGMkvLFryu9HzC91eX02E3KDY04s9Il7Qrdw8efQiRGZ_vbgqW0Fuvp4-I_d9ugFC6lPc7lxia'
  lat: 40.113465
  level: 5
  lon: -88.291684
  name:  'Anna Jean Russell Memorial Tree'
- ap: 4598
  img:  'http://lh5.ggpht.com/H88EzgVTAsWrhBcyG4PwdAbPDu4BLlyXkVIBnJ6gtmNusC2MU2vLumSrYGbl_7GmGJ7f5kE-6ebyy_VokU0L'
  lat: 40.107512
  level: 7
  lon: -88.244964
  name:  'Fellowship Circle'
- ap: 4598
  img:  'http://lh3.ggpht.com/F_QKFluz0Gh6sC9FPGcL_wT-n-zRGyp0qQ9mnghB2L5Aer_c6Qm1q7KeGoCaGwDoJax_R_sK1atr3F0hP4Ap3w'
  lat: 40.137223
  level: 5
  lon: -88.257046
  name:  'Champaign Fire Department Mural'
- ap: 4598
  img:  'http://lh5.ggpht.com/UTu16bRRNKyJj2cFsU4mRCMkGJbH7YCAm0gQdiJKjnnZtB00kMEb_-Lhf6AnAXRia4MH6FBrWQGkBCrMUz8'
  lat: 40.120135
  level: 7
  lon: -88.253121
  name:  'Rain Garden'
- ap: 4598
  img:  'http://lh4.ggpht.com/kZm6lbk07IpQebQBqqCODikSi-pOMHQhQ7-c0xNGM6vqUskWUftXV4L3ymEbT0T5IELGgfJ2vrxTZvmgP9D_'
  lat: 40.117118
  level: 6
  lon: -88.248618
  name:  'Lieut. E.G. Stillwell Memorial Tree'
- ap: 4598
  img:  'http://lh4.ggpht.com/Iz-O9-kJLlEdRO9osaqkCvLRsSNF24c95jHG0lhtE95b99-cC2bKuCEiznIs1-ytpoCITEwQ7s5VuyURgrpM'
  lat: 40.117288
  level: 6
  lon: -88.248506
  name:  'Prayer for Rain  Fountain'
- ap: 4373
  img:  'http://lh4.ggpht.com/LukOnZPQdxTvyW2kKwpCrzH9PWuOtO6LZyu0jeZSt8ijAhlA0l-3oYZ_m0HbPoF316Mhgbh-SaZNKtmX82c'
  lat: 40.11814
  level: 4
  lon: -88.249887
  name:  'Silver Cloud Oakley Washburn, Jr.'
- ap: 4598
  img:  'http://lh5.ggpht.com/qq3QmeyCYxWnJF_DzzI5wVvHF4foNyr_bF3_j5eVPHJ1omSbD2INOifPJEO3pjz4X1l4_wMGD4uOT1_w6Tid'
  lat: 40.086713
  level: 5
  lon: -88.248293
  name:  'Garden Patio'
- ap: 4598
  img:  'http://lh5.ggpht.com/yK94cjys6dDm62pDsBwEKJP8ioxZEFbb2oelmT5ZMmaNZPkqAXW00NHP3_7fvtyG796u2ZhKGfbY7To9Sdtz'
  lat: 40.088063
  level: 6
  lon: -88.248271
  name:  'Still Waters'
- ap: 4598
  img:  'http://lh6.ggpht.com/do_DYaj2kuC0reA8E9rCQLDp9K62ZQd4qfV0SBSo8iPPupN2U8_deQ7GHA4zS42XaiZnPqoObG_y_dRCUwNa'
  lat: 40.11283
  level: 4
  lon: -88.209282
  name:  'Cycling Mural'
- ap: 4598
  img: http://i.imgur.com/5j1qaiT.png
  lat: 40.202918
  level: '?'
  lon: -88.394249
  name:  'c47c86e036934462bff379850cb47aca.16'
- ap: 4598
  img: http://i.imgur.com/5j1qaiT.png
  lat: 40.205921
  level: '?'
  lon: -88.384473
  name:  '3d4786d723ee4c38a1e26c9603f9bf85.16'
- ap: 4598
  img: http://i.imgur.com/5j1qaiT.png
  lat: 40.203922
  level: '?'
  lon: -88.387753
  name:  'Covered Bridge'
- ap: 4596
  img:  'http://lh6.ggpht.com/TdTc6w1E10iwnW0zYKNCVloc1zKI2Jpm_XcDhw42nHtFkGMXJY26p7-RM1BhUkp1y3_8M_tLQYOLbdOWgSBS'
  lat: 40.103767
  level: 5
  lon: -88.228593
  name:  'Cascading Brick Fountain'
- ap: 4596
  img:  'http://lh5.ggpht.com/POqHe98NzuBf0a60NvZTCOYoC0L6aw_FSOZMaxr88kV1-papt0D2DM7cRXxDK-_qXTmzSJspa4Zzh9ao7rOaN0iWFYVm5G01GVzh-4gAlR8OFvTH'
  lat: 40.09976
  level: 5
  lon: -88.205422
  name:  'Ann and Ben Schrumpf Memorial'
- ap: 4411
  img: http://i.imgur.com/5j1qaiT.png
  lat: 39.966802
  level: '?'
  lon: -88.34467
  name:  '4559bb0f45f9470b8b155f0f3b6c9056.12'
- ap: 4411
  img: http://i.imgur.com/5j1qaiT.png
  lat: 39.987482
  level: '?'
  lon: -88.269801
  name:  'df77244c1c974712aa97b436f767a677.16'
- ap: 4411
  img:  'http://lh6.ggpht.com/f3cOUn1gqLkJZQzs4-Y9j6j2ZXbb1Kmzf3klCFzF8zmFSlZZ-B6O4-5t1KIX95jbYUjeqMgOohEf1ilF75Uqyw'
  lat: 40.132777
  level: 6
  lon: -88.287351
  name:  'Parkland College Prairie Restoration Reserve'
- ap: 4411
  img:  'http://lh5.ggpht.com/9XV46K2cUd84oc6HPyqlj53LKJS8lVs0f0gPHSCBkkTwiHaxivu36dlAj5M38EzK-2U4xhvZJ7AiVvGM5yk'
  lat: 40.118175
  level: 6
  lon: -88.244562
  name:  'The Russell Building'
- ap: 4261
  img:  'http://lh6.ggpht.com/ZB8W5NNUt_ghaLF4gE_7_e_uguOocj1k6qCQvq2eAsayVQyZFUsUA3H5SFkHOwg20GluChbe2MSO_xWoB0bk8g'
  lat: 40.11813
  level: 5
  lon: -88.247413
  name:  'West Side Park'
- ap: 4411
  img:  'http://lh3.ggpht.com/bltQwmnzp2vSKYhLpzNLqB4iddy6ie0kWk9G7Wce4U9qmW3CABxbXAhF7v0oG9QLFD2q57UZuVqZCMgN3MHZfA'
  lat: 40.118335
  level: 7
  lon: -88.243408
  name:  'Downtown Fountain'
- ap: 4411
  img:  'http://lh5.ggpht.com/arF148UpHKIzlt5NezBSpFkItJk3gWq__xkPolNCeVTwHNpQNm1rzIwSdA2oAJBPtaLhpTHcVdAFFdHAXm8k'
  lat: 40.118383
  level: 5
  lon: -88.247003
  name:  'T E Berger Memorial Plaque'
- ap: 4411
  img:  'http://lh4.ggpht.com/4_MOw_NKr2wZ2lzAzG2FlLtA3tfOfWqBZpNVP43LfN6ilD6qHRfZ-_wA1Xk8BnCqHKqKdqodC70X09pqtNXXqmNtK-uqo-fC9SZyOjT6ERfJorzg'
  lat: 40.118388
  level: 4
  lon: -88.245358
  name:  'Springer Cultural Center'
- ap: 4411
  img:  'http://lh3.ggpht.com/VrbXGwlUosNLEkVdshWUFoVa3KtlJQoEU4yLYygvftYbPCmxo644Uvar_v8Kb9RS53hB0tXgvV44GotrxZyu'
  lat: 40.098592
  level: 8
  lon: -88.251676
  name:  'Ruth and Fred Steigmann Plaque'
- ap: 4411
  img:  'http://lh5.ggpht.com/N1cFx79JwZqPlYPDW3HkNwRX8N4Auriii45qzYkAx9l-cKeK81qgZ6nuBpTBEIOyLzy4aIIhQKt2E7ZiysSjkg'
  lat: 40.10036
  level: 8
  lon: -88.250515
  name:  'Mark Foutch Pavilion'
- ap: 4411
  img:  'http://lh3.ggpht.com/Jjm7ZUINFebdUQM0ZQth9oP9Uyw8xFVkOvgyZHQPHJ1pHk0-WPWHpdBULljg6f9GLhbmItzSwpavqyrf1zXwIQ'
  lat: 40.087721
  level: 6
  lon: -88.248276
  name:  'Work And Play'
- ap: 4411
  img:  'http://lh6.ggpht.com/6yxAmr2FjIBpCnPpjbRv2_ffdjnZXpB2FX2OgDLnFT0Oay8HbNuXBErpWWje-HkjfKlf0OugYI9CAtbUcgPsA0B7aD9He4jy7otGJ1mBkF_9NwAA'
  lat: 40.111099
  level: 5
  lon: -88.209036
  name:  'Ibidem Statue'
- ap: 4411
  img:  'http://lh6.ggpht.com/35D1iNCRAADuyy_GrWImGD5u1E_gkdUiJI83zQVCutDNjvgnUMGoJSO5VofyLxsFNKiseGy32YeDyRTB6lqi0Q'
  lat: 40.112333
  level: 4
  lon: -88.208554
  name:  'Error Records'
- ap: 4411
  img: http://i.imgur.com/5j1qaiT.png
  lat: 40.199222
  level: '?'
  lon: -88.382509
  name:  'baa170273cd749acb5338139770e8f70.16'
- ap: 4411
  img: http://i.imgur.com/5j1qaiT.png
  lat: 40.203752
  level: '?'
  lon: -88.38859
  name:  'Covered Bridge Bike Trail Entrance'
- ap: 4222
  img:  'http://lh4.ggpht.com/W2chhQwPqSJEkl57NVoIL-OE4KFvJfp7Bsrrxza1apCYltcT3npz95LJxqHxvT9ZZu7wxF2gQy-5bpKal2p2'
  lat: 40.115838
  level: 7
  lon: -88.241338
  name:  'Illinois Terminal'
- ap: 4222
  img:  'http://lh6.ggpht.com/Sz4BABPqyoIyZVGpSBEM1QNIxPngQLl7hopqjyVJi_fak1xgpFAX_X7TbK6tICEaYnLrvC1hV2jv-AwPofQX'
  lat: 40.090038
  level: 5
  lon: -88.249379
  name:  'Three Hierarchs Orthodox Church'
- ap: 4222
  img:  'http://lh3.ggpht.com/lGjbP2iz0XvlEWLhgCBNqkWukvjrBowKmX-1_O44U1A3_4b3-vuXzkfp7rasqU81TcPBoQO82gAzEGtBBYcR'
  lat: 40.106058
  level: 6
  lon: -88.223672
  name:  'Music Building'
- ap: 4035
  img:  'http://lh6.ggpht.com/wk0l8Qe7j_Ph_LhyPvdNO6g8nwrxpswodrbNuOzLa3K1QNBrIVidi9iztmDXu3HtCWo5TpqDDjPsEbSl2aWUKg'
  lat: 40.144554
  level: 6
  lon: -88.248689
  name:  'Town Center Park Champaign Park District'
- ap: 4035
  img:  'http://lh4.ggpht.com/ln3YbdhkDSQ19t2mM9P_UcuQQA67KZkxL5aFii6BK7359DmhZ_z7Zk_GHQ0XQDLl8X3UnUr0lhnCkOlv6lwl'
  lat: 40.125825
  level: 5
  lon: -88.244671
  name:  'Randolph Street Community Garden'
- ap: 4035
  img: http://i.imgur.com/5j1qaiT.png
  lat: 40.312242
  level: '?'
  lon: -88.201368
  name:  '2012 Employee Dedication Bench'
- ap: 4035
  img:  'http://lh6.ggpht.com/Jz3ahY5LQ13wKWLY9SEvexiinJa3GeO1eB_FynplikRpa77swLST6cUAJjPpqKDSq2KU4Dcyui-QBstz_Z3k'
  lat: 40.094624
  level: 5
  lon: -88.282953
  name:  'Greenbelt 2'
- ap: 3660
  img:  'http://lh4.ggpht.com/OKjZe5DNbqsjBvhTWI2C_GTSbIMUanllb49pzoadj3izBmngp5kFNgLokw6jbL1Y3BnreLD-LmzLdNEx-eRI'
  lat: 40.105694
  level: 2
  lon: -88.225345
  name:  '1981 Iota Chapter White Anchor'
- ap: 3848
  img:  'http://lh4.ggpht.com/iF9ok9WK8tu0rwNJsbJggC_OqQxiqKIF9QRpGOgIrlZa4Dr4JYrLxWeFDe43Js9WGFiKCOlMNMZapd_SBQ5T'
  lat: 40.111945
  level: 6
  lon: -88.282707
  name:  'Champaign Cycle'
- ap: 3848
  img:  'http://lh3.ggpht.com/ehNwLdaa71H3Bylm063pawn4caIGz2rCdmmdBhAFWIuEt2kPjT8nWHDkSuoOidckWiM82FWpDSNGQqQMHiQ'
  lat: 40.098209
  level: 6
  lon: -88.28689
  name:  'First Church of the Nazarene'
- ap: 3848
  img:  'http://lh4.ggpht.com/vKkSwERLa3zQO2UUIiYl1AEruAx1QTPcP4jSmPt89PG4AviJ1WhlVVH8qmqJ0aY2gqJmHcqdZFcM2pQconc'
  lat: 40.139375
  level: 6
  lon: -88.272793
  name:  'Salt And Light Ministries'
- ap: 3848
  img:  'http://lh6.ggpht.com/WA_L9RXB_ZwCyxpgQ7Lyjp1-4xTl5O-BQohOBQcoEMnP7-wKp--MGUdnY_DPuCGZ78-x0LtEWc8FT2n9QMPS'
  lat: 40.148879
  level: 5
  lon: -88.258423
  name:  'War Veteran Memorial'
- ap: 3848
  img:  'http://lh6.ggpht.com/PXc3YHSOsx0c_WrfpzvHHiHEl1FSv5RvbgXj7Ji3-xS7oBwJIkFCD8eQySiUega_iQvX8FiUBuDhXdK9l9QWIA'
  lat: 40.116623
  level: 7
  lon: -88.240844
  name:  'R. Forrest Colwell Memorial'
- ap: 3848
  img:  'http://lh5.ggpht.com/6qIQAtIoPbAVQ1O3BoOnGg6gtTa9fd0JIkxt6P1kmSimVswLaPpCRaLEudsNcMfP_kKb4SCE1By1o3lhYevmIA'
  lat: 40.1172
  level: 6
  lon: -88.243745
  name:  'Circle of Friends'
- ap: 3848
  img:  'http://lh4.ggpht.com/zZ2YpVpDiI1KdIQ9iI7mGJD_VtwFztJ4ZF1vRehD9OSnQ2K3433SIg22svwcqDJVfeO2fjE3fdT4eHAJWGpi'
  lat: 40.104339
  level: 7
  lon: -88.234788
  name:  'Pi Kappa Phi Fraternity'
- ap: 3848
  img:  'http://lh5.ggpht.com/fGRHfMAqdWrUnPE8GStKSdMkgQmu9qvuxAC4VzcU1v2KyxQu2BeuJKhvhefSeFNTkgFh6YdR-F4P6plMbh0'
  lat: 40.110194
  level: 4
  lon: -88.231488
  name:  'Fighting Illini Memorial'
- ap: 3848
  img:  'http://lh6.ggpht.com/cUV2o6ZPyJSFnHYl7jePeUIS7BrVr1H5D8Zbf7B3B8ALrTq7pTI3e271i1DHztqUGXITpiA399P3vNP83fk0'
  lat: 40.105767
  level: 7
  lon: -88.223378
  name:  'Busey Hall'
- ap: 3848
  img:  'http://lh3.ggpht.com/oSQ_YOHo2mfYjOa8bPK9ellznKK29UluW-SeXoGYra9VFg8dJp6YQRdHbHHaTExqXs1qUMBNmpI2hUPcC4GI'
  lat: 40.106789
  level: 6
  lon: -88.222992
  name:  'Beginnings of Computer Music Plaque'
- ap: 3848
  img:  'http://lh6.ggpht.com/BzDhCANV_iNTHhKFBGLuaUqOvChRZtPWnJ2Xk4h7NsKJHmTGgCWtFHWv2PpDA2fCsHHKSCRTrUNK8AKrLRnS'
  lat: 40.108066
  level: 5
  lon: -88.230687
  name:  'Community United Church of Christ'
- ap: 3848
  img:  'http://lh5.ggpht.com/kElaGOaV9aI8SrnM1D65gx9J0Ky1AKrN9Yo-pXVmDhELt2pee4MwVRiCqCmlqWzUWj5pS33GnEzAiXmiWKsw'
  lat: 40.108111
  level: 5
  lon: -88.229625
  name:  'Illini Sports Mural'
- ap: 3661
  img:  'http://lh4.ggpht.com/yi9OPnLGsLTvtOMNuOUfed6edO9tB6h0QmSHJaKKaiMyEXC8Aj2hz9hIvgh8C2DY76mVgNHw4S0gsYpkPpkt'
  lat: 40.148692
  level: 7
  lon: -88.248724
  name:  'Fountain Town Center'
- ap: 3661
  img:  'http://lh3.ggpht.com/NgusMNa_MQJauBXm1lCWXnmzNqo5-TB-ihUlPa_vaI83WESAp8ChhEVR7KuBr_Na2-hzlLU7AB_STTq1gu7cwQ'
  lat: 40.112585
  level: 5
  lon: -88.271575
  name:  'Bobo''s Barbecue'
- ap: 3661
  img:  'http://lh6.ggpht.com/6pMlM7pPsp-5PTNYZ8AJgo5ODURCPJO-_LigeHL2TMhjfK9MS17iEcpQqc89n5gyUdEO8seZrlThTGbKEqg'
  lat: 40.132999
  level: 6
  lon: -88.292808
  name:  'Campus Solar System - Mars'
- ap: 3661
  img:  'http://lh3.ggpht.com/rgh_2qJQUPC1OrARUkiQqPKoNReiqZYOimm5Nszb77pDh72OszuyiJBKn-vDxHUuyjO2XTeKU9GBHc3oHIYr'
  lat: 40.115283
  level: 4
  lon: -88.287899
  name:  'Greenbelt Bikeway'
- ap: 3661
  img:  'http://lh3.ggpht.com/PijfKs7HCJf1vVcIxcTF1HPOYaa5iS4ZECXZUQ2dDDSn9ZCXSd8FGHThRUiEIC-oMNmClt0seIzn8FsaGPER'
  lat: 40.112752
  level: 5
  lon: -88.289696
  name:  'El Toro Fountain'
- ap: 3661
  img:  'http://lh5.ggpht.com/QruW49d2dc1uhQlK1BaZIeo6ruDNkqQfmvZz83eQ-1aC9ytGUcpFaHnKRTnXRc70F2EZ0-pVKGr9Slo0_9RfxA'
  lat: 40.139749
  level: 7
  lon: -88.273955
  name:  'Northside Church of Christ'
- ap: 3661
  img:  'http://lh3.googleusercontent.com/GDPeCcTdJQAFt7LgbquPo-YOAp7bq5HCFbElMBeXztI4hraTGO-j1GcNOwKaaSRRLcEHG13Gu-VDboEG4a7-'
  lat: 40.149097
  level: 6
  lon: -88.276148
  name:  'Illinois Heartland Library System'
- ap: 3661
  img:  'http://lh6.ggpht.com/yQPHFh4brRKGyXx9PtGN3hQza65T2PIyjArUf9NgW5fqFvx9m22oY2acMcEwFcVRNh0MTfGqc0WfMJFOt1io'
  lat: 40.10725
  level: 7
  lon: -88.244219
  name:  'Titan Games'
- ap: 3661
  img:  'http://lh4.ggpht.com/Iw1zFYmvkp5-xEIthuGSfIqcCRd0lVw_uGS4y_I5DIg6xQ0CUp4_S4GL3JOWv7XFZLFqFH9O572bGCNhB78IMQ'
  lat: 40.102126
  level: 7
  lon: -88.283224
  name:  'Leonhard Recreation Center'
- ap: 3661
  img:  'http://www.panoramio.com/photos/small/52867363.jpg'
  lat: 40.101676
  level: 6
  lon: -88.231098
  name:  'Sculpture, Krannert Art Museum'
- ap: 3661
  img:  'http://lh4.ggpht.com/lpJC8CMq12VKjzn5jKxDzhuO6-wy48dUIJ1qAD7jiTQom4qZYFUDgxd3-1wexag_aT8akZC3P7VTqei0H48YKQ'
  lat: 40.100482
  level: 7
  lon: -88.281627
  name:  'Henry Bradbury Memorial'
- ap: 3661
  img:  'http://lh5.ggpht.com/Sgu5qG2Ltp9axQc8nEr3fJ_qvNo6-gwd5TuKMrk2LM9d5P7DDy0oCoWiGnr6Ybp84FGMh9DQYLnFtBTZtBIm'
  lat: 40.113606
  level: 5
  lon: -88.243766
  name:  'Mural on South Neil St.'
- ap: 3661
  img:  'http://lh4.ggpht.com/6iTxW6HC8WFx3nf6xEGhZryWVxW9NNijqTsEKvcBCBkmkmLZdUjaDHKReKT58cl8RUaCwDCL7pMFmBEyj3Fc'
  lat: 40.117602
  level: 2
  lon: -88.249943
  name:  'Megan Schneider Patel Honorary Plaque'
- ap: 3661
  img:  'http://lh6.ggpht.com/EiNXerTyRNFVC9pti48SExCtqR9p6t3-Xne_jw2YB90-VjUeJ3KGX8Se436SNVkFb5wOw0N7CKCz9brOeVg6WQ'
  lat: 40.117802
  level: 5
  lon: -88.249547
  name:  'Warren and Mary Filer Memorial'
- ap: 3661
  img:  'http://lh4.ggpht.com/H1kV6JSczzSbcCblAHg5ZOgITW1mBAz0_oLbqbzxBlijGTBn7TP6KwA6UI0AAGrCN4VF0DAF79Vcj6_2R4dsB8LRTq6tud6v'
  lat: 40.116164
  level: 5
  lon: -88.241661
  name:  'Zipcar-45 E. University Avenue'
- ap: 3436
  img:  'http://lh6.ggpht.com/rjO65LTfxlehqnFITx_AAA2JKpsmpj8hWVQifyHaji2E1suLvQntKGeHtT8TjDg7CZ94W3wDKW2MrfGY45k'
  lat: 40.11699
  level: 4
  lon: -88.247796
  name:  'Feathergill Honorary Plaque'
- ap: 3661
  img:  'http://lh3.ggpht.com/4NvHbplhArQJrKIkJMw4Ia0q_OtktXP-jC6FtPlgn6V49hv8LJbu0RC2ff0eTy3bF3ihXL12v5CPGwvlRNBF'
  lat: 40.127538
  level: 7
  lon: -88.199119
  name:  'Perkins Historical Site'
- ap: 3661
  img:  'http://lh4.ggpht.com/iRPhpx4s3jizpgH-t4zcZOW-Jul7KHBgBpNjZj2ffC8EDKa0EJDxiqTbSEcxrxuIQhWHTeYD50_TZvj9YPv9'
  lat: 40.129438
  level: 5
  lon: -88.215343
  name:  'Woodlawn Cemetery'
- ap: 3661
  img:  'http://lh6.ggpht.com/RR0i4QdfoY8NkTQtssdOtDLhAEaCR7e-R4ipk5NzdKe9lTGDq2nyKI_7sF2BCXrgCZAZ2zEEtIzS7vg6Pu0hzA'
  lat: 40.126458
  level: 7
  lon: -88.218544
  name:  'The Vineyard Church'
- ap: 3661
  img:  'http://lh6.ggpht.com/yUOWOqDbf6AO83PFdgc9HePIDDDb-Ti1NAzLec_4AwYrO5NsnWsGH7K7MDb5q22wdtUh6uqekxpMHYjlnfRLEQ'
  lat: 40.104673
  level: 6
  lon: -88.233278
  name:  'University of Illinois Armory'
- ap: 3661
  img:  'http://lh6.ggpht.com/f43AXqkZOVuig6JgnORI4vC7QZWr2a0lnTW39-gMaRiWW13AuK6U0ZSoFc1k6xi2YvZU6ad6EC-xTq404ZM'
  lat: 40.103258
  level: 6
  lon: -88.241752
  name:  'Medical Services'
- ap: 3661
  img:  'http://lh6.ggpht.com/uaO1clC1eOzxRVRPPU6mVM4lEPV2U6uxh64a8kJNRglHSObClWlHGEcfJTknzwB_7Wli3doxQJbZKiBHIXI'
  lat: 40.102834
  level: 7
  lon: -88.241672
  name:  'Rehabilitation Education Center'
- ap: 3661
  img:  'http://lh4.ggpht.com/uFzVDRyA2rjdn4aETW_JkVQbt1VGPIPTP1wzWdOKSHXw8RUYMTCXfGsXsXzaEDmAYEN1xK8-jDksNEeHT6Y'
  lat: 40.123229
  level: 5
  lon: -88.230869
  name:  'Frederick Douglass Community Center'
- ap: 3436
  img:  'http://lh6.ggpht.com/yYW6Egg1lWn6UqqLzlgqwCQhtbuxiZSW4TmvI1XBPs33OTTJ0oh51XZXOIILxGI2juoO-E_YfG5UHmeb34rSOw'
  lat: 40.109165
  level: 4
  lon: -88.230269
  name:  'John Street Plaque'
- ap: 3661
  img:  'http://lh4.ggpht.com/OFVPvdgB3GVpaQknHdnt2okgP3xcQksAH3wvOGYVuP85MMlxo3bQ2SRpBb0hzNfjQoC_5LlRqaE6jLB-h9Gr'
  lat: 40.108092
  level: 3
  lon: -88.234589
  name:  'Koinonia Plaque'
- ap: 3661
  img:  'http://lh3.ggpht.com/0HyRE6hI-Dp8OIZWrGjSBLw06g4xLl3H3SxdYDO-wm20QdpGQtvQ1-GBpxfAE5WNcC0D_aY-oOfGM1Wj1--EvQ'
  lat: 40.106092
  level: 6
  lon: -88.223135
  name:  'String Project Plaque'
- ap: 3661
  img:  'http://lh6.ggpht.com/y10QgRCNt0Bsefqp3olKgJp98whQkS0-vWqPskj3421hcSq96BG-b_KROqsO1mBEcNiYtAKhXuXG0EV0eaUW'
  lat: 40.107152
  level: 7
  lon: -88.235244
  name:  'Bromley Hall'
- ap: 3661
  img:  'http://lh5.ggpht.com/NUOCD82iNRGW1NGqEC4FKet1u5_cm4WRNc2c9_YABAjGf6-OSCLz7HgYkP1ZuVAbpMl6Qi10HRW16Oc9jNM2'
  lat: 40.106401
  level: 7
  lon: -88.236182
  name:  'Washington Park'
- ap: 3661
  img:  'http://lh3.ggpht.com/A87H2Ev-nSq_HCpnUCxDLdRG04MKhj9Uap_0Ii4kdUx_db5SwcKhAAOey5ls43XiDLYaw7uYymdNMcsAXfNo'
  lat: 40.106182
  level: 7
  lon: -88.235521
  name:  'Evans Scholars'
- ap: 3661
  img: http://i.imgur.com/5j1qaiT.png
  lat: 40.204153
  level: '?'
  lon: -88.394092
  name:  'c956d501b48c44ec99467b20bfadc850.16'
- ap: 3661
  img: http://i.imgur.com/5j1qaiT.png
  lat: 40.205583
  level: '?'
  lon: -88.394066
  name:  'Champaign Countys Lincoln'
- ap: 3661
  img: http://i.imgur.com/5j1qaiT.png
  lat: 40.205076
  level: '?'
  lon: -88.39379
  name:  '88b22f723d954699bdb089ff05d12bf6.16'
- ap: 3474
  img: http://i.imgur.com/5j1qaiT.png
  lat: 40.589703
  level: '?'
  lon: -88.383298
  name:  '1283fc2d103c4463811120816366ad3e.16'
- ap: 3474
  img: http://i.imgur.com/5j1qaiT.png
  lat: 40.749295
  level: '?'
  lon: -88.511856
  name:  '7434631923f14660b419ff4535a6d72d.16'
- ap: 3474
  img: http://i.imgur.com/5j1qaiT.png
  lat: 40.586402
  level: '?'
  lon: -88.383916
  name:  'd642f015efd04fc7a35f14dfc2c894d0.16'
- ap: 3474
  img: http://i.imgur.com/5j1qaiT.png
  lat: 39.986869
  level: '?'
  lon: -88.266876
  name:  'c0c561eb8ffb4ac380cc6b9b8cdafde8.16'
- ap: 3474
  img: http://i.imgur.com/5j1qaiT.png
  lat: 39.966649
  level: '?'
  lon: -88.345263
  name:  'f91d12c0ef074e13a5978fa658722945.16'
- ap: 3474
  img:  'http://lh5.ggpht.com/7MD3uqic9NvHKG2s5NBkAL6kdsBT10BzFJ6jTSaOfZS8mbyTlRDRYtizrxfH8ZvyqpRWXJHgmC5bk9imHqQf'
  lat: 40.114042
  level: 4
  lon: -88.289889
  name:  'Optimist Club Dedication 1991'
- ap: 3474
  img:  'http://lh6.ggpht.com/ukIJOts1W6BPpII4XC4_Q5Wh8Gz8aCNeGUuAtaLknm7OKhNYvlDd71ZN8hcxCRcJDhDjV0qBZgFRyYMGNeS6'
  lat: 40.100203
  level: 7
  lon: -88.281602
  name:  'Karlee Elizabeth Feinen Memorial'
- ap: 3474
  img:  'http://lh5.ggpht.com/tuo_ByFTbwLitFP5cBseOibqRxENxbCwOJ30dCnja5ijBI_qBv5vqNP7ZuZXnxhYM6ms_GbExZEwwKVUtwV2'
  lat: 40.093712
  level: 5
  lon: -88.281583
  name:  'Brownfield Dedication'
- ap: 3474
  img:  'http://lh6.ggpht.com/p2F3xw4xL4UdiMM9aSy628ISSglrvjPexpF3j340tMAP9MX07yh_sJv7kHVkeud8lyFf2ZwDohw3zsRS2PSd'
  lat: 40.093914
  level: 5
  lon: -88.281531
  name:  'Terry M. Warmbier Memorial'
- ap: 3474
  img:  'http://lh6.ggpht.com/XsUl74M1oxj6ptAvGEBOMH2wivRhxBNns62UJSGcPiQkuJIgPrmUYxMpSZZUfXRMMjrwoxlFK_DbAM78UrOh'
  lat: 40.113499
  level: 6
  lon: -88.244374
  name:  'Shatterglass Studios Mural'
- ap: 3474
  img:  'http://lh4.ggpht.com/9dqmZPc9OI1ON-iEnfXAxSAMX2M07pEgKUsb47vLrTrW2BW61siFLquk1fXbldWXGPg69XGdSG4wKPGS5rI'
  lat: 40.113521
  level: 6
  lon: -88.244122
  name:  'Artistic Graffiti at MCS'
- ap: 3474
  img:  'http://lh6.ggpht.com/NXptd9bdifQT6cVxz-SPGUsryPaznp8rV3omDk0J50MnN5Mmu6oiYNa0FXIgG8FnFreUVsSPzRvQNZXYcO6G'
  lat: 40.11817
  level: 6
  lon: -88.249381
  name:  'Bicentennial Tree'
- ap: 3474
  img:  'http://lh4.ggpht.com/MvwoDsxwfyNLHzfGkFJl-4VFeX7OvqB0hsMCrZ2D9Olh8GSghAJDfFfDh7a7cOtMIGwEDMyesZoKvKCXAGj4'
  lat: 40.116553
  level: 6
  lon: -88.242268
  name:  'Esquire Lounge'
- ap: 3474
  img:  'http://lh4.ggpht.com/3gTAX6rKgNjLmBOYvAVTgSPQej5yRF_38uRllp9H4n5N6pvwWo5kDMDwlIkFVPPl30BXPSGAlZ9pO9B4DMk'
  lat: 40.116218
  level: 5
  lon: -88.242141
  name:  'Live Action Games'
- ap: 3474
  img:  'http://lh4.ggpht.com/PfcTU4XsA06ThtmCWydIWhTsN3gR4jrqnrKxu0O5lhyibhRdKMEaf3jM8VNhViF8qLf13b01E71wr_ajxn0'
  lat: 40.118465
  level: 6
  lon: -88.245077
  name:  'Mural at Nitaya'
- ap: 3474
  img:  'http://lh6.ggpht.com/1K0653ZxIuKpFDYjAXvWFkFii9HCrpkUZDascv0U6nSG3FskYCLjraQFxKX5q3QGemaoIvHBZzttiSoAvfs'
  lat: 40.084517
  level: 5
  lon: -88.249848
  name:  'Boulware Trail'
- ap: 3474
  img:  'http://lh3.ggpht.com/ugJXpaIWZ-wI1vpderJmQjM8r0T5_Li2j4hvvsu4fRM9k3MeBpETqj2LFNd1pEkcfH0I9bgZh--5g1AEJKkq'
  lat: 40.092745
  level: 5
  lon: -88.251235
  name:  'William C Fox Honorary Plaque'
- ap: 3474
  img:  'http://lh4.ggpht.com/t9XdqtZoVqa6pvf7438XI4j4rektVw3Ofc1zhrzfnC7CGLUyOBPBT-rWb9kBvJJkX39pLJcKjHIuBdr2_0gkvQ'
  lat: 40.122959
  level: 5
  lon: -88.230243
  name:  'Free Will Baptist Church'
- ap: 3474
  img:  'http://lh4.ggpht.com/loms_Bwu6Fx06JKV5GHpwVU2gK43md3B1mTXanT0qRHxfLO_uww9xRFbnsBdrHWsJDeTw3kGnj9VIIuFcUW8'
  lat: 40.122945
  level: 5
  lon: -88.229811
  name:  'Lighthouse World Ministries'
- ap: 3474
  img:  'http://lh4.ggpht.com/u_MtizNv_keIXM4ITgtjqC8nr5JvB8UpDBg_5_08uQDTsQr44mwr6ZlkhTp0iKbvcV9xCJqXDeN66xYWaI0'
  lat: 40.116227
  level: 5
  lon: -88.233833
  name:  'Haley-Walker-Ginza Building'
- ap: 3474
  img:  'http://lh4.ggpht.com/d3UqrcK5M1wuOe19dIaBUOkrXF4C9IxhOWfxqzM4zIHkGsUIRb1mckNapOMRkkCtVIe0rzJumb1OVDVc1_Y'
  lat: 40.108055
  level: 5
  lon: -88.233688
  name:  'University Baptist Church'
- ap: 3474
  img:  'http://lh4.ggpht.com/hJDi8J7CZU-933hT0Culp2nhslv6p8rDRPdTFz6FwNaAjB5CmfkaQzj9sM--E-QBvI8yvIJn1F2jxy7ZKWlh'
  lat: 40.10816
  level: 2
  lon: -88.234245
  name:  'Stratford House'
- ap: 3474
  img:  'http://lh3.ggpht.com/I8Cra-oBAq7td_84j0G8l8DIMXhxPP-O8A8xPb1WZb8O2s9DBapV_osKefRuzzDGDhcPRA9WT7yaPBvkGE4g'
  lat: 40.112836
  level: 4
  lon: -88.22802
  name:  '1909 Senior Memorial'
- ap: 3099
  img:  'http://lh3.googleusercontent.com/I_CYGgoX5eWayBRAI_2QSZUA1sSjZM3mwS0L3JE6acDTyw7LZwi2Ba9dvUiI3pCqHTC_bfEtRl1xYh1JpY2x'
  lat: 40.111109
  level: 1
  lon: -88.209451
  name:  'Stack of Books Statue'
- ap: 3474
  img:  'http://lh3.ggpht.com/KWHNT4EiiNGpY2l5u1PUHpwnZQcM-ACjcmsF_Ud469mGwgvKWxlH5LM7vyX0NwuZxEcytY7HhFwRRn9onRocwg'
  lat: 40.112532
  level: 4
  lon: -88.208181
  name:  'Urbana Cinema'
- ap: 3474
  img:  'http://lh5.ggpht.com/_7T_9npLcYDGVQxXhXrsFORj35gQQEYqiUxwW949h0mVOq-jNHvpY7g9JscyWOIX-Km5HQ4RLRKtUI2nR7Nw'
  lat: 40.099589
  level: 5
  lon: -88.205137
  name:  'Blair Park'
- ap: 3474
  img:  'http://lh4.ggpht.com/6MEoCJZd9Ta_ZsMWkU32I0UbkFxnZs1vAg1mWkxFqHFEO4yp6zDb6Mcahj1ThpCEoN5PrLBvf1X87Cs09tw'
  lat: 40.09841
  level: 5
  lon: -88.205103
  name:  'J C Blair Monument '
- ap: 3474
  img: http://i.imgur.com/5j1qaiT.png
  lat: 40.197074
  level: '?'
  lon: -88.380682
  name:  '96e907b9ab1a491291992663353f5c22.16'
- ap: 3474
  img: http://i.imgur.com/5j1qaiT.png
  lat: 40.204951
  level: '?'
  lon: -88.384876
  name:  'b0532370be9c4b2585b6d599e0b06ad9.16'
- ap: 3474
  img: http://i.imgur.com/5j1qaiT.png
  lat: 40.205206
  level: '?'
  lon: -88.393464
  name:  'ffb1c8830f184f8b9886fbf7c7604a37.12'
- ap: 3285
  img:  'http://lh3.ggpht.com/4b6ZQuP0tb_xLUTbymIlLrHiMm8NTxgLY021uO-WQ4Z42V3CMXR_2S_aEZOb929B0D30IddZrRKGigpHQqP2'
  lat: 40.113738
  level: 5
  lon: -88.296023
  name:  'Turtle Rock Sculpture'
- ap: 3098
  img: http://i.imgur.com/5j1qaiT.png
  lat: 40.026865
  level: '?'
  lon: -88.535309
  name:  '978bef9392354bf895fe9c00c1cf2a7f.16'
- ap: 3098
  img:  'http://lh3.ggpht.com/yQ9HtiIe7ywa9U_kppXZTr0IMkQknRGoEvP0rzx7MH9z4dfWLrPhk_LChaKkVmkqQz-Ookk0fuka27YY39nr'
  lat: 40.109336
  level: 4
  lon: -88.208978
  name:  'Korean New Life Church'
- ap: 2911
  img:  'http://lh3.ggpht.com/NN6RkPjzu0pZ6JauW9eKN-KWuNlwHaRQ0_uMQvlrQTjZZ87KcW1-QHyqEy7ECKLDIzzsRcmsrDfbmDALT5e6'
  lat: 40.083988
  level: 7
  lon: -88.287936
  name:  'Flower Island'
- ap: 2911
  img:  'http://lh3.ggpht.com/psgrRGIt786cUSq8EV7SBSDsS-aptrUKjaCXWv864H7OaJL2K71qJpxU9Iw-acwFMi52ZN2qpEmicGmlmhJq'
  lat: 40.121061
  level: 5
  lon: -88.250227
  name:  'Curtis F. Columbia Legacy Plaque'
- ap: 2911
  img:  'http://lh4.ggpht.com/ik1uVZ-KWyRH4dh51LJI7gFmnM7bmfSZ-1YqfELbVQEvuo-gEx2QpG6jQpFPeAlFPi2rVPAuzRmXMD0Whsm2HA'
  lat: 40.122038
  level: 7
  lon: -88.245318
  name:  'The Old Residential Block'
- ap: 2911
  img:  'http://lh3.googleusercontent.com/abyzHmsDcu4wr2nZ5KrzfryQDjq08lgz16ggCtHboK-pAhp8lhjyJoStUFTg-XDe4SPzYjAxvNLQuix4tsgc'
  lat: 40.132193
  level: 5
  lon: -88.279832
  name:  'Tribute to Olympic Athletes'
- ap: 2911
  img:  'http://lh4.ggpht.com/aQomBYYXuWBUbnpgDH92zk4VBmLMOuf5n6WXkMHGTzf1DUlyXL-u4a9ulFUrqE5AO82s_LFM126E-B0HqONp'
  lat: 40.088127
  level: 5
  lon: -88.253036
  name:  'Peggy and Robert White Garden'
- ap: 2911
  img:  'http://lh5.ggpht.com/AsiP7X99phJsAWWLusxVx9jztxrqq-wjSe7AQS2KrK6muMt4sB3UIjlshPNUA13BR-o8cX70DxvhbxODvrY'
  lat: 40.087526
  level: 5
  lon: -88.253714
  name:  'Plotner Memorial'
- ap: 2911
  img:  'http://lh6.ggpht.com/oTEawnC2cPnZ7T10vs9tiueaLsN0ILM7tgPLWVfa0njwvTDrUvS-w8x5SK4iMDd0tuHYP2w5a-H0AQ4NaAyU'
  lat: 40.116388
  level: 7
  lon: -88.243702
  name:  'Cycles of Love'
- ap: 2911
  img:  'http://lh6.ggpht.com/Ga3KqqKjCVdJ61URIBqkyBWPxV3xirqZoKzANDZmHeorlcqipmRLJFOy4-GmWU_2_783_KDPu3hkA0PNh5s'
  lat: 40.124082
  level: 7
  lon: -88.243434
  name:  'Theb Sculpture'
- ap: 2911
  img:  'http://lh6.ggpht.com/SOEkawCv91wHrlqOJdkbN9KzhF3V8Uc1_VE_5V-PUNZhbJ9jXtSHQLjSEP4PGO091UFjUtYxX4Ikg7x6rE0LNawabllL4qbEUfQY-thKMrIXW2E'
  lat: 40.100186
  level: 5
  lon: -88.205286
  name:  'Blair Park Viewing Pavillion'
- ap: 2911
  img:  'http://lh4.ggpht.com/7NJ1wKtp4ioJudcPhY5qErw0Nh7MKYhm0RnQXURwQtlyukI7tbSb4MQT3Ob6P7qz3QCAyNwOSzkjcvBjw4FpZw'
  lat: 40.10565
  level: 6
  lon: -88.221497
  name:  'Gove Plaza'
- ap: 2911
  img:  'http://lh5.ggpht.com/lagLH-yy6la5yqn0YoNwS7uxRSPXDfSP2QwvgnDmG-ZcaxqMNKYlASfYjw50kzq9GOOJ-0nmAa-3IlmGe-A'
  lat: 40.105777
  level: 6
  lon: -88.222002
  name:  'Preschool Learning Plaque'
- ap: 2911
  img:  'http://lh4.ggpht.com/H1kV6JSczzSbcCblAHg5ZOgITW1mBAz0_oLbqbzxBlijGTBn7TP6KwA6UI0AAGrCN4VF0DAF79Vcj6_2R4dsB8LRTq6tud6v'
  lat: 40.107753
  level: 7
  lon: -88.228913
  name:  'Zipcar-Wright Street & Daniel Street'
- ap: 2911
  img:  'http://lh4.ggpht.com/EsyXMnqVMX7wQ4YmoCFRiNljaJqaXrQvzyzzooqx2fPxCSkJMkdEssTbf618D8Qp9hh3E4Ud3hL1M3v-TsbO'
  lat: 40.104688
  level: 7
  lon: -88.230676
  name:  'Sousa Archives Center-Amer Music'
- ap: 2911
  img:  'http://lh3.ggpht.com/R0zPYMelKt6ABg3zkWyG1YtEMZm-4wbpveEmzXpn4vtolg3zStvSDscmdgZ4t1YW7vbSTYCBMS74-Tmq-XPU'
  lat: 40.112166
  level: 4
  lon: -88.20625
  name:  'Abraham Lincoln - Eighth Judic'
- ap: 2724
  img:  'http://lh3.ggpht.com/ZOALJqKi7gNpN7e2IXnkcpGhKdME-MIGNVz09KJfsruk0ix30Xa_lWaNAMj06IpkfgGbmbNvDXRdDkLgGGA9'
  lat: 40.090629
  level: 6
  lon: -88.29504
  name:  'Roby Recreation Trail'
- ap: 2724
  img: http://i.imgur.com/5j1qaiT.png
  lat: 40.196926
  level: '?'
  lon: -88.366258
  name:  'Filippos Pizza and Italian Food'
- ap: 2724
  img: http://i.imgur.com/5j1qaiT.png
  lat: 40.245226
  level: '?'
  lon: -88.3081
  name:  'Jersey Cemetary'
- ap: 2499
  img:  'http://lh4.ggpht.com/DKqCX7ekIzT953BiW_t-Oe0jBg-GV5rCptYhvQqlLpQdaRpMxnNfMXekcxHT3XIhqCgskbqRwa-YofxMh71Q'
  lat: 40.090655
  level: 4
  lon: -88.289418
  name:  'Peter Taylor Lewis Baseball Field'
- ap: 2724
  img:  'http://lh5.ggpht.com/6-orj1GyBCNo5--9rpQzjPVywlT09WmTnpyDc3jTbZjIGW1Rquy_keKtkNflBWVf4R6UVZFmPJt9z2KrBYKH'
  lat: 40.08947
  level: 6
  lon: -88.289609
  name:  'Robeson Meadows Trail'
- ap: 2724
  img:  'http://lh3.ggpht.com/5OA9gBD9HJe7pZRJ6DjHOGIbC9paid10T5gOLcZS91YP3V0eTMGqvFmPtvp6UtWzb1w2sOV5dbYmxDUFnQ0x'
  lat: 40.101862
  level: 5
  lon: -88.231737
  name:  'Krannert Art Museum'
- ap: 2724
  img:  'http://lh4.ggpht.com/bYrhTw8QophdiqDG-upqJ6JX2g2tZYX4N1jC4d_cciIj4ep8oQvIgjJlfge2VCmzSZe9irj-BTpbj9Jcv7U'
  lat: 40.103009
  level: 7
  lon: -88.233215
  name:  'Mac and Diana Garret Memorial Tree'
- ap: 2724
  img:  'http://lh6.ggpht.com/JgD9-vk2pVIQENqssLAn_4Smd4aFydCLSHsQWVF4D4gn8xxgO5PTgDfjr0DKtVdau2_ZQc7RR-gYrOaMwStSRg'
  lat: 40.143345
  level: 6
  lon: -88.256693
  name:  'Captain Morgan Statue'
- ap: 2724
  img:  'http://lh3.ggpht.com/my_h4qixFMd6jwP9asxucVH5iZ3ZW1oV4DbCKeys_8MAAp1-KYNV0YFzZtZTEd9L0ZaMl1OqucHJTPdwROI'
  lat: 40.127447
  level: 6
  lon: -88.244069
  name:  'Hazel Park Playground Dedication Plaque'
- ap: 2724
  img:  'http://lh5.ggpht.com/k_9eqZVvGcr3ZNyeeSNDM1-Y7od35KmnQQptB9usrdpTdpGW2c_5-12rYy9hGazdx7qhlYrEXxaJ_ZIVFywlcA'
  lat: 40.106706
  level: 5
  lon: -88.232116
  name:  'Illini Tower'
- ap: 2724
  img:  'http://lh3.googleusercontent.com/8-4OkyRuEuagHGkNAbCDDtz9k34_nWE1lFlUqdqVSLAtsWkVNv5G84IpnbtVcup3-x3u4q6_AJ0OxQdkdt1-'
  lat: 40.113304
  level: 4
  lon: -88.240009
  name:  'VW Bug On The Roof'
- ap: 2724
  img:  'http://lh6.ggpht.com/B4G90nKtVQc7jPOxaA1XcAIKA2UJlU15MIPZLitQmNBNAtfIc9qCPpe75YFHYaZN3YUpU6b4CNMOPsBrg1Q'
  lat: 40.100489
  level: 7
  lon: -88.218903
  name:  'Farmhouse Illinois Chapter'
- ap: 2724
  img:  'http://lh4.ggpht.com/GO8F5d9Gz5q0tize1_1NxJ51SfmjJESFilw1OhfyI3I0RcdLFN2uKHr8prPX1KAdmabYL8PNJNjyqlgn7r9o'
  lat: 40.117537
  level: 5
  lon: -88.249445
  name:  'Buerkett Family Memorial'
- ap: 2724
  img:  'http://lh6.ggpht.com/_k_xJSt6mwst9haWnz5tw__yVrH9BLFSKnCMCEw9V271FMTnmEoDA4E6HprjvPTSiaBeKZmxdG3waPIapBMa'
  lat: 40.125369
  level: 2
  lon: -88.250074
  name:  'Mini Park VIII'
- ap: 2724
  img:  'http://lh4.ggpht.com/ETgOsKlMmsv5wRT-aM33VVVEgFvp3ZoMxqXmYKxROpFAYnfPqjWhltqYBG7ajEuM8XKf3mVeSaF7r9grm2t8'
  lat: 40.113448
  level: 5
  lon: -88.237188
  name:  'Boneyard Creek Second Street  Basin'
- ap: 2724
  img:  'http://lh4.ggpht.com/maBwz4G9LJZ5aVuX_WF1Z73xSbqoFsm3l6oyrNQ16LkJMvaEbFa-amdfCpKDVDe7NzjReNu8IGnn7BAI8yef'
  lat: 40.103534
  level: 8
  lon: -88.243478
  name:  'McCollum Park'
- ap: 2724
  img:  'http://lh3.googleusercontent.com/0sr-qQ4Z1TW1AZ62RFHko9Cbb8g36Renb3nRyxFJr_r68iVMsuh_EwrbThhXg2hVyqNQSjX7rFVvrWpfHS4'
  lat: 40.103958
  level: 6
  lon: -88.240451
  name:  'Bruce D. Nesbit African American Cultural Center'
- ap: 2724
  img:  'http://lh5.ggpht.com/FeahTnHcc-Tb0sWOd6cQiYz5QrczzT5-Behz0KlyeiGyzYhvAlNlhPI72BVkREal1tU_4g4r2UklF7lcQgKr'
  lat: 40.087292
  level: 5
  lon: -88.253528
  name:  'Agnes Sweikar Memorial'
- ap: 2724
  img:  'http://lh4.ggpht.com/aFcisvUEjvw8cW_JZB2JIOpPXr_cWq9tGzjT65AMZfaR6Dwevg8S6dfNMTVswut9cKOr9-SCQdSqoOnQ4c1Q'
  lat: 40.087914
  level: 5
  lon: -88.253489
  name:  'In Loving Memory of Robert and Elizabeth Grubb'
- ap: 2724
  img:  'http://lh3.ggpht.com/rlm0tE7Js-ApRSIfi0JxzxMVzrls50Gpr-Dbml7uBn7o0sCMtpiVa81HJc88eD0VlJiuzy9UTBFPebVcw-GK'
  lat: 40.087494
  level: 5
  lon: -88.253476
  name:  'Rotary Club Meditation Garden'
- ap: 2724
  img:  'http://lh3.googleusercontent.com/awNe0JGlWWAtHv9iiLcqQjVyppWY-io4ybTL_ir2ZKsMLJgkZcW4rdUAuDjOFdWQvIcp5jlTWiROgHANh1Y1'
  lat: 40.087822
  level: 5
  lon: -88.253161
  name:  '"Ice" at Mattis Park'
- ap: 2724
  img:  'http://lh6.ggpht.com/eAkVY7nObat2j0fYj0bd8HEZQMvUrmB-_Qi9KABaDu_pHUpP1sEJ1Fw_PQ4GbKLqqOeQM2-ljV0wUXUwj6tmHw'
  lat: 40.124067
  level: 5
  lon: -88.232345
  name:  'St. Luke C.M.E. Church'
- ap: 2724
  img:  'http://lh5.ggpht.com/lXVyL0lTn1mylt2Tsuoez78v_zv7upor3uYtHWm-EelgDlCUJvIEsnVnN6qnWtPWxrURwGHktJ6NLPQN5pxA'
  lat: 40.122955
  level: 5
  lon: -88.231892
  name:  'Grove Street Church of God in Christ'
- ap: 2724
  img:  'http://lh5.ggpht.com/k51dyIcq_VT8S0cGsHhfgbItaWCMpBfJ9wjHrms0zYNSVH5gfV5-gmxjVatlchfenHsCBRl1uE8AzYJTf8dN'
  lat: 40.117449
  level: 5
  lon: -88.23557
  name:  'Park Avenue Seventh Day Adventist Church'
- ap: 2649
  img:  'http://lh3.ggpht.com/-xag7tp3BReTAhfRmVAvpMw1Af15prESg4rve7QnsiIC5IKmKjBszxDIj8F212BmRU1apH_2u_9wAmq58_91'
  lat: 40.114157
  level: 5
  lon: -88.238621
  name:  'Bombay Indian Grill'
- ap: 2724
  img:  'http://lh3.googleusercontent.com/ZEt3dzGoBmn_BW1MwPTE7MY4Jcoj66UkwEA7wA7H40hbb-SwJheC1V67Dh89eAbpG6H_SeWDV3E0X5lRAkQ'
  lat: 40.111342
  level: 6
  lon: -88.23557
  name:  'Boneyard Greenway'
- ap: 2574
  img:  'http://lh5.ggpht.com/Lup2et0i5h8oHqtBffIdoyX5uclC2MBn9ZnnKnYPr4RIFSflf9bi78zBHK7QqycA0qgEev9qOk0zU-1o1hg'
  lat: 40.108451
  level: 4
  lon: -88.228733
  name:  'The Centennial Colophon'
- ap: 2724
  img:  'http://lh3.ggpht.com/HX3mWBGofQk08Qdp7A6KMK1AnSXlLEPJR-n6oeX69Efiiss29GHsLiDsHhRS5K8DrXh-QXP1T0AMaOsJmx_w'
  lat: 40.106921
  level: 6
  lon: -88.230145
  name:  'University Lutheran Church'
- ap: 2724
  img:  'http://lh3.googleusercontent.com/hvoLMUc9UoNVVPttxWTc8PzOWdu5MBmPETnBexH7Alyl20WGCrNa0G_j7DwvD3qbhqpTaeThFhGDV2rCtp8'
  lat: 40.107629
  level: 6
  lon: -88.224484
  name:  'Bucky Balls'
- ap: 2724
  img:  'http://lh3.ggpht.com/dBN6P2wGkcXj-MNbPjAJzN-RxmK93xRIhp29sZ6-ZmsbFoey4dGO51tP1FIFCzHjs4CIhHd-xGmflcW43R0w'
  lat: 40.10604
  level: 6
  lon: -88.224625
  name:  'Asian American Culture Center'
- ap: 2724
  img:  'http://lh5.ggpht.com/1yq3oFq9p_Yl5cUf5h7IEfZPAbae2MT7lA0DFo1DHwPWPZJJ-Ez-2AE2oTzHEHWsEJQVUcUwh3j_d3kOYgDS'
  lat: 40.110095
  level: 5
  lon: -88.22862
  name:  'Alma Mater Plaza'
- ap: 2649
  img:  'http://lh3.ggpht.com/jnMeoF6SBZ0Iinf5GnB2N90IMGTEQdGggLITfjWcIY6d5yipHaBN52a1NPxmn-VFwc_G1cHiMmyEDGg5nkwo'
  lat: 40.101623
  level: 5
  lon: -88.231761
  name:  'Metal Spire'
- ap: 2724
  img:  'http://lh4.ggpht.com/q2L_InMJy4JZq79dX9LLf9XauoaXGOLl7SWvVyD9F_jIgyqpn7SsqHfY9EMYq1SLteTpj0cQDZN4f9x0IuvV5w'
  lat: 40.107273
  level: 6
  lon: -88.222942
  name:  'Tryon Festival Theater'
- ap: 2724
  img:  'http://lh5.ggpht.com/1fPvqpqXG5PDCkmegoWb9Tv9N5_MZh9XjmZpbyNEs5yPDsCscbrPB1cO_Pf8GT35HYrTF01FZ6s5VPIpjJ_20A'
  lat: 40.107098
  level: 6
  lon: -88.228984
  name:  'Saint Andrew''s Church'
- ap: 2724
  img:  'http://lh4.ggpht.com/2tHD_AHYQu0kWuwLX2HMYWBG4txVkuWsBEfzWLL39npWp8kMSHiUKxSJM1E7yhimuMVUJ-RIlSSKsgjETvtr'
  lat: 40.110524
  level: 5
  lon: -88.228706
  name:  'Leo Roy Tehon Memorial'
- ap: 2724
  img:  'http://lh3.ggpht.com/KnNYiTjbSfT8lzl-5r3OkJW1ptOP-d5JkDibk9pg1eydNzpy_IgdiC-kCRNUSoBP9nFsblvWr7t9IC4qMU0'
  lat: 40.109369
  level: 5
  lon: -88.206018
  name:  'Urbana Market Square'
- ap: 2724
  img:  'http://lh6.ggpht.com/Qfyp6BK43B93Oo5kazv7b-62q_5cx5GKxXPyw6Juss-A6AgPx81B0lyWhzW7Ava9ztLzedt07gEh3ia2PPFDwQ'
  lat: 40.113636
  level: 4
  lon: -88.208146
  name:  'Jolly Roger'
- ap: 2724
  img:  'http://lh6.ggpht.com/orpM1lF6sc24rL0AGIiGqg18zTkIPXvZoM2xcA-mKGbaHOESuKbO_RQrwjxW9NTZjG0QqCRU9j2goZUvangFDQ'
  lat: 40.112894
  level: 4
  lon: -88.208433
  name:  'Boulangerie Mural'
- ap: 2724
  img:  'http://lh4.ggpht.com/QGRtYb5gsWsiyn9EznIJ0ApB7yWv-SWBAH6CKgO9JRg3PCgn-s8yQMtXPkMDht8dNjPchkCRleUIBT-DnYXh'
  lat: 40.112928
  level: 5
  lon: -88.209039
  name:  'Courier Cafe'
- ap: 2724
  img:  'http://lh6.ggpht.com/JeyTR9Ntp2SxIdvTxHGqu5zXzMo7stGncs5TYYFLlRf0WEb6U4dc4EOvDZ1szjub_UqgSO_HgZ7tUKs9PUAkEQ'
  lat: 40.109634
  level: 6
  lon: -88.206203
  name:  'Zeb'
- ap: 2724
  img:  'http://lh4.ggpht.com/vyb3xebaf6kWGvQZV2w4QYPG9Oq_jn5wQvUgg3Hp6yvCen9WsHW58eQR3VNCjHZWFzIM1qJ8oDbzRmhR3LM1'
  lat: 40.11233
  level: 5
  lon: -88.207706
  name:  'Alfred D. Costello Dedication'
- ap: 2724
  img:  'http://lh4.ggpht.com/H1kV6JSczzSbcCblAHg5ZOgITW1mBAz0_oLbqbzxBlijGTBn7TP6KwA6UI0AAGrCN4VF0DAF79Vcj6_2R4dsB8LRTq6tud6v'
  lat: 40.112646
  level: 4
  lon: -88.20725
  name:  'Zipcar-102 N. Broadway Ave .'
- ap: 2724
  img:  'http://lh5.ggpht.com/d1PrlCV_34E6p3knWKIG9iinFOOtMcApC_VC0BAtd_9RxZUgAzjzEmpDg3EQUC-i4MxVNvfPQIoZqYdwC48_'
  lat: 40.112278
  level: 4
  lon: -88.206724
  name:  'Urbana''s Lincoln'
- ap: 2537
  img: http://i.imgur.com/5j1qaiT.png
  lat: 40.39473
  level: '?'
  lon: -88.872321
  name:  'c89035b00e8f49cd9942782aefaa86de.16'
- ap: 2537
  img: http://i.imgur.com/5j1qaiT.png
  lat: 39.832661
  level: '?'
  lon: -89.63891
  name:  '640e8d9411654da09a85331df83609a5.16'
- ap: 2537
  img: http://i.imgur.com/5j1qaiT.png
  lat: 40.371506
  level: '?'
  lon: -89.546061
  name:  '155a02681b104f50a1f2140860360f2a.12'
- ap: 2537
  img: http://i.imgur.com/5j1qaiT.png
  lat: 41.886514
  level: '?'
  lon: -87.613201
  name:  '5efc6c0ab2684acd9b39968d45364fa9.16'
- ap: 2537
  img: http://i.imgur.com/5j1qaiT.png
  lat: 41.793359
  level: '?'
  lon: -86.743359
  name:  '2e0e01fd74be47beb0e95386d18b204d.16'
- ap: 2537
  img: http://i.imgur.com/5j1qaiT.png
  lat: 39.923213
  level: '?'
  lon: -88.572156
  name:  'Bryant Cottage'
- ap: 2162
  img:  'http://lh4.ggpht.com/gDYX09ZFI6Jya_d8cBX7Kg8OgMkVexBWJLWt1ceC8s0aizrm_ehDYtMwFiwAqpetr9_VsiAJZLFkAYWm_oMt4Q'
  lat: 40.128229
  level: 2
  lon: -88.290607
  name:  'In Memory of Lou Henson Jr.'
- ap: 2312
  img:  'http://lh5.ggpht.com/5bCoRsqGBM0hx50ymfbZ8NhvyAyQDJWMnSg6qaDe-zxvwzVZW6O5IZWCDefH-pIsFZzvUaCcBBK9kqNDwXW3'
  lat: 40.128048
  level: 2
  lon: -88.290536
  name:  'In Memory of David Foster Wallace'
- ap: 2537
  img:  'http://lh4.ggpht.com/Oy0NzvODUpd5270gnNUQqxf4w1YUNzMwDdncW6PvKUb3y_ptImObTW3rbbHp_OYEUKTR37L61q3yuYr1GRSV'
  lat: 40.090259
  level: 6
  lon: -88.295024
  name:  'Robeson Park'
- ap: 2387
  img:  'http://lh4.ggpht.com/a1FVYK5FqYQAl_d_TEIbk8PE4kKJVyIHNjJiJWlhHcozcrVi9qVZ137z5mYYlOeePqk0aqBqWwdZxEIgkxz0HA'
  lat: 40.132588
  level: 4
  lon: -88.279491
  name:  'Ronald D Schafer Plaque'
- ap: 2537
  img:  'http://lh4.ggpht.com/h3t9nwbrudSHJ4Ll-zBceLi_U0iwpgbsVd8Wjzy_JgqMiXIqIu4CILUiFnKdayIi0htMXQ5CNowcXO7XUqI'
  lat: 40.13401
  level: 6
  lon: -88.28239
  name:  'Eddie Albert Gardens'
- ap: 2462
  img:  'http://lh4.ggpht.com/bzGBa_8g8we9vEYlZ-a10Ugz_B36DNFCNFsnUmAPy3Aji53kcVj0FaVE28zxnedZgY5Ozi94A8obmXuFQ1vL'
  lat: 40.132632
  level: 5
  lon: -88.279968
  name:  'Vernon W Fitch Memorial'
- ap: 2537
  img:  'http://lh5.ggpht.com/d_xORafhhRGmWQQYxORFs1dW_6uXGimDkw117yVoO46fU96UHRY1GWk3ln65AsNRtevh1vFgECrCK8gJD4Y'
  lat: 40.133113
  level: 6
  lon: -88.279062
  name:  'Champaign County Workers Memorial'
- ap: 2537
  img:  'http://lh3.ggpht.com/1yyUr0xGwID_g1F_OYHLjASRJrvJLD7e8r6IER_B6CliwGRrCH6cDWRVgtfWqJ0wHhNyjId_FX6mEVecAviV'
  lat: 40.11946
  level: 5
  lon: -88.276623
  name:  'Glenn Park'
- ap: 2237
  img:  'http://lh3.ggpht.com/M33LbHvLXVjhHiz7MUGGLGsBwB3EGR0z2vYVf5Qrx3pdnmpATwUuU0kEGUobPn2AKoGNpQKgvlIpyJoSHLzv'
  lat: 40.127501
  level: 3
  lon: -88.273478
  name:  'Westgate Bear'
- ap: 2537
  img:  'http://lh6.ggpht.com/tenpgw5pr4OCsrdIgmmHP_sx4RHH2ywHdbNxw556d5JpHC4u64HFYqCdRSeAJgfTN_7BcUv11v8NtBdlaUV8'
  lat: 40.100717
  level: 7
  lon: -88.243989
  name:  'Rainbow Garden'
- ap: 2537
  img:  'http://lh6.ggpht.com/bFwJFYYW2YoT3hMGr1ejzv_Vuifm5-ZJzMPcWnpZkQQ9dQSdupKPZDVNHvroawUBMuTAHOJBxvmai305qSe31Q'
  lat: 40.097523
  level: 7
  lon: -88.281912
  name:  'Westminster Presbyterian Church'
- ap: 2537
  img:  'http://lh6.ggpht.com/_MJDV4NA2u24dbhr1ulyabSdnTuUBUv1xFpOPKbit_dHtoaRkFxqDHaRZBZ196LNyiSHUE5lNT4MCbhqCrzh'
  lat: 40.098459
  level: 8
  lon: -88.282083
  name:  'Flower Island'
- ap: 2537
  img:  'http://lh5.ggpht.com/8M0cUsd4eq3jg7zuefsRRnxKhwn5q8xipPHTaf8z-o4xdGPYl0NgpiXIMDSknrQjcvRUOzyzWYsXHRqlfOY'
  lat: 40.102064
  level: 7
  lon: -88.284067
  name:  'Lindsey New American Gardens '
- ap: 2537
  img:  'http://lh6.ggpht.com/amW2e5ycP7FvjZ3krW-9lGBG3opwCMW_jITPOqV2E_woJYL5_s2UUaxHMN9PYWWD0p7-2CKYtMsk141rldj_'
  lat: 40.10884
  level: 3
  lon: -88.284078
  name:  'Bert Seaman Memorial Field'
- ap: 2537
  img:  'http://lh5.ggpht.com/lFgGLDH5cIL-nVtEPdDwZ-oo3pi-0MTypJ5qYL4nhqVAzQuMG-KpPIdF8vMdm-Ghtwv1F7JPdXdjYnCQWG2E'
  lat: 40.067465
  level: 4
  lon: -88.249701
  name:  'Donald Combs Memorial Plaque'
- ap: 2462
  img:  'http://lh6.ggpht.com/A3o1Nm3JPbfRGX8fs0D87GlAc2sSTKVl6IimAZxRyIfLyPcsMcbx7s4WqUTkMcz70wzyETv1zaJZtlBTRdBG'
  lat: 40.083723
  level: 4
  lon: -88.288027
  name:  'Windsor Road Christian Church'
- ap: 2537
  img:  'http://lh4.ggpht.com/wbrbzDCo3C4qFJyHTWOST5o8B7kwZSWePUWOboIlYrdvxjrhWLqVQ1MqUF5-Hy4nt26x_oHQq9f8EbfdEjVK'
  lat: 40.117382
  level: 6
  lon: -88.243748
  name:  'Days of Venus'
- ap: 2537
  img:  'http://lh4.ggpht.com/EbBkWl7u8IzfuSOKbXTBKdMileYrjubgGK5MOwxzEGIDtOO8oYloK2Mh-oe6t3SLxiC4Dul0W7en-SG0hw4'
  lat: 40.124346
  level: 7
  lon: -88.243367
  name:  'Bannon Mini Park'
- ap: 2537
  img:  'http://lh5.ggpht.com/2zEYZdL0tuQhUP5HHcOYFsPQfjx-nNDHhi8DMJEzzkjbEA9hODz2iDCcmj4S9NEGBsHW4nYYR010lA_6kyhk'
  lat: 40.10038
  level: 5
  lon: -88.225191
  name:  'Eleanor Hammers Boner'
- ap: 2537
  img:  'http://lh3.ggpht.com/bGP5sHc4CJ8tWBxVUN_RonUmvTocQxNQDIzXf94PxHcFtqhDcWJi__diLWu-7b94x-lFOJSou24yKzPZr0E'
  lat: 40.103829
  level: 5
  lon: -88.219002
  name:  'BASIC Student Ministries Church'
- ap: 2537
  img:  'http://lh4.ggpht.com/5E71LpfYxV2zsihdsTCShjy9NN6ksITFjXz6GSYwP8EKVJEuhrWOJKGGr6nfCT99QLgs4K6HHrqQn6ta1Vw'
  lat: 40.117349
  level: 5
  lon: -88.24917
  name:  'Ruth Whitney Memorial Plaque'
- ap: 2537
  img:  'http://lh6.ggpht.com/UHh6R5Pfoiuw4sX96l-GNlhyni2EhPOuuEfaN9oWYLEs8qV6pfLkQugcY8yhMRq01gHqUu5GqKOA6bt9t2NfFQ'
  lat: 40.104458
  level: 6
  lon: -88.239125
  name:  'Delta Chi'
- ap: 2537
  img:  'http://lh4.ggpht.com/zSwyeT2OHM1BNTwvZlgP1mVe-dTjc2LKjU4DSHSuEU24YLHSKziuJKmF4_BAMl1Dd3Sy1PRGPBbPbhSDX0fY'
  lat: 40.10349
  level: 6
  lon: -88.218942
  name:  'Kappa Kappa Gamma Plaque'
- ap: 2387
  img:  'http://lh5.ggpht.com/nirQKdy3s9r8TSV7cB7_B0l-0EsFXBkg1aitH05R0ttPhOEewGxlq1GRnlDvYFT2V8Z91hWnB9YD3WjxBvyZ'
  lat: 40.11868
  level: 5
  lon: -88.243426
  name:  '"Pointless"'
- ap: 2537
  img:  'http://lh3.ggpht.com/gSjoDo9KYu-lgQFkD5uUnj4HXGc1BOihKfh-rNeZu_Q3hHyEkaBoalqYiV46QcvH9y4o8cPkHP_cmo_LxCyo4Q'
  lat: 40.10214
  level: 5
  lon: -88.218932
  name:  'Twin City Bible Church'
- ap: 2537
  img:  'http://lh4.ggpht.com/0JuC7vEVtmbgkx1FUhaTylcKfKuYoGNdW2P5GNZzGbeOzxEH0Q-9gP9gmmBzx2bkLNA0dnw9FiEJYiHjWXM'
  lat: 40.121329
  level: 7
  lon: -88.24558
  name:  'The Gregory'
- ap: 2162
  img:  'http://lh6.ggpht.com/btym2_WGYuFNu2SNiR8qif7GXLMOPT7XpuHE7RPOipPC9Q5lEPfImKAzf2vm9RUe2rN0u3TePq4pM0IuZiLS'
  lat: 40.116436
  level: 3
  lon: -88.243459
  name:  'Champaign City Building'
- ap: 2537
  img:  'http://lh5.ggpht.com/hjAc940kWyt9QT4G_BJyJKaTef3jL_Njnm8ubUtQD7u6qVsD9_7TiJbgZpKeqAv60kNw8FYspVxkn-Bt1cxYBw'
  lat: 40.109959
  level: 7
  lon: -88.24318
  name:  'Mini Park II Sculpture'
- ap: 2537
  img:  'http://lh5.ggpht.com/RsXj0S9rbD_i4VFZmhxJtNtmwEeJOoYsmM8wyu90kB6srZMfUskP6iqrTY9eqFNQhhQrU50k92lCH4JEQ2w'
  lat: 40.127358
  level: 7
  lon: -88.243851
  name:  'Stanchion'
- ap: 2537
  img:  'http://lh3.googleusercontent.com/enpZZ8JRREFPTvYd3jbeUlpS-mmcwKe5fsvoWRPkfMUj6PijyI-5tbR55UItBoNJAFSl9fAAOvXb6BpWCJT4'
  lat: 40.102495
  level: 7
  lon: -88.242132
  name:  'Nuclear Physics Lab'
- ap: 2537
  img:  'http://lh4.ggpht.com/uAYfykn0e2h2UqP-anbYfkJNa38P0L1WY8FpF-CwRCPklg5wL1xYFkpGOCMt7SJ37qO8PGVE42nYX9Ba_-jG'
  lat: 40.105025
  level: 5
  lon: -88.243919
  name:  'Mural on Good Fellas'
- ap: 2537
  img:  'http://lh3.ggpht.com/AD9d7JPmLdYRdpxESO9iORy1GRXAcN1jzn8dDNvm6FO7cIHVsjwAKI8LmbW4dico1Xe9jzJfsZZriP0CxXA46w'
  lat: 40.104084
  level: 6
  lon: -88.241616
  name:  'Honorary Memorial Steam Ventilation Pipe'
- ap: 2537
  img:  'http://lh3.ggpht.com/swF7asGHDD1L9hslewSBg2z-tocpd_HXkIYuOmz739SWxCj8KBqf-kcOPOFPoE8pLXKDxR6Z8jAJ8Kx7Fbnc'
  lat: 40.089334
  level: 5
  lon: -88.253652
  name:  'Mattis Park'
- ap: 2537
  img:  'http://lh5.ggpht.com/6MHa8mHyPoZr8QcAXRVJp6cTJ-Besa5bB801GzhlToXL5ff4Zg6U6VtnrbMINQ441jCzYNZDWNxHIBtf7VXvVw'
  lat: 40.087719
  level: 5
  lon: -88.253446
  name:  'Milla Gross Memorial'
- ap: 2537
  img:  'http://lh4.ggpht.com/aXG2XQNJXyPDBz0o8tyfv07VIfskZuFMOWW2ylZpZKkWMnFjoiBmBiWg2VedsjdIorpfX5mtUGnwVLFb7Ga6'
  lat: 40.091438
  level: 5
  lon: -88.25077
  name:  'Fox Development Corporation'
- ap: 2537
  img:  'http://lh5.ggpht.com/jz0XvZSSYKqKSa4lJDK-rludOns_o36jZ8ZTzfEr42piZamiTjSASTLdII6pkxgjZgnCwKirjhEouS77BPB8Dg'
  lat: 40.094288
  level: 5
  lon: -88.248914
  name:  'Boulware Trail'
- ap: 2537
  img:  'http://lh6.ggpht.com/XbziSzYmDzZY7OyRjAF853iYr0Ydo8iF8E-2ucgyMgfoTvS3ujkv327Oa5hLsmNg5m8J0_HdIUBAy5goQuUBZQ'
  lat: 40.123915
  level: 5
  lon: -88.23126
  name:  'Douglass Park water park'
- ap: 2537
  img:  'http://lh5.ggpht.com/elsd6ooriUWTBveymrnVDL6BjgxT0xg3MOrB5fAsDvIHFw-XyeBdnKWomXqK-FdNdo46Y-5KF0-wHCN6Wcux0w'
  lat: 40.123341
  level: 5
  lon: -88.231454
  name:  'Champaign Public Library - Douglass Branch'
- ap: 2537
  img:  'http://lh5.ggpht.com/eefWnoj-zmJ0-dmFtwO4--l3JpC-5UTlkz_yG4cVZcBjcgS48Bk82xPKzNAZ7G9J11AuSNUduWWN8MGCaZgA'
  lat: 40.125013
  level: 5
  lon: -88.231935
  name:  'Douglass Park'
- ap: 2537
  img:  'http://lh5.ggpht.com/81NV5l-NSdRA854M8_4ZRgCLXOecpq4hIL263Rakt4_1E6VXTyFeKWOsIQ0MNuSXVui78NWVY8NNwpZRM8jz'
  lat: 40.123768
  level: 5
  lon: -88.230601
  name:  'Douglass Park'
- ap: 2462
  img:  'http://lh6.ggpht.com/BANSBFfuZ3_0ya-JodV7jEB1a-DwSOyegBwPKAODSUFHLmvI7b8zwSiLUAvvqIAYjpU6S_Lm8XRBJ30KDGCIEg'
  lat: 40.116917
  level: 6
  lon: -88.24078
  name:  'North Star Sculpture'
- ap: 2537
  img:  'http://lh3.ggpht.com/tXDyz6XRrR2AKSg9Rrj1z6jBG4dz7uR9qFmSUO1bWljMEw67ncNiq-2Hx3O9Fs029iRtvCV1gdlGN7pG69L0'
  lat: 40.114104
  level: 7
  lon: -88.237694
  name:  'Lo Park Fountain'
- ap: 2537
  img:  'http://lh3.googleusercontent.com/erdNDM4HaNMn_EeFz0IoM_0LQWykLGJ1Y7-URXSvEithPHs8Rnwf7oWZyxVKu7qOpPdKjeeCy3dkywZ7n6KrsA'
  lat: 40.111615
  level: 6
  lon: -88.235593
  name:  'Fred B Lamb Trail'
- ap: 2537
  img:  'http://lh5.ggpht.com/quR7Kzalr2uxeV70VwLSj7LDpe5ywDhO4LlSp1eTAhoVOCsyWIga42hKlmcrjiGlI3hZd24DWvtOfYe21RM9yA'
  lat: 40.11721
  level: 5
  lon: -88.236627
  name:  'Don Moyer Boys and Girls Club'
- ap: 2537
  img:  'http://lh3.googleusercontent.com/78s4UE5PKzAAG8LQc8bJPPLK30nagQnB2-jzX2y9vVVAjUMejMsBGSAKck17bjgbH1Lndna45c3l7i6tR3A4'
  lat: 40.112908
  level: 5
  lon: -88.237287
  name:  'Stone Arch Bridge'
- ap: 2537
  img:  'http://lh6.ggpht.com/MzDfG6eMMwVr56zIpVxRJKU2aoUq-95CLeBhoiEQQKzpC2zulq5jFDLv1IK0JcRy5Q0PhRAreZ1p2ElsdnNu'
  lat: 40.108048
  level: 6
  lon: -88.226279
  name:  'Nuclear Magnetic Resonance II Plaque'
- ap: 2537
  img:  'http://lh6.ggpht.com/cYQLNtCsiRGXd_y7-ZdI4jGlNRpC4oiy2Z7UT7etDH3FBvBRQDtOW_rY0NBvKLJMnTw_EXH75NDGMcI6UkeV'
  lat: 40.105618
  level: 5
  lon: -88.229005
  name:  'The Chapel of St. John the Divine'
- ap: 2537
  img:  'http://lh5.ggpht.com/d55SFGnpg6Ia5aPchxqYJDOsY_nJCJIdAOO9qxXzD_vObYZGhCLcunBb0a6G5qAhu9RPf5WSQIkysqGMrb7T'
  lat: 40.104743
  level: 6
  lon: -88.232979
  name:  'Vietnam War Memorial and Flagpole'
- ap: 2537
  img:  'http://lh3.ggpht.com/mtgiI5TKcuExETpmdSqIFabkYgVZTaXXLJnaIyzxeHPIunWoj_Fj8BqqwZG4nVQwSnngv15YxD-c_m9CHkr3'
  lat: 40.111202
  level: 1
  lon: -88.226447
  name:  'Boneyard Creek Memorial Streamflow Gaging Station'
- ap: 2537
  img:  'http://lh6.ggpht.com/vlKOFCgVZb_8XoZHDdzD2X9Xsejb8QVVqEM5U4YfgnKJbQIIHHSK2hSpgycF7vqRkGKRYYnbjVTyKS8dsHF3ChRyF01faLh907jhNd__xiEkGTWx'
  lat: 40.111225
  level: 2
  lon: -88.226537
  name:  'Fire College Plaque'
- ap: 2537
  img:  'http://lh4.ggpht.com/S734i_6SihPtJW8WdegLb3gEuKeNx8e1qDm6CXjREzYHohw7XqL82m4EF2K5nS2TixHweLn3EuJ4YoQnrsw'
  lat: 40.107751
  level: 7
  lon: -88.231532
  name:  'Graduate School of Library and Information Science'
- ap: 2312
  img:  'http://lh3.ggpht.com/hFkwytijOefeZugpAO9nX8xe0Zazpem9zJKa7S-WYlccBZVMWRqZYIj-iWKNXi5TUWEXjk4HQbKAvCW_3WdE'
  lat: 40.104287
  level: 4
  lon: -88.229415
  name:  'The Pioneers'
- ap: 2537
  img:  'http://lh5.ggpht.com/dgQfoxxVeHT5ODqLiUYHV45qvkC_BMS0kIFRqvHvE2GO0TduZ0-XzhW8RE80LtPDK0Ay5xwA6PtjM7G3C9U8'
  lat: 40.108947
  level: 7
  lon: -88.232251
  name:  'McKinley Church'
- ap: 2537
  img:  'http://lh3.googleusercontent.com/JtDKcaLvXa-az4aUAoga4ikpwAKEsCsSIgnN9eVPp7q2Tiynz0iyg5e2mk0InXRsJclU6axBXOMi3NcfABUd'
  lat: 40.110065
  level: 5
  lon: -88.225155
  name:  'Wesley United Methodist Church'
- ap: 2537
  img:  'http://lh6.ggpht.com/q48Oqk2mm3dXQ2ppK-aYGXKjIiTAOEZfrFkiLK9LXRz2uN9hSKihKeCwfg33q1Z2zMTIMjqJRjPA1U_V3pbR6Q'
  lat: 40.104417
  level: 8
  lon: -88.231962
  name:  '1926 Sigil'
- ap: 2537
  img:  'http://lh3.ggpht.com/4TX-OEwuLxvx2Vui24H6VdUHCHc4CmobRO9JEWLQnC3-82I4EoBRDmh9bG5_2wHrFiMb34z9Bv0SkdFGpuZ4'
  lat: 40.108
  level: 6
  lon: -88.2219
  name:  'Foellinger Great Hall'
- ap: 2537
  img:  'http://lh6.ggpht.com/hPutcAvS7zQN-tagfEY-fvkvdlgj7j5sZwUSLY883Twc7tHyslIAp7lzWYciJmCytDfsbFQtavAlzqGwCgFZkw'
  lat: 40.105562
  level: 7
  lon: -88.234991
  name:  'Acacia House'
- ap: 2537
  img:  'http://lh6.ggpht.com/-flzg4lDDrUKk9tz52QmAPy1_59-9KbIO96Br3rNDxK1nmopyzD21z31JQVdJNJHB-Cy6IsEX0VwBbVwvd5r'
  lat: 40.104256
  level: 7
  lon: -88.225268
  name:  'Institute of Genomic Biology Gateway'
- ap: 2537
  img:  'http://lh3.ggpht.com/3WnMbDq1Vm3HiqAM5qk1r9m3OqcO-YUN0nCOt2yRfUxVWLZ-8huxevlCI0JnIJgpSBZN4mtw0gxJnrGtuaS9iUf7k-JFfmRGRkBXQafWO9MIk_oJ'
  lat: 40.115491
  level: 5
  lon: -88.227358
  name:  'Arnold O. Beckman Statue'
- ap: 2537
  img:  'http://lh5.ggpht.com/f710C9AvOEB7ieCI4f382wWUP4OgDxiqPzbxqxct6Ugf2PWBfyXyDpG_JcRQ6PaZ_jS0jpXXBhNSt_u9rFA'
  lat: 40.113864
  level: 6
  lon: -88.224839
  name:  'Plato: A Social Networking Revolution Begins'
- ap: 2537
  img:  'http://lh5.ggpht.com/ZDv0mHiZcEfLxGVibvfnMCu7reJceCVnxa4GeBjK2DO4Y4a0x-M7C2M0rEam-_bPlr2e2476RXe15pRY48s'
  lat: 40.114351
  level: 6
  lon: -88.227096
  name:  'Chi Epsilon Civil Engineering'
- ap: 2537
  img:  'http://lh4.ggpht.com/VZT9NM5dfGAaJAZj9cFhDmCgknQCF0UI4Hv3AwcaZedRlXhGb2wfVLTFOWjtoSJRG7MEsjv784wAB1XZgQqpBA'
  lat: 40.126642
  level: 5
  lon: -88.198163
  name:  'Armored Gopher Games'
- ap: 2537
  img:  'http://lh6.ggpht.com/tOF7Ft9RlLtyZFsF5nnPXT-iYLimviXLPuiXL8F6KbEzsFuJAOd95jsFivR8L_bnMpbJ6W-tXEZmSYXHE_Ix'
  lat: 40.104008
  level: 5
  lon: -88.209927
  name:  'Lincoln the Lawyer'
- ap: 2537
  img:  'http://lh6.ggpht.com/FsUBggh0M3sjncoth6JaamkCglQtDsuiR89k30B2sMp7srgh0Hz6trgv7BhNRSJA6qI7OvipV8B3XEhzHmaNxA'
  lat: 40.113513
  level: 4
  lon: -88.207559
  name:  'Black Dog Smoke & Ale House'
- ap: 2537
  img:  'http://lh5.ggpht.com/f6rOm3DxdeRrhnP70WA74kANOIPgPztsKnl10zNfhwO-EqkYy9adifLJhWTIoTePqXTxjC9lJv50DWOB3qPFWwFb0HvCuIw-g5Gw48VoXasjqCay'
  lat: 40.113418
  level: 6
  lon: -88.206467
  name:  'A Forgotten Fountain'
- ap: 2537
  img:  'http://lh4.ggpht.com/-PoOzj6Y8giZrX82Mef4UPVaAW0on17-qpua7swKz8BzaSmyq9XjUOHUBm9ZWneYuqB_EtrsfEBm-cyW4Ak'
  lat: 40.112856
  level: 6
  lon: -88.20317
  name:  'Goodwill'
- ap: 2462
  img:  'http://lh6.ggpht.com/2T-yFizCXTUh9PJYVfD73AfFhWiFJFHcsHiH6EhQ9RA7csDC1PaYMQx1tkIePJTGABCLcLfs3LgcSiP3qmywdw'
  lat: 40.110504
  level: 4
  lon: -88.209
  name:  'Church of Christ '
- ap: 2537
  img:  'http://lh3.ggpht.com/Prv8wUbEpOsrluZ4pHXYwIQLreDfbvMRV7kMb39yXob8h_r5vXNRC-wSR6pi-2NeP0uIRJsaeWtsGe96cJ_U'
  lat: 40.112295
  level: 5
  lon: -88.207196
  name:  'War Memorial @ Downtown Urbana'
- ap: 2537
  img:  'http://lh4.ggpht.com/2yAZ6-P6I71p-12hssm1IxBNtLfIhmKLPomEg7xtttoqIwFEqF6Xl9qqolPamswYL-X3elu01rQhhVFZLF7Umw'
  lat: 40.107552
  level: 6
  lon: -88.220685
  name:  'University-Illinois Spurlock Museum'
- ap: 2537
  img:  'http://lh6.ggpht.com/3SaonyLU_evy1YzQKwgtBDaqXYmjw8T23hTzjuYRMKiAuUQhggQrma2fSybhpdItiFt7zHajL_U2nIa8UcDx'
  lat: 40.107526
  level: 6
  lon: -88.219106
  name:  'Axiom Christian Church Ministry'
- ap: 2537
  img: http://i.imgur.com/5j1qaiT.png
  lat: 40.2175
  level: '?'
  lon: -88.392887
  name:  '2d1b03ad1b3846aebe79fc3ecace2f56.16'
- ap: 2537
  img:  'http://lh5.ggpht.com/snSXlo68vFp7EOytyhI8zy8PbfwsZfFHRMNYCJ-JhFU9iMUCrtZtkttGM-OCUaRrii_tc-QAVgJCvD7gDv8'
  lat: 40.20083
  level: 4
  lon: -88.395676
  name:  'Mahomet Township Military Memorial'
