- ap: 5348
  img: http://i.imgur.com/5j1qaiT.png
  lat: 40.146331
  level: '?'
  lon: -88.960068
  name:  'e31a4818b9f94aa9ae1b32779fa54dbd.16'
- ap: 5348
  img: http://i.imgur.com/5j1qaiT.png
  lat: 40.011563
  level: '?'
  lon: -89.278425
  name:  '93ee049f33d544d78fc4ce1dc2b491fc.12'
- ap: 5348
  img: http://i.imgur.com/5j1qaiT.png
  lat: 44.607633
  level: '?'
  lon: -87.43205
  name:  '8e6a8255e7c342e8806313a728bf9918.12'
- ap: 5348
  img: http://i.imgur.com/5j1qaiT.png
  lat: 42.781176
  level: '?'
  lon: -87.758749
  name:  'da8a9ff388b54e9b8be758bc820d0bcd.16'
- ap: 5161
  img: http://i.imgur.com/5j1qaiT.png
  lat: 40.026865
  level: '?'
  lon: -88.535309
  name:  '978bef9392354bf895fe9c00c1cf2a7f.16'
- ap: 5161
  img: http://i.imgur.com/5j1qaiT.png
  lat: 40.026078
  level: '?'
  lon: -88.783718
  name:  'edce8f4594c948e790402f25987eea45.16'
- ap: 3474
  img: http://i.imgur.com/5j1qaiT.png
  lat: 41.963978
  level: '?'
  lon: -87.632299
  name:  '85bcd2426f9a4116b47afa8aae88aa3b.16'
- ap: 3474
  img: http://i.imgur.com/5j1qaiT.png
  lat: 41.966004
  level: '?'
  lon: -87.632502
  name:  '367908f1dbf04c84bf3cb27575c4359e.16'
- ap: 3474
  img: http://i.imgur.com/5j1qaiT.png
  lat: 41.96438
  level: '?'
  lon: -87.632348
  name:  '3e80a79b13e74f3a9d999f32d2216f1d.16'
- ap: 3472
  img:  'http://lh4.ggpht.com/ETgOsKlMmsv5wRT-aM33VVVEgFvp3ZoMxqXmYKxROpFAYnfPqjWhltqYBG7ajEuM8XKf3mVeSaF7r9grm2t8'
  lat: 40.113448
  level: 4
  lon: -88.237188
  name:  'Boneyard Creek Second Street  Basin'
- ap: 2537
  img:  'http://lh5.ggpht.com/BUGNnLReyCBJJj9_zpqgwv5_CAyiW8fWBpyVs0ip1hT5NEE6YKCYzlc8ahldKzk_xv-4uckNJNb6NrJd6r33qg'
  lat: 40.116989
  level: 6
  lon: -88.242255
  name:  'Blind Pig'
- ap: 2537
  img:  'http://lh4.ggpht.com/H1kV6JSczzSbcCblAHg5ZOgITW1mBAz0_oLbqbzxBlijGTBn7TP6KwA6UI0AAGrCN4VF0DAF79Vcj6_2R4dsB8LRTq6tud6v'
  lat: 40.116164
  level: 5
  lon: -88.241661
  name:  'Zipcar-45 E. University Avenue'
- ap: 2537
  img:  'http://lh3.ggpht.com/-MRGQEVV5mNMzB4sb8JAsgVC56kTzYaFEf3mpRsfXAiO4KIrLw3LGFkt7Au97yDwY-AUSfghHcri53Zpmn-Z4Q'
  lat: 40.11621
  level: 4
  lon: -88.242535
  name:  'Inman Building Historic Plaque'
- ap: 2537
  img:  'http://lh5.ggpht.com/dRrlHXlT2nMNgZNHiYo52ha9L-Xay9DyOJR2Cpqs74hgAJ09abn9OTAtMzRVedt1_R9ObZllLO98vRhNMfgTgVsJCk1S-HJwX_XgiGpG4lz3a328'
  lat: 40.11671
  level: 5
  lon: -88.24263
  name:  'Cafe Kopi'
- ap: 2537
  img:  'http://lh4.ggpht.com/ryDcZUJK2aQ_fI0-hY850_t4ZmG2hNmtCx7cxbX83w3cnUWdI-ywpTuQrUVQNxGl3_DcxxNr6bupfDTsagRa'
  lat: 40.117107
  level: 6
  lon: -88.242467
  name:  'Radio Maria'
- ap: 2537
  img:  'http://lh4.ggpht.com/3gTAX6rKgNjLmBOYvAVTgSPQej5yRF_38uRllp9H4n5N6pvwWo5kDMDwlIkFVPPl30BXPSGAlZ9pO9B4DMk'
  lat: 40.116218
  level: 5
  lon: -88.242141
  name:  'Live Action Games'
