- ap: 12470
  img:  'http://lh5.ggpht.com/HhVreJipNvxPRVFpmsh2BPo9PcpPO2Q2l3jCpDjIKgfKGycoTNPXR4DKiYccBXW4X-4dJf_vV0ESsWAWHcChsg'
  lat: 40.100936
  level: 8
  lon: -88.250855
  name:  'Donald F. Bresnan Memorial'
- ap: 8909
  img:  'http://lh3.ggpht.com/lzCSS0_tjwUV7JQ2fgLI0e05IrzPxlVUs-6aEPOwUv67IanQJSTi71gkw0SGm8asmoE_r3Xoh048Fd9xRpE'
  lat: 40.099169
  level: 8
  lon: -88.251419
  name:  'Lyman Larson Memorial'
- ap: 8909
  img:  'http://lh6.ggpht.com/qSCp5fQMlyCQ-GOAgiSFy5gaHJei705Pa3eOlJiYO5wGjZTYtjA8q7QWWfAWcLKjxZSaFiMfXOPR8SO7rWU'
  lat: 40.099353
  level: 8
  lon: -88.251876
  name:  'Raymond B. Cattell Memorial'
- ap: 8722
  img:  'http://lh6.ggpht.com/yjfa0jJLjsfLRf9Zn9iafMp3MuIhgCi0WiOCF8GqTGiGvzEnsPGrFa0H1n-uzWhVehLbt44ShthsA32VzHd5iQ'
  lat: 40.099737
  level: 8
  lon: -88.251157
  name:  'Tyler Van Atkins Memorial'
- ap: 8159
  img:  'http://lh3.ggpht.com/rUgM7jkTqL0VHxvsSW0yWuNJF5UrU62ITflghfn4PfKjn6L4WGz0ALkv98fc_q9dmK9SSpU1PXIawGvcRwE'
  lat: 40.098246
  level: 8
  lon: -88.251974
  name:  'Hessel Park'
- ap: 7222
  img:  'http://lh6.ggpht.com/5CDidk0pqfUtSW_Yqouuf3diX8drdMu9DoT728QpSz8q6A-WxNhT0yLcgM_7gGpyIAeXrHiTkIzzaVJFgnN9WA'
  lat: 40.099852
  level: 8
  lon: -88.251947
  name:  'Our Friend Tim Palmer'
- ap: 6285
  img:  'http://lh4.ggpht.com/PHV-1ZpFzCAl_ViCKwBY_x2pIDbVyaT7wJH1sTvFJCxrSdRrO1x7NaXq9OdRGwz_Mls4iwk6wuGHMBArfV54'
  lat: 40.098688
  level: 8
  lon: -88.25063
  name:  '"New Holland Yellow Dinosaurs" at Hessel Park'
- ap: 6285
  img:  'http://lh5.ggpht.com/tfAfnmo6mSMc6U0P533NMFJRGwn6lasmx-MLR2JJg1QOizMKkghFU8E7hb2zgYgdQEbgnCJUlvZIMdrrJe4'
  lat: 40.100822
  level: 8
  lon: -88.25193
  name:  'Seeds of Kindness Bench'
- ap: 6098
  img:  'http://lh4.ggpht.com/B_I1b0Jy3vW41RX8jjCNPP68AULplU0Pf8ddolyKmpEWCfBVShQkmjF1HfTPzDjmBBQGgOs0jHW-rUR0mv8BkA'
  lat: 40.098789
  level: 8
  lon: -88.251685
  name:  'Curtis William McKinney Memorial'
- ap: 6098
  img:  'http://lh4.ggpht.com/4LxsGZZMk3DnpJXUvqzrL54CHSP5TDXjUnDJyHmCCTtCJIjGEI7kxT9g4uxfSPh0X6yGLgQo1jfqbu7B8VEr'
  lat: 40.099084
  level: 8
  lon: -88.251826
  name:  'Irina P. Stewart Memorial Plaque'
- ap: 6098
  img:  'http://lh3.ggpht.com/8FqlniFErK7cq59awiT84u8KyV4FIRd5krZzfYa58zJToFps7whdBnriPqvO_kFKeLUE3SWbJhCOPuvUQzaGFA'
  lat: 40.100691
  level: 8
  lon: -88.251337
  name:  'In Loving Memory of Zeus'
- ap: 6098
  img:  'http://lh5.ggpht.com/-UWK84I78Sftf7yg-E2pg6xEAWTvyiThgJBJlxbqOZPYKNmzQ8uGgEEMetzplrG1HpXG5kQqNItUeXKxOHDsGA'
  lat: 40.100286
  level: 8
  lon: -88.251747
  name:  'Tennis Anyone'
- ap: 6098
  img:  'http://lh3.ggpht.com/VrbXGwlUosNLEkVdshWUFoVa3KtlJQoEU4yLYygvftYbPCmxo644Uvar_v8Kb9RS53hB0tXgvV44GotrxZyu'
  lat: 40.098592
  level: 8
  lon: -88.251676
  name:  'Ruth and Fred Steigmann Plaque'
- ap: 6098
  img:  'http://lh3.ggpht.com/G1CvGhpethi5UmprDWxZN9rTblHa3anSsQz1UPgJtkREkfN7lDFoxFObst0609Cg5mofuZxJKr0ddNKhY4VL'
  lat: 40.098464
  level: 8
  lon: -88.251426
  name:  'Ruth Haasis Memorial'
- ap: 6098
  img:  'http://lh6.ggpht.com/S7Utf4_59vQkAP5JhC3mdbzVLKBTt-0zoJ2UjfxUnN10VBbixO-_VwvssWd1LbFSx_yafaijd_U0wTGo870'
  lat: 40.100941
  level: 8
  lon: -88.251314
  name:  'Gabriel Patrick Maxeiner Memorial Plaque'
- ap: 6098
  img:  'http://lh5.ggpht.com/4DJAFPeZ_w65Km7VDnsbOqouQaeBuPuxA0KHPQToT_B6o1hBxzdu3kn89UhHgv22Ygj52Fx9QqcbzOytuw'
  lat: 40.100078
  level: 8
  lon: -88.250683
  name:  'Brian Clark Memorial Plaque'
- ap: 5722
  img:  'http://lh3.googleusercontent.com/NRpdP-ebGuykq3sH1NZBQVjhmSdVJW3F4MTCRdXrWKQf3Z5dBgo0Phhyqnel5IrJmriQRmJNFR12lRDrjxJ9'
  lat: 40.114911
  level: 6
  lon: -88.227781
  name:  'Electrical & Computer Engineering Building'
- ap: 5535
  img:  'http://lh5.ggpht.com/ek0AuIkZd5CWKmIdjFjq5gOvptOzC8VJUnyatNG8ZyUoT8-mvkd4seW8Gpbl4kkgiatIbr57h5kK_5z6NSGD'
  lat: 40.131581
  level: 5
  lon: -88.312816
  name:  'Sunset Ridge Park'
- ap: 5535
  img:  'http://lh5.ggpht.com/Ubq0MuIsu5MU-I8JiOC7oX_aheDNBNsG-UlSMPqA5BRkHJX9BDDUPWGQxXllzVgaxFeo23u3zu_hlJesprpNJg'
  lat: 40.133421
  level: 3
  lon: -88.280893
  name:  'Greenbelt Bikeway'
- ap: 5535
  img:  'http://lh6.ggpht.com/ip01yZFDdi_w_oQ9qKF40m0xZBcj62odRMMEkBoiO6Pu_WUGqItkR8Dx-sJEgGpNxbTl9zxdS3cKZsDNJl4'
  lat: 40.118411
  level: 4
  lon: -88.210576
  name:  'Civil War Memorial'
- ap: 5535
  img:  'http://lh3.ggpht.com/kAxEWb1VdMZ1-OTPwyl-CGWs0lF3FNth0gbxr6aqk6BaG_tfbCZM31s6UWKUY8aFtUA3j2GFL2z6yvu95yz3'
  lat: 40.115068
  level: 6
  lon: -88.228451
  name:  'Electrical and Computer Engineering Building'
- ap: 5161
  img:  'http://lh5.ggpht.com/C6wRSaEWO1NYGY5luyYZKHG3Z3aib4aflaPdV7B9G6N6adE890g3QuPRSvCUhsdFHqjoVUjo27mfz9WsjXyuhQ'
  lat: 40.100521
  level: 8
  lon: -88.250864
  name:  'Gabriel Patrick Maxeiner Memorial'
- ap: 5159
  img:  'http://lh3.ggpht.com/NfRR7PyM2-UNoQGKgRsf6sUZdUTMp0sWqha9caVs49hYb0AnT9OznQX0dQGxKJNP6KiHWJ0WRUMSQh1m4-rwvg'
  lat: 40.117976
  level: 7
  lon: -88.245082
  name:  'Robeson Building '
- ap: 4972
  img:  'http://lh4.ggpht.com/9jXAzAxn0JZrLkU9VK9p-mNzjw3x_6QqwMAn4CAEBAHp_lo2iDZeV_y-hoUzP5CYwm8kOMyrTToZQOWJBRnw'
  lat: 40.115095
  level: 5
  lon: -88.249052
  name:  'Bayne & Schumacher Fountain'
- ap: 4972
  img:  'http://lh4.ggpht.com/5wL5PqODxJ0DwFOmZHKk05wA48rHbH4ydUvFN7iXpDB60rAWnAAym0usdXwQ1CF6tM2h8CAdBtflVjyYoNwRYA'
  lat: 40.11936
  level: 4
  lon: -88.207653
  name:  'Chinese Goose Bridge Plaque'
- ap: 4785
  img:  'http://lh6.ggpht.com/hDt2TaWr_3Rxg4Ot6z4G0vCecWeK9M0gY7k4xNvazhxurVNbzjJQyYJcGFV025KR_YQ7X9F_9jS0q1-I_dtH'
  lat: 40.091552
  level: 3
  lon: -88.2924
  name:  'Samuel and Edith Alper Memorial'
- ap: 4785
  img:  'http://lh5.ggpht.com/ZfmaOk3UM4PNzP-z0AvBPFqYLc6wAEDSPhL1cSVjXMAFSv4Jadm-hV--eP3OaJuaksphYKN5s6bhWhluTGs'
  lat: 40.133327
  level: 3
  lon: -88.280335
  name:  'Prairie Grid'
- ap: 4785
  img:  'http://lh3.ggpht.com/IKYzmqr6aeIX2d99jn1dQHjjq0-h7glRdyPEPoTdQnggoAgc8uutzh3X4OYjcCllXVp5r9rYyYnVPwNALI8B'
  lat: 40.115178
  level: 5
  lon: -88.246191
  name:  'Clark Bar'
- ap: 4598
  img:  'http://lh5.ggpht.com/1eDayuS4d2wNAfoiDstKMYbI0A-jF-si0NR2wlIA4cGm_nJhPwg0qgwC4fHnpfADWMcQd31BdogexUe3d1W2'
  lat: 40.124396
  level: 5
  lon: -88.305917
  name:  'Sawgrass Playground'
- ap: 4598
  img:  'http://lh5.ggpht.com/TwKxvDv1ImbH5RTs7GHqqK_rPohVtqtgToH7YuDkkwa5BRFiMEcY1vWcFrJLkhaXW6cd2YVL0_Vro2JaA3K1'
  lat: 40.131575
  level: 5
  lon: -88.314062
  name:  'Mark L. Rambow Memorial'
- ap: 4598
  img:  'http://lh4.ggpht.com/DKqCX7ekIzT953BiW_t-Oe0jBg-GV5rCptYhvQqlLpQdaRpMxnNfMXekcxHT3XIhqCgskbqRwa-YofxMh71Q'
  lat: 40.090655
  level: 2
  lon: -88.289418
  name:  'Peter Taylor Lewis Baseball Field'
- ap: 4598
  img:  'http://lh3.ggpht.com/qWqDj3Ws5ffRyIXG8XxFM41dBDTOBhjCkDgKebjiDFo-5Fyj_ssgLQ_wLM82uWwB2jVkNIYN4nc5U2E3wZoBNQ'
  lat: 40.111037
  level: 6
  lon: -88.245813
  name:  'Champaign Public Library'
- ap: 4598
  img:  'http://lh3.ggpht.com/rT55OoX-8s-w_ikrqOgpC7QkK-Iqp4ylicElGoWFagKRQ8LX3Uvv8TZ5Xc8BlId1btzo5FTbgddPN72kYwA'
  lat: 40.114327
  level: 5
  lon: -88.224492
  name:  'Siebel Courtyard Structure'
- ap: 4523
  img:  'http://lh3.googleusercontent.com/OuV-xkKMYekdQdkQ7ADOaDN6edPO8xYZvaEbWyHP6JyqwkHzp9R8_ahyUbfwy94AY0LtAPJet4eGG9iAsKY4'
  lat: 40.108965
  level: 5
  lon: -88.226465
  name:  'Harker Hall Fountain'
- ap: 4596
  img:  'http://lh6.ggpht.com/LxVyXEFJmvSZ271mlFfYmCwyb05Kz8cIRxzMt24ZVhRzsH09nxErJw4gKErktjKpCARWfVl4Mla70NoODK2bng'
  lat: 40.11187
  level: 6
  lon: -88.220692
  name:  'Atmospheric Sciences Building'
- ap: 4411
  img:  'http://lh5.ggpht.com/-aOZyLFNK96FhUdQBYhmRPZrs_PB1oiLRcrPjKwFBANQ42LxLbbHfTZVw_F01meecQXfNQwJYy7qqVh8Q0gR9g'
  lat: 40.133768
  level: 4
  lon: -88.281275
  name:  'Butterfly'
- ap: 4411
  img:  'http://lh4.ggpht.com/vKgqIecJshMQxrhO-ZhMjcIyARuJdyU63wKfzAG0wouZex6LVzO46Qi5zM1N3Jx8xyantDFk9sQGsSEBhb-y'
  lat: 40.101327
  level: 8
  lon: -88.251412
  name:  'Zeus Memorial'
- ap: 4411
  img:  'http://lh5.ggpht.com/ENeQgqydWbi9-Oyf7vizunoRqJdsZV4o0RA_956wjGI8hqpTCHBPyWMpbTrrkwYpj5tgzDRvevGmvH4eFRU'
  lat: 40.099593
  level: 8
  lon: -88.251724
  name:  'Blessings from Devon Elaine Cattell'
- ap: 4111
  img:  'http://lh3.ggpht.com/b9HBD2zL4T02YqqDOnuBzYEU0UECTZDRgjLjZJV7cnX75wbmiWtc5yBUo_FZrZ8yBH69UsrbeJlq-VS-mPmi'
  lat: 40.109438
  level: 3
  lon: -88.226301
  name:  'Illite and Clay Mineralogy Plaque'
- ap: 4411
  img:  'http://lh3.googleusercontent.com/EvLov_3eYLGHotkWec9w3T1VCPQri5SR8JLZjbJUaxRsyGPLS4YQNXf90xlPoKjxGYlml9N8IDYKwpNvVIWlVA'
  lat: 40.114563
  level: 6
  lon: -88.228735
  name:  'End Caps Sculpture at ECE'
- ap: 4411
  img:  'http://lh6.ggpht.com/ONc6NEwX34IJR8FuaTy8phi9yEoEDMyOn9GRlqJJlv2fU-ky1s4L6OflOmO5pORHew3EOrF0ehzlIv5HFMff'
  lat: 40.118344
  level: 5
  lon: -88.210055
  name:  'Lake House at Crystal Lake Park'
- ap: 4222
  img:  'http://lh6.ggpht.com/tEtHQ3gjXHp940OLn9txVBSOCdT8UfYUs3C29Cgx6HiCLrS3KBboU3Wms2rEVMQWEf7lf67xfK7MIUmimDw'
  lat: 40.116631
  level: 3
  lon: -88.247334
  name:  'Jack C. Richmond Lion''s Club Bench'
- ap: 4035
  img:  'http://lh5.ggpht.com/dEeT4acpLu-WQFlZWd3psap5qAqqPTSVzm8Qt1QtpqtwZ0j1V9eKFcmpgN9K_x1PL4XVchuevw25rxHekz3tvQ'
  lat: 40.111968
  level: 5
  lon: -88.226793
  name:  'Bardeen Quad Structure'
- ap: 3848
  img:  'http://lh6.ggpht.com/Z9OoAT12enRNYI3CgnpFhdqCbDwZCyEyHUKPcE1Zexv5STafk6tkRrQyJoPhd8L0LiEV0nW4XyE5BoDFlfE'
  lat: 40.092568
  level: 5
  lon: -88.295013
  name:  'Meadowbrook Community Church'
- ap: 3848
  img:  'http://lh3.ggpht.com/x5fBw8MRogV8dm3kPO5zKNkUrQxn0dM7d1PIoASdX1_Rc8H5Duex4iZdOoIlqazCGll25TmptsWIRq1JFmj6'
  lat: 40.112135
  level: 5
  lon: -88.225762
  name:  'Computer Based Education Plaque'
- ap: 3848
  img:  'http://lh6.ggpht.com/VGq5_qMrAE5FbP2m0Maszw451m-OfbmuUYDIryB0OyOe4-R92nr43XAmU-Rl5GExMkQzJHBA2a45SDWOypA'
  lat: 40.118224
  level: 5
  lon: -88.210862
  name:  'Labor Day Memorial'
- ap: 3661
  img: http://i.imgur.com/5j1qaiT.png
  lat: 40.360306
  level: '?'
  lon: -88.431268
  name:  '26ffbb1778974e99a93bb874fcb6c57c.12'
- ap: 3661
  img:  'http://lh3.ggpht.com/ej9Hc79rnglv03WlxEOMw0g1DQAavAbonJWaENeyKBRbSRnL-KEkhv7XMi9bi1H2ka-91k_lSEGb91IVCh8'
  lat: 40.123554
  level: 5
  lon: -88.300592
  name:  'Jo Ann Powell Memorial Tree'
- ap: 3661
  img:  'http://lh3.ggpht.com/ZOALJqKi7gNpN7e2IXnkcpGhKdME-MIGNVz09KJfsruk0ix30Xa_lWaNAMj06IpkfgGbmbNvDXRdDkLgGGA9'
  lat: 40.090629
  level: 4
  lon: -88.29504
  name:  'Roby Recreation Trail'
- ap: 3661
  img:  'http://lh3.ggpht.com/NfT2lF-sDianTwLMh0ZBNPZJd2GwFyVqBX9dYM60Ql-AgN58IA8dbfX2J1dT72YJPSDbyqB16mie75kI--nG'
  lat: 40.094327
  level: 4
  lon: -88.295051
  name:  'Midwest Believers Church'
- ap: 3511
  img:  'http://lh3.ggpht.com/ROImDYnOqzAZ2JsC6d1BbHEDHBXtQwcT1EblsUkMVTN5M_E6B0WeKd76CdFWHsT-I6vOqYd46_0mo3qWslBI'
  lat: 40.09118
  level: 3
  lon: -88.29329
  name:  'Prayer for Peace'
- ap: 3661
  img:  'http://lh5.ggpht.com/oyiyn1Im-Ppa2y94WGbvZox7rcS2MMu45LOziU7yXZi4v2540YN6hgzBokVq2mxvpPtdDXpAwWD_vYWxjHcO'
  lat: 40.130238
  level: 5
  lon: -88.253835
  name:  'American Legion Post 24'
- ap: 3511
  img:  'http://lh4.ggpht.com/vKiU-Z9PbuWMTBST_ry96h11Nf1d5ooex1Fl5imVUtCPpaeGwy3JDVmhziEnAAySe8NXWHfT5stQGA2BQg9J1g'
  lat: 40.122111
  level: 4
  lon: -88.200203
  name:  'Dane Michael Sherr Memorial '
- ap: 3661
  img:  'http://lh6.ggpht.com/ZQaguxPyiC-6DeFDFa2niVKJz3ySxwxYaFCv8PRdNuoMYUfP-Xtirg-8pXCTdBCyH1BruprOVmqf3D1kdp7o'
  lat: 40.115225
  level: 5
  lon: -88.248866
  name:  'Holy Cross Catholic Church'
- ap: 3661
  img:  'http://lh3.ggpht.com/1JgqaWx4DIU04ms-XmufSumQ5BDP07SB97-kBjzxDePlLQR9HagCTfqdviW9ErxCqpvXgynqeosQhERhCat6'
  lat: 40.108781
  level: 6
  lon: -88.226388
  name:  'Illinois State Water Survey Plaque'
- ap: 3661
  img:  'http://lh3.ggpht.com/wOZOXhKOnhbKEPMQke-zGIG_vheDkHM8q19B1n_is5H7t1whBcQxBIGZI6VIPNw8mdCNXG6EUZeSjd1YLdngdg'
  lat: 40.108965
  level: 6
  lon: -88.227184
  name:  'U of I Mother''s Association Plaque'
- ap: 3661
  img:  'http://lh6.ggpht.com/z-rN7V9azKlrBiQyHrvOp3PTu3nhMGzTUfdYLK_BUobDrl_-Ju4DX9nOO8TdIRRFz5lcPVF9n15VyvlHhKEk'
  lat: 40.122406
  level: 4
  lon: -88.20969
  name:  'Bob Joe and Pedro Memorial Plaque'
- ap: 3661
  img:  'http://lh6.ggpht.com/0WV0zgKIo2AbnMTwJXYSM-C6nik92XvxsPKcZps2SdFzIWJ2bY4k2dHAqdImb1hTCK910NMvQYoKlwWprt6c'
  lat: 40.12034
  level: 4
  lon: -88.211743
  name:  'Alice Mimi Muller Dedication Plaque'
- ap: 3661
  img:  'http://lh4.ggpht.com/6JXSHiCDi2iar6h4bJwjAP3in4t5pCFNFkUI2jkc-IKAowBmm9GOwU1vcyf4YI1MjU5eWO4OJVGd682NECK6'
  lat: 40.122334
  level: 3
  lon: -88.209274
  name:  'North Woods Pavilion'
- ap: 3661
  img:  'http://lh3.googleusercontent.com/3Myf6CnmcDIYbRC1TWtiQ0Q34tm-r8kQZQ8GjoGZ4AI5ome7PHiB7E6Maihk_SvkVJF8LPW5RSjo36Bsa7VM'
  lat: 40.12807
  level: 3
  lon: -88.215897
  name:  'Busey Woods Trail Entrance'
- ap: 3661
  img:  'http://lh3.ggpht.com/V-oTVbkji_q7V9k0WGhQyDum7PEtruXdbp6e-PzZq3sFNxGWdA79FLEv8uGaZrcSwWE15UhTtBB0ZMW0Ig3j'
  lat: 40.127466
  level: 6
  lon: -88.216274
  name:  'Lincoln Bindery'
- ap: 3661
  img:  'http://lh6.ggpht.com/yyeYUYh4CQUjDkChdMYxhBGtyVNFeOxie-Qo2rFmwnp6dxmIx6wYlfyU88vIxtwULKprz84mi2fmqu2vMOo'
  lat: 40.114764
  level: 4
  lon: -88.20772
  name:  'Station Theatre Memory Bench  '
- ap: 3474
  img: http://i.imgur.com/5j1qaiT.png
  lat: 40.273821
  level: '?'
  lon: -88.676394
  name:  'Blue Star Highway Memorial'
- ap: 3474
  img: http://i.imgur.com/5j1qaiT.png
  lat: 40.272743
  level: '?'
  lon: -88.675349
  name:  'Adams Leaning Wheel Grader'
- ap: 3474
  img:  'http://lh3.ggpht.com/j0Yx7yuvUTJbnHtY38VFaty8xpyZMMDS_bSmvbHQx_2nQBiLqF4PGpLNdTGXkRgA3-OANQgASvn1mPGcuJi6HA'
  lat: 40.131715
  level: 4
  lon: -88.31369
  name:  'Mark L. Rambow Tree'
- ap: 3474
  img:  'http://lh6.ggpht.com/y8bCBS3MGLa3XKiu6GIpVpygQ-RMlVpx9JsDGQx9PFP_EnpG9-XdSln0ZWMphq6YLmE6DSL0VsWnN9PpaHCYrA'
  lat: 40.091003
  level: 2
  lon: -88.290142
  name:  'Jim Harry Memorial Plaque'
- ap: 3474
  img:  'http://lh3.googleusercontent.com/abyzHmsDcu4wr2nZ5KrzfryQDjq08lgz16ggCtHboK-pAhp8lhjyJoStUFTg-XDe4SPzYjAxvNLQuix4tsgc'
  lat: 40.132193
  level: 4
  lon: -88.279832
  name:  'Tribute to Olympic Athletes'
- ap: 3474
  img:  'http://lh4.ggpht.com/h3t9nwbrudSHJ4Ll-zBceLi_U0iwpgbsVd8Wjzy_JgqMiXIqIu4CILUiFnKdayIi0htMXQ5CNowcXO7XUqI'
  lat: 40.13401
  level: 4
  lon: -88.28239
  name:  'Eddie Albert Gardens'
- ap: 3474
  img:  'http://lh4.ggpht.com/IAi2A1ukQunZaoCY1OUJnvZC_MAEjnYzlg7vcsIuPQyLIB710_5ueVQ3El8Pok0aNvlB18-Tdo1euhYbaf0'
  lat: 40.115224
  level: 5
  lon: -88.24957
  name:  'Linda M. Wesolowski Memorial Sign'
- ap: 3474
  img:  'http://lh5.ggpht.com/f710C9AvOEB7ieCI4f382wWUP4OgDxiqPzbxqxct6Ugf2PWBfyXyDpG_JcRQ6PaZ_jS0jpXXBhNSt_u9rFA'
  lat: 40.113864
  level: 7
  lon: -88.224839
  name:  'Plato: A Social Networking Revolution Begins'
- ap: 3474
  img:  'http://lh6.ggpht.com/iVHoGDIqnjdRupoPTpZLPtrzaCpEGW6HV4QHZ5WW185rmkrOxvl-C7uIN_gNZnCrm-djktoPC1J-9vjBZfCb1w'
  lat: 40.115718
  level: 6
  lon: -88.228521
  name:  'Red Lines Sculpture'
- ap: 3474
  img:  'http://lh3.googleusercontent.com/5Te-dafekqHMAY-HjKfNk0CcYyFpxK86OuYWSOTFv8saT6pfl_rqyJMVlnF2ccsu1T2mA6ScXOl5SUPIMypR'
  lat: 40.126769
  level: 5
  lon: -88.215041
  name:  'Busey Woods Swampland Overlook'
- ap: 3474
  img:  'http://lh3.ggpht.com/bz4oo3jSLlJ5qqBYGa0PxySc94PdeXA_iAJpXuHQpMh_nxxmIIINM6cZeB6L9wkzZVFu9NkM5j2wSTSqPUs'
  lat: 40.114803
  level: 3
  lon: -88.207948
  name:  'The Station Theater'
- ap: 3474
  img:  'http://lh3.ggpht.com/Mq79WbQ1w5yLCoU_4h7uMnsGDj7g46MAzSE-sfiiMY6H3h21xj3qNtuvBBWvMMUEmkBuZC_gI90YQhbAMSGU'
  lat: 40.115386
  level: 4
  lon: -88.207887
  name:  'Broadway Ave Mural'
- ap: 2911
  img:  'http://lh3.googleusercontent.com/hJZWoErzM-MuXulq4FlhlZwMbJX1Isd81GBUBVKayd57jVIVxUle3itd-1DRKo2VaNXznWr1X639fa44Etk'
  lat: 40.141919
  level: 6
  lon: -88.244611
  name:  'Marketplace Mall Carousel'
- ap: 2761
  img:  'http://lh6.ggpht.com/_DubhrfG2JJ4z9B5xy_S0mtF3LC4osW9qwaXsS4wqoaNZzp1ITsiE-QTDmbe10QQdrYCW067qj-0-FfrLCAg'
  lat: 40.113193
  level: 3
  lon: -88.198787
  name:  'The Rock of Deliverance Church'
- ap: 2724
  img:  'http://lh3.ggpht.com/xAJIzhGMpnqEYisIgB5-btiULPi6cL4uLys9fqf8_smF-6qAXP9rUsCbWIgPVIIHfGINQNF2Ypx58YvDo1hh'
  lat: 40.127093
  level: 5
  lon: -88.23927
  name:  'Bridgewater Park'
- ap: 2724
  img:  'http://lh5.ggpht.com/nWEtxuKQdy0teBBue1DYmG7P3SF5-3A6zlB7GwVHBWlolAZYGq6Br78lWcF9ltFy-KeSlozXie2RmU6JfCUX'
  lat: 40.142673
  level: 6
  lon: -88.244603
  name:  'Italian Statue'
- ap: 2724
  img:  'http://lh4.ggpht.com/-TY2TO77KoFgKpX3BQsYHwD81bqYYr9WE797XFrv_YpO6N5Lf0WdpqwqTEigpXL_xjihxLFgF6l4vYBlgyM'
  lat: 40.12059
  level: 5
  lon: -88.235253
  name:  'Deliverance Temple Apostolic Church'
- ap: 2574
  img:  'http://lh3.ggpht.com/07XrBN-er6Ecleor0n9RJ4DfGO6B2yn-ZxjI-Uy8Ba46Jtb6cXNVmATPiPiGyk-1jZ4wxa7-EeIWbWUqArCG'
  lat: 40.142554
  level: 5
  lon: -88.243468
  name:  'Dog Heart'
- ap: 2724
  img:  'http://lh6.ggpht.com/NKXSF6GiNQjQkGMo2cwszdfKruFPx3kqSmhOnKewgIS5FYC7jBNc3zKfRlEWtCBj-XBFLZM0fjURljdmMCGHTp6XADSQdWjVAmjnaudxBI5YSWFw'
  lat: 40.110465
  level: 5
  lon: -88.204813
  name:  'Urbana Municipal Building Sculpture'
- ap: 2424
  img:  'http://lh3.googleusercontent.com/oYQaQpOQ2HICancOs0DcaCqX1KiTJEoAeKp6EUWBs5u-TjTKqJlzTSzA0QMldAg6HLWb3rX4m4_cwKwGCtpV'
  lat: 40.118684
  level: 3
  lon: -88.244894
  name:  'Farren''s Pub and Eatery'
- ap: 2649
  img:  'http://lh6.ggpht.com/5m_DdlbswQXPJueGjlDknXPY3RqwtwdrWAsNLBfbSNENcdAw3oafNYp_YTPk5KmZZpY5M4zwdxKoE9Tq5kDv'
  lat: 40.118985
  level: 5
  lon: -88.245285
  name:  'The Little Brick Memorial'
- ap: 2649
  img:  'http://lh6.ggpht.com/uJ6kk4uQVfzQ22nbmRS5caadkRcM8fSpAlbvgM8KacYRDBYZtQTBKIHX7ju9ejvrdRG_oIr5QDELOwvb7L0'
  lat: 40.121759
  level: 4
  lon: -88.24366
  name:  'King''s Assembly Church'
- ap: 2349
  img:  'http://lh3.ggpht.com/PKHUaHtGQlwpb8q3mUpPJtjb51_am_ieb_9X0u8g1PI_eg7NxFQU2fqeV8XjnIIDy0rCMtqsfMJLerOBo8M'
  lat: 40.118579
  level: 2
  lon: -88.244588
  name:  'Mural on Art Theatre'
- ap: 2724
  img:  'http://lh6.ggpht.com/jhMQ5IGo-EB8MiVSEIUKmHbHwagHnJzv5RKZvsbHLes_88gz9Kesj98eZWV29mufV0LSUVjs53V5hMFQOG2Q'
  lat: 40.11067
  level: 6
  lon: -88.220974
  name:  'Astronomy Building'
- ap: 2724
  img:  'http://lh3.ggpht.com/jnMeoF6SBZ0Iinf5GnB2N90IMGTEQdGggLITfjWcIY6d5yipHaBN52a1NPxmn-VFwc_G1cHiMmyEDGg5nkwo'
  lat: 40.101623
  level: 5
  lon: -88.231761
  name:  'Metal Spire'
- ap: 2724
  img:  'http://lh4.ggpht.com/KS4k0iDFceOcG_wEnQeqAeJpCkwjbjTItb2FUsyUJGsnhDizNqvrXmfee70SUhCcQ10_m1vv1vtcNRrFhIc'
  lat: 40.126039
  level: 3
  lon: -88.209117
  name:  'Water Sculpture'
- ap: 2724
  img:  'http://lh4.ggpht.com/MhW7sdKYdOt__Gmefy7CMOI4_Q8_dqGGb_qolwk4Uf7b_fpr8t5QM5QiCFUOe_ZpsgAfLhPSU_lbVTX5DIEX'
  lat: 40.125951
  level: 4
  lon: -88.209474
  name:  'Give Creeks A Chance Street Art'
- ap: 2349
  img:  'http://lh5.ggpht.com/5UaLE3V21PH3K-ll263IWHlDVaOq4PYO9XS1VbHCODkFpHVo0mhfw8Aa7fYVnaZEV2GjenVIF0xrznTiQAbfkw'
  lat: 40.112948
  level: 2
  lon: -88.201552
  name:  'The Flag that Will Not Burn'
- ap: 2724
  img:  'http://lh5.ggpht.com/1XPOesDA-iv_mWKtQAKDFXGF-lrbYv1Edq1Ex0hiStlmwFbjD_VBhpXQHzGSN1E0TqeAcMYNiE_f448nLXgC'
  lat: 40.112883
  level: 3
  lon: -88.199804
  name:  'Webber Street Christian Church'
- ap: 2349
  img:  'http://lh3.ggpht.com/N0Bl8YGm4qtAVQ3EgRKcAFyDPOerfOIV-1UhpRGD4UejUYl-NUM4jYcoS_K8q3oWOqyel8bNQfS4QfASesUzzg'
  lat: 40.113158
  level: 1
  lon: -88.200024
  name:  'Webber''s Elm'
- ap: 2724
  img:  'http://lh6.ggpht.com/3Z_ahLKZKpEJ_5dh8wG1jTBp6wvIadDrU8lnAkZ4flL_mtxKtbh2HxixutEK3usEaP47L6jU0VA1by70WIuJ'
  lat: 40.110984
  level: 3
  lon: -88.196857
  name:  'Victory Park South Entrance'
- ap: 2724
  img:  'http://lh4.ggpht.com/DvS6go5Krx0CocEL5s29eIW_bm_5HDMdSrRgfi7i3uLEXMkzxPLKWMX24OvVm9geOAeqRlmoqv4HQWwH-d_vfg'
  lat: 40.11075
  level: 3
  lon: -88.198278
  name:  'Urbana Baha''i Center'
- ap: 2724
  img:  'http://lh5.ggpht.com/X8fMC6BEd-s7yEaLcZgy9h_jsPOyLnqtyUSQXq-f0-8tddmWEfww8biVS0z223PMPQNhXHt3TuCOP4zDqXi4mA'
  lat: 40.111425
  level: 3
  lon: -88.196843
  name:  'Tulip Tree Plaque'
- ap: 2537
  img: http://i.imgur.com/5j1qaiT.png
  lat: 41.977551
  level: '?'
  lon: -87.647093
  name:  '21a456e3befb412c9e44385bc08e48cb.16'
- ap: 2537
  img: http://i.imgur.com/5j1qaiT.png
  lat: 43.218744
  level: '?'
  lon: -86.329029
  name:  'eed44570828741a7bd2c8e3869d233ab.16'
- ap: 2537
  img: http://i.imgur.com/5j1qaiT.png
  lat: 44.021806
  level: '?'
  lon: -86.456732
  name:  'c8330f9866424c68951a564fd77abe7c.16'
- ap: 2537
  img: http://i.imgur.com/5j1qaiT.png
  lat: 42.481871
  level: '?'
  lon: -87.805703
  name:  '9bd857ba387a45deae057200986a1abe.16'
- ap: 2537
  img: http://i.imgur.com/5j1qaiT.png
  lat: 40.33555
  level: '?'
  lon: -88.998923
  name:  '4c96398791b2462a8252b7bdba0ab9a2.16'
- ap: 2537
  img:  'http://lh4.ggpht.com/bzGBa_8g8we9vEYlZ-a10Ugz_B36DNFCNFsnUmAPy3Aji53kcVj0FaVE28zxnedZgY5Ozi94A8obmXuFQ1vL'
  lat: 40.132632
  level: 5
  lon: -88.279968
  name:  'Vernon W Fitch Memorial'
- ap: 2537
  img:  'http://lh6.ggpht.com/DkIzbz45_-iovgdhY20n6Mzhc_LaPfAOZkL9uA4Rf6oUgyiqjmrZi681sMMhea6poUz-PBn2eJCF0TEadWkp'
  lat: 40.107411
  level: 6
  lon: -88.28586
  name:  'Emmerson Dexter Field'
- ap: 2537
  img:  'http://lh6.ggpht.com/amW2e5ycP7FvjZ3krW-9lGBG3opwCMW_jITPOqV2E_woJYL5_s2UUaxHMN9PYWWD0p7-2CKYtMsk141rldj_'
  lat: 40.10884
  level: 7
  lon: -88.284078
  name:  'Bert Seaman Memorial Field'
- ap: 2537
  img:  'http://lh5.ggpht.com/tuo_ByFTbwLitFP5cBseOibqRxENxbCwOJ30dCnja5ijBI_qBv5vqNP7ZuZXnxhYM6ms_GbExZEwwKVUtwV2'
  lat: 40.093712
  level: 6
  lon: -88.281583
  name:  'Brownfield Dedication'
- ap: 2537
  img:  'http://lh6.ggpht.com/p2F3xw4xL4UdiMM9aSy628ISSglrvjPexpF3j340tMAP9MX07yh_sJv7kHVkeud8lyFf2ZwDohw3zsRS2PSd'
  lat: 40.093914
  level: 6
  lon: -88.281531
  name:  'Terry M. Warmbier Memorial'
- ap: 2537
  img:  'http://lh5.ggpht.com/BUGNnLReyCBJJj9_zpqgwv5_CAyiW8fWBpyVs0ip1hT5NEE6YKCYzlc8ahldKzk_xv-4uckNJNb6NrJd6r33qg'
  lat: 40.116989
  level: 6
  lon: -88.242255
  name:  'Blind Pig'
- ap: 2537
  img:  'http://lh5.ggpht.com/v26lJtVx6k_bS8UIv0cuwFV2H-bR_kPwjkydaZjqk7BOG1VyLpoQFvuFB7ZmKZpWB_uCHi70HLzZoI4xZgo1'
  lat: 40.116491
  level: 3
  lon: -88.246701
  name:  'Emmanuel Memorial Episcopal Church'
- ap: 2387
  img:  'http://lh6.ggpht.com/NH1CnJnblS1bpZxZJ0VxAHy0tYw7BiYdVK5V9KnTw0N1KMf8OFR6FZP01shVet9ha4cEfSYufO9a1bv8Sqyd'
  lat: 40.12142
  level: 4
  lon: -88.243105
  name:  'US Post Office, N Neil St, Champaign'
- ap: 2312
  img:  'http://lh3.googleusercontent.com/ryRMzj5c3ls-s5Gocd2-IM_oonInNzjPIbCGJVps6JmZxYcG165NabHKNZW7wAepNc8rtLf3A3E0U1mbq-I'
  lat: 40.121394
  level: 3
  lon: -88.243908
  name:  'Circle K 601 N Neil St'
- ap: 2537
  img:  'http://lh5.ggpht.com/KuDVZqnpBQnne0a_UqpN4wpsQFlw3nVXAWtRKP_AdZ3CjQ0MHUBgU_2hE8hb71h31FTQbduYmB6DNuVKA0s'
  lat: 40.116822
  level: 7
  lon: -88.243445
  name:  'Remembering Horeb'
- ap: 2537
  img:  'http://lh5.ggpht.com/f1O8bFXHTg2PTOAUVLvrqk5xx5ps9SeqhpJ1RIPtSxm0I-e7J275e2ujJp3lFQGHUBW_vS90KOsrcdLDJ84l4g'
  lat: 40.110797
  level: 5
  lon: -88.225321
  name:  'Multiphase Fluid Dynamics Plaque'
- ap: 2537
  img:  'http://lh6.ggpht.com/j712bbvDknzGlAU87nZA1Bx45Ng-0MGA9Uvuv-3WzIKA3W51mXOZpJ-TzVSbuU3uE2AsJ5wcO7_B6WDpdRr0'
  lat: 40.110684
  level: 5
  lon: -88.226053
  name:  'BCS Superconductivity Theory Plaque'
- ap: 2537
  img:  'http://lh6.ggpht.com/DPmYFBmWaf_8hYO8H8Y1aQLQ6bnStpWMkvOlq0Ge7AQEaBH5HpB8NUqD0dL0H2oki1yWhRoFC2aDerp9-t_c'
  lat: 40.114514
  level: 3
  lon: -88.217162
  name:  'St Patrick''s Catholic Church'
- ap: 2387
  img:  'http://lh5.ggpht.com/sNSUXW7rqg-Qb6dc2gyeAXcXM3VjBpmyYlgK8btL73fYOjsS67hh6b6LfmCRE6_ItufIvb_4YKG10bc3E1am'
  lat: 40.110969
  level: 4
  lon: -88.221953
  name:  'Arthur Hill Daniels Memorial'
- ap: 2537
  img:  'http://lh4.ggpht.com/hJDi8J7CZU-933hT0Culp2nhslv6p8rDRPdTFz6FwNaAjB5CmfkaQzj9sM--E-QBvI8yvIJn1F2jxy7ZKWlh'
  lat: 40.10816
  level: 4
  lon: -88.234245
  name:  'Stratford House'
- ap: 2537
  img:  'http://lh4.ggpht.com/OFVPvdgB3GVpaQknHdnt2okgP3xcQksAH3wvOGYVuP85MMlxo3bQ2SRpBb0hzNfjQoC_5LlRqaE6jLB-h9Gr'
  lat: 40.108092
  level: 4
  lon: -88.234589
  name:  'Koinonia Plaque'
- ap: 2387
  img:  'http://lh3.ggpht.com/5OA9gBD9HJe7pZRJ6DjHOGIbC9paid10T5gOLcZS91YP3V0eTMGqvFmPtvp6UtWzb1w2sOV5dbYmxDUFnQ0x'
  lat: 40.101862
  level: 4
  lon: -88.231737
  name:  'Krannert Art Museum'
- ap: 2537
  img:  'http://lh3.ggpht.com/2wN9MWxEFPbMzRPAzNmaAiCOQJj_EFr94Y1YkQP_wMlyajkajmcw00gqW-EluMvpQmvnGgcQ-WdPxjcYTmr2'
  lat: 40.106519
  level: 4
  lon: -88.223748
  name:  'Thunderbird Theatre Mosaic'
- ap: 2537
  img:  'http://lh6.ggpht.com/WtqWBwqpYTSw3g9ru5NwcFn5iK5STxWgy2kv4OUTWqwtzx76-9Msz0eqoiw0qpEYE1U4zdt9rzzNZMDNagNg'
  lat: 40.107943
  level: 5
  lon: -88.226751
  name:  'Class Of 1917 Plaque'
- ap: 2537
  img:  'http://lh6.ggpht.com/x11pEsOWqn4mqQ-dluGwqiNNwEbwDqcHukghtr3T9OW6zJ-huJiQzN28bQTAJutX0Cf8c-9nJICDcxGXa73y6w'
  lat: 40.109364
  level: 6
  lon: -88.227697
  name:  'The Diana Fountain'
- ap: 2537
  img:  'http://lh6.ggpht.com/BgudsSY0vPHxgxXELEIEROiOQIlMUEEycmutMqr-xgbLBf4OkD1cCogkqAOqKSfh1GR3pPAhW2bTe5FGfEvO'
  lat: 40.102058
  level: 4
  lon: -88.224635
  name:  'Champaign-Urbana Community Fab Lab'
- ap: 2537
  img:  'http://lh3.ggpht.com/aHqOXq4BX_XXhSNRFJn0768z_1bjWEniMumNJ4FMy9Nv5j3AefPsZDiAGCehCguZ1HFOBMBXxRI4mOXd077e'
  lat: 40.112957
  level: 6
  lon: -88.227127
  name:  'Early Computers Plaque'
- ap: 2537
  img:  'http://lh6.ggpht.com/LVoGz75uEbzBIHab_ek4_2onuT-7Ow81Pj41mGU3rfgYArGKILIbviOC6pY-ZijVs4KcHd-ZD_WmLcCaImyC'
  lat: 40.119406
  level: 4
  lon: -88.213173
  name:  'The Betty J. Schroeder Grove'
- ap: 2537
  img:  'http://lh6.ggpht.com/dIDmkL7jHZb1am2ptK9LrO6Ht_8jTKb3IOvGamBqIYzLXPgtEoPCV_9dMsqLxrgz8_MSq3UsEy9t49y_pqOd'
  lat: 40.125715
  level: 3
  lon: -88.2091
  name:  'Crystal Lake Park Aquatic Center'
- ap: 2537
  img:  'http://lh4.ggpht.com/lmmAipLLlemZCx_GvFWKPFhu7DSZrKSc3OxReeZJ15aabG51w3_L9IdcpKrku-QUoKanND7aZEBZIToeu8ha'
  lat: 40.120805
  level: 4
  lon: -88.201892
  name:  'American Veterans Memorial'
- ap: 2537
  img:  'http://lh4.ggpht.com/-PoOzj6Y8giZrX82Mef4UPVaAW0on17-qpua7swKz8BzaSmyq9XjUOHUBm9ZWneYuqB_EtrsfEBm-cyW4Ak'
  lat: 40.112856
  level: 4
  lon: -88.20317
  name:  'Goodwill'
- ap: 2537
  img:  'http://lh5.ggpht.com/f6rOm3DxdeRrhnP70WA74kANOIPgPztsKnl10zNfhwO-EqkYy9adifLJhWTIoTePqXTxjC9lJv50DWOB3qPFWwFb0HvCuIw-g5Gw48VoXasjqCay'
  lat: 40.113418
  level: 4
  lon: -88.206467
  name:  'A Forgotten Fountain'
- ap: 2537
  img:  'http://lh5.ggpht.com/lVPluMTxywLzssk6h2IM1KNaZqmdJZwSaOjsQTU-NXL2-__Ve9Ur36H1oaIXABV4-52NcqTaSO7DglgO7vNb'
  lat: 40.105698
  level: 6
  lon: -88.202624
  name:  'Roger Ebert Plaque'
- ap: 2537
  img: http://i.imgur.com/5j1qaiT.png
  lat: 40.178857
  level: '?'
  lon: -88.389902
  name:  'Wesley Meadow United Methodist'
- ap: 2537
  img:  'http://lh3.ggpht.com/dBiWv3vHrjSkLU93Ft0Pn_EBnwlnMxpzM8GhwZeM6MEGvqyqO8jGVz0VgmSgJEzhXa3gvPLnx1Gz0R4whIg'
  lat: 40.196017
  level: 5
  lon: -88.395508
  name:  'Mahomet Village Tower'
