- ap: 13594
  img:  'http://lh5.ggpht.com/HhVreJipNvxPRVFpmsh2BPo9PcpPO2Q2l3jCpDjIKgfKGycoTNPXR4DKiYccBXW4X-4dJf_vV0ESsWAWHcChsg'
  lat: 40.100936
  level: 8
  lon: -88.250855
  name:  'Donald F. Bresnan Memorial'
- ap: 10220
  img: http://i.imgur.com/5j1qaiT.png
  lat: 42.482133
  level: '?'
  lon: -87.80197
  name:  '79b9ada5198248c1aa34ae25454ca493.16'
- ap: 9096
  img:  'http://lh3.ggpht.com/rUgM7jkTqL0VHxvsSW0yWuNJF5UrU62ITflghfn4PfKjn6L4WGz0ALkv98fc_q9dmK9SSpU1PXIawGvcRwE'
  lat: 40.098246
  level: 8
  lon: -88.251974
  name:  'Hessel Park'
- ap: 8909
  img:  'http://lh3.ggpht.com/lzCSS0_tjwUV7JQ2fgLI0e05IrzPxlVUs-6aEPOwUv67IanQJSTi71gkw0SGm8asmoE_r3Xoh048Fd9xRpE'
  lat: 40.099169
  level: 8
  lon: -88.251419
  name:  'Lyman Larson Memorial'
- ap: 8909
  img:  'http://lh6.ggpht.com/5CDidk0pqfUtSW_Yqouuf3diX8drdMu9DoT728QpSz8q6A-WxNhT0yLcgM_7gGpyIAeXrHiTkIzzaVJFgnN9WA'
  lat: 40.099852
  level: 8
  lon: -88.251947
  name:  'Our Friend Tim Palmer'
- ap: 8909
  img:  'http://lh6.ggpht.com/qSCp5fQMlyCQ-GOAgiSFy5gaHJei705Pa3eOlJiYO5wGjZTYtjA8q7QWWfAWcLKjxZSaFiMfXOPR8SO7rWU'
  lat: 40.099353
  level: 8
  lon: -88.251876
  name:  'Raymond B. Cattell Memorial'
- ap: 8907
  img:  'http://lh5.ggpht.com/NUOCD82iNRGW1NGqEC4FKet1u5_cm4WRNc2c9_YABAjGf6-OSCLz7HgYkP1ZuVAbpMl6Qi10HRW16Oc9jNM2'
  lat: 40.106401
  level: 5
  lon: -88.236182
  name:  'Washington Park'
- ap: 8722
  img:  'http://lh6.ggpht.com/yjfa0jJLjsfLRf9Zn9iafMp3MuIhgCi0WiOCF8GqTGiGvzEnsPGrFa0H1n-uzWhVehLbt44ShthsA32VzHd5iQ'
  lat: 40.099737
  level: 8
  lon: -88.251157
  name:  'Tyler Van Atkins Memorial'
- ap: 8533
  img:  'http://lh3.ggpht.com/j0Yx7yuvUTJbnHtY38VFaty8xpyZMMDS_bSmvbHQx_2nQBiLqF4PGpLNdTGXkRgA3-OANQgASvn1mPGcuJi6HA'
  lat: 40.131715
  level: 3
  lon: -88.31369
  name:  'Mark L. Rambow Tree'
- ap: 7596
  img:  'http://lh5.ggpht.com/6W_b3aoHNnxViA4TkycmE5hhV5q_VHfypLNlgG4sAyw2eJ5Meyzi2-vwTA8miyKA5pZApxbfpAa7uc0zlCM'
  lat: 40.134758
  level: 3
  lon: -88.313172
  name:  'Sunset Ridge Prairie '
- ap: 7407
  img:  'http://lh5.ggpht.com/93SMm7gYjGLu_6bFOqGL5MXKxKF_NsnHuxiDyywI_Jrhz-LaQoNlm0yw7lG0I9rhp5vnHkATk01A_CNYmYf-'
  lat: 40.128358
  level: 4
  lon: -88.243471
  name:  'Champaign Church of the Bretheren'
- ap: 7222
  img:  'http://lh5.ggpht.com/tfAfnmo6mSMc6U0P533NMFJRGwn6lasmx-MLR2JJg1QOizMKkghFU8E7hb2zgYgdQEbgnCJUlvZIMdrrJe4'
  lat: 40.100822
  level: 8
  lon: -88.25193
  name:  'Seeds of Kindness Bench'
- ap: 6846
  img:  'http://lh5.ggpht.com/TwKxvDv1ImbH5RTs7GHqqK_rPohVtqtgToH7YuDkkwa5BRFiMEcY1vWcFrJLkhaXW6cd2YVL0_Vro2JaA3K1'
  lat: 40.131575
  level: 3
  lon: -88.314062
  name:  'Mark L. Rambow Memorial'
- ap: 6659
  img:  'http://lh3.ggpht.com/xSCQSCRT6pHyQi9LDI3OamMdZnhLQ06OSlHRHnJC0FkDo93VgOcr3gyAV0aPAKagwq9V5iViSSCgIr6_fWCB'
  lat: 40.134441
  level: 3
  lon: -88.314067
  name:  'Seasons Within the Wetland Environmental Sign'
- ap: 6659
  img:  'http://lh3.ggpht.com/2LmoiHH6s6FrGUTRiNNoF0WIY5lVvkXP3CTOxQjNjG2_jrgsDmaxyIZxewF_wa8mFgO41Avi733oq5-CVio'
  lat: 40.10631
  level: 5
  lon: -88.228952
  name:  'Pi Beta Phi Sorority'
- ap: 6285
  img: http://i.imgur.com/5j1qaiT.png
  lat: 41.795812
  level: '?'
  lon: -87.575596
  name:  'ff6d9e3ddaf64ac19790c7d661facc59.16'
- ap: 6285
  img:  'http://lh4.ggpht.com/PHV-1ZpFzCAl_ViCKwBY_x2pIDbVyaT7wJH1sTvFJCxrSdRrO1x7NaXq9OdRGwz_Mls4iwk6wuGHMBArfV54'
  lat: 40.098688
  level: 8
  lon: -88.25063
  name:  '"New Holland Yellow Dinosaurs" at Hessel Park'
- ap: 6098
  img:  'http://lh4.ggpht.com/B_I1b0Jy3vW41RX8jjCNPP68AULplU0Pf8ddolyKmpEWCfBVShQkmjF1HfTPzDjmBBQGgOs0jHW-rUR0mv8BkA'
  lat: 40.098789
  level: 8
  lon: -88.251685
  name:  'Curtis William McKinney Memorial'
- ap: 6098
  img:  'http://lh4.ggpht.com/4LxsGZZMk3DnpJXUvqzrL54CHSP5TDXjUnDJyHmCCTtCJIjGEI7kxT9g4uxfSPh0X6yGLgQo1jfqbu7B8VEr'
  lat: 40.099084
  level: 8
  lon: -88.251826
  name:  'Irina P. Stewart Memorial Plaque'
- ap: 6098
  img:  'http://lh5.ggpht.com/4DJAFPeZ_w65Km7VDnsbOqouQaeBuPuxA0KHPQToT_B6o1hBxzdu3kn89UhHgv22Ygj52Fx9QqcbzOytuw'
  lat: 40.100078
  level: 8
  lon: -88.250683
  name:  'Brian Clark Memorial Plaque'
- ap: 6098
  img:  'http://lh3.ggpht.com/VrbXGwlUosNLEkVdshWUFoVa3KtlJQoEU4yLYygvftYbPCmxo644Uvar_v8Kb9RS53hB0tXgvV44GotrxZyu'
  lat: 40.098592
  level: 8
  lon: -88.251676
  name:  'Ruth and Fred Steigmann Plaque'
- ap: 6098
  img:  'http://lh3.ggpht.com/G1CvGhpethi5UmprDWxZN9rTblHa3anSsQz1UPgJtkREkfN7lDFoxFObst0609Cg5mofuZxJKr0ddNKhY4VL'
  lat: 40.098464
  level: 8
  lon: -88.251426
  name:  'Ruth Haasis Memorial'
- ap: 6098
  img:  'http://lh6.ggpht.com/S7Utf4_59vQkAP5JhC3mdbzVLKBTt-0zoJ2UjfxUnN10VBbixO-_VwvssWd1LbFSx_yafaijd_U0wTGo870'
  lat: 40.100941
  level: 8
  lon: -88.251314
  name:  'Gabriel Patrick Maxeiner Memorial Plaque'
- ap: 6098
  img:  'http://lh5.ggpht.com/-UWK84I78Sftf7yg-E2pg6xEAWTvyiThgJBJlxbqOZPYKNmzQ8uGgEEMetzplrG1HpXG5kQqNItUeXKxOHDsGA'
  lat: 40.100286
  level: 8
  lon: -88.251747
  name:  'Tennis Anyone'
- ap: 6098
  img:  'http://lh3.ggpht.com/8FqlniFErK7cq59awiT84u8KyV4FIRd5krZzfYa58zJToFps7whdBnriPqvO_kFKeLUE3SWbJhCOPuvUQzaGFA'
  lat: 40.100691
  level: 8
  lon: -88.251337
  name:  'In Loving Memory of Zeus'
- ap: 5722
  img:  'http://lh4.ggpht.com/A15Qc2ImqJFORKlDItFStr3pkJ1pX5dRyG8VO6RoziKIqMOMMTQdJa-fUInsxL4o7Yxg1XNHfexBZuNAyLG0yw'
  lat: 40.132021
  level: 4
  lon: -88.31285
  name:  'Sunset Ridge Park Dedication'
- ap: 5535
  img:  'http://lh4.ggpht.com/vKgqIecJshMQxrhO-ZhMjcIyARuJdyU63wKfzAG0wouZex6LVzO46Qi5zM1N3Jx8xyantDFk9sQGsSEBhb-y'
  lat: 40.101327
  level: 8
  lon: -88.251412
  name:  'Zeus Memorial'
- ap: 5535
  img:  'http://lh5.ggpht.com/Lup2et0i5h8oHqtBffIdoyX5uclC2MBn9ZnnKnYPr4RIFSflf9bi78zBHK7QqycA0qgEev9qOk0zU-1o1hg'
  lat: 40.108451
  level: 5
  lon: -88.228733
  name:  'The Centennial Colophon'
- ap: 5535
  img:  'http://lh3.ggpht.com/HX3mWBGofQk08Qdp7A6KMK1AnSXlLEPJR-n6oeX69Efiiss29GHsLiDsHhRS5K8DrXh-QXP1T0AMaOsJmx_w'
  lat: 40.106921
  level: 5
  lon: -88.230145
  name:  'University Lutheran Church'
- ap: 5348
  img: http://i.imgur.com/5j1qaiT.png
  lat: 42.401374
  level: '?'
  lon: -86.288005
  name:  '9c168d55307d46deafd3684ceac79063.16'
- ap: 5161
  img:  'http://lh5.ggpht.com/C6wRSaEWO1NYGY5luyYZKHG3Z3aib4aflaPdV7B9G6N6adE890g3QuPRSvCUhsdFHqjoVUjo27mfz9WsjXyuhQ'
  lat: 40.100521
  level: 8
  lon: -88.250864
  name:  'Gabriel Patrick Maxeiner Memorial'
- ap: 5159
  img:  'http://lh3.ggpht.com/x5fBw8MRogV8dm3kPO5zKNkUrQxn0dM7d1PIoASdX1_Rc8H5Duex4iZdOoIlqazCGll25TmptsWIRq1JFmj6'
  lat: 40.112135
  level: 6
  lon: -88.225762
  name:  'Computer Based Education Plaque'
- ap: 4972
  img:  'http://lh4.ggpht.com/YMDDyyJpIhe7xeYVGH048CFQDr7lX1SIPXzk4kXWr6zVgpUv6D1YGTLKwyg3DrhDoCuv-knBgF2gKZTylVRQ'
  lat: 40.132912
  level: 3
  lon: -88.314568
  name:  'Sunset Ridge Park'
- ap: 4785
  img:  'http://lh3.ggpht.com/g1H1SJintXK5Zb7ng6DN7wix1q5otnzMK5JCJDnecwuIiohJmhXLJs1XzItxaTSYEuPPOqd4x-dGqd0WK5YU'
  lat: 40.13349
  level: 3
  lon: -88.313072
  name:  'Sunset Skate Park'
- ap: 4785
  img:  'http://lh3.googleusercontent.com/NRpdP-ebGuykq3sH1NZBQVjhmSdVJW3F4MTCRdXrWKQf3Z5dBgo0Phhyqnel5IrJmriQRmJNFR12lRDrjxJ9'
  lat: 40.114911
  level: 6
  lon: -88.227781
  name:  'Electrical & Computer Engineering Building'
- ap: 4598
  img:  'http://lh6.ggpht.com/ocpQF23CdY7CXPOYMbPL3wLLV7Rc0VayvSyooA07il2lG0oiiQDbDCnsKqO1ysXJAVlzGikCKS-kVOLb6rog'
  lat: 40.135079
  level: 3
  lon: -88.314559
  name:  'Sunset Ridge Decorative Gate'
- ap: 4598
  img:  'http://lh6.ggpht.com/duOeXcOSQLWosdD0JJXg3pWWQp4t5sL0x9qDHoTIBFNOzEW0t53Lt2cnwgV2E_Su0l1ajIQxPtVbbK_sDRaS'
  lat: 40.141775
  level: 5
  lon: -88.242671
  name:  'Marketplace Mall Fountain'
- ap: 4598
  img:  'http://lh4.ggpht.com/mlUN5QXAR7rKFvUg7yhxcae3udkR7zCJVaWt5sq_YA47piV6tRi42RNN9fEtT_FafT7lhqg26WM1VETbz5E'
  lat: 40.098239
  level: 7
  lon: -88.25376
  name:  'Hessel Park Christian Reformed Church'
- ap: 4411
  img: http://i.imgur.com/5j1qaiT.png
  lat: 42.396552
  level: '?'
  lon: -86.283274
  name:  'Kids Corner Park'
- ap: 4411
  img:  'http://lh5.ggpht.com/ek0AuIkZd5CWKmIdjFjq5gOvptOzC8VJUnyatNG8ZyUoT8-mvkd4seW8Gpbl4kkgiatIbr57h5kK_5z6NSGD'
  lat: 40.131581
  level: 3
  lon: -88.312816
  name:  'Sunset Ridge Park'
- ap: 4411
  img:  'http://lh5.ggpht.com/nWEtxuKQdy0teBBue1DYmG7P3SF5-3A6zlB7GwVHBWlolAZYGq6Br78lWcF9ltFy-KeSlozXie2RmU6JfCUX'
  lat: 40.142673
  level: 6
  lon: -88.244603
  name:  'Italian Statue'
- ap: 4411
  img:  'http://lh4.ggpht.com/ryDcZUJK2aQ_fI0-hY850_t4ZmG2hNmtCx7cxbX83w3cnUWdI-ywpTuQrUVQNxGl3_DcxxNr6bupfDTsagRa'
  lat: 40.117107
  level: 6
  lon: -88.242467
  name:  'Radio Maria'
- ap: 4411
  img:  'http://lh6.ggpht.com/SCYK-XeMmOyfRrTt1-aQNoDA-2Sib4m5Ch26mTwo6XNdVeVnfi7W74Ik6IRLAPSoKzSS97pgwt50Jl9oSgGfP029USxZzQWKNJo3rbs-6YHBPBif'
  lat: 40.116792
  level: 7
  lon: -88.241752
  name:  'WEFT 90.1 FM Community Radio'
- ap: 4411
  img:  'http://lh5.ggpht.com/ENeQgqydWbi9-Oyf7vizunoRqJdsZV4o0RA_956wjGI8hqpTCHBPyWMpbTrrkwYpj5tgzDRvevGmvH4eFRU'
  lat: 40.099593
  level: 8
  lon: -88.251724
  name:  'Blessings from Devon Elaine Cattell'
- ap: 3848
  img:  'http://lh4.ggpht.com/OFVPvdgB3GVpaQknHdnt2okgP3xcQksAH3wvOGYVuP85MMlxo3bQ2SRpBb0hzNfjQoC_5LlRqaE6jLB-h9Gr'
  lat: 40.108092
  level: 4
  lon: -88.234589
  name:  'Koinonia Plaque'
- ap: 3848
  img:  'http://lh4.ggpht.com/hJDi8J7CZU-933hT0Culp2nhslv6p8rDRPdTFz6FwNaAjB5CmfkaQzj9sM--E-QBvI8yvIJn1F2jxy7ZKWlh'
  lat: 40.10816
  level: 4
  lon: -88.234245
  name:  'Stratford House'
- ap: 3848
  img:  'http://lh3.ggpht.com/I8Cra-oBAq7td_84j0G8l8DIMXhxPP-O8A8xPb1WZb8O2s9DBapV_osKefRuzzDGDhcPRA9WT7yaPBvkGE4g'
  lat: 40.112836
  level: 5
  lon: -88.22802
  name:  '1909 Senior Memorial'
- ap: 3848
  img:  'http://lh5.ggpht.com/f710C9AvOEB7ieCI4f382wWUP4OgDxiqPzbxqxct6Ugf2PWBfyXyDpG_JcRQ6PaZ_jS0jpXXBhNSt_u9rFA'
  lat: 40.113864
  level: 7
  lon: -88.224839
  name:  'Plato: A Social Networking Revolution Begins'
- ap: 3661
  img: http://i.imgur.com/5j1qaiT.png
  lat: 40.360306
  level: '?'
  lon: -88.431268
  name:  '26ffbb1778974e99a93bb874fcb6c57c.12'
- ap: 3661
  img:  'http://lh3.googleusercontent.com/hJZWoErzM-MuXulq4FlhlZwMbJX1Isd81GBUBVKayd57jVIVxUle3itd-1DRKo2VaNXznWr1X639fa44Etk'
  lat: 40.141919
  level: 6
  lon: -88.244611
  name:  'Marketplace Mall Carousel'
- ap: 3661
  img:  'http://lh5.ggpht.com/eefWnoj-zmJ0-dmFtwO4--l3JpC-5UTlkz_yG4cVZcBjcgS48Bk82xPKzNAZ7G9J11AuSNUduWWN8MGCaZgA'
  lat: 40.125013
  level: 3
  lon: -88.231935
  name:  'Douglass Park'
- ap: 3661
  img:  'http://lh3.ggpht.com/B-DCwAuVrQ-sgdwJ4ijxC3x7udgmvCTNKoySnJfvuGCuS_k159pz1MpgSSPYltw-WgQXdvchHlAYX6rU8lY'
  lat: 40.12867
  level: 3
  lon: -88.242208
  name:  'Power House Church'
- ap: 3661
  img:  'http://lh4.ggpht.com/lQtf71rwzXt5zHafbKPm8Czz3n2KwBWlEaNUh3-2JKrXTDueZ_JerHOPeSecqLaxLBWC09dTlPizrDMTafpT'
  lat: 40.105618
  level: 5
  lon: -88.230986
  name:  'Alpha Phi Sorority'
- ap: 3661
  img: http://i.imgur.com/5j1qaiT.png
  lat: 40.195188
  level: '?'
  lon: -88.40358
  name:  '7cc24f4019674432a28f220ec66a8e73.16'
- ap: 3474
  img: http://i.imgur.com/5j1qaiT.png
  lat: 42.397541
  level: '?'
  lon: -86.277385
  name:  'ae938e982c3347e288dc706cad526066.16'
- ap: 3474
  img: http://i.imgur.com/5j1qaiT.png
  lat: 42.396753
  level: '?'
  lon: -86.281814
  name:  'd611583f95144b9894b10ab078e2c6a6.16'
- ap: 3474
  img: http://i.imgur.com/5j1qaiT.png
  lat: 42.585531
  level: '?'
  lon: -87.807675
  name:  '9ccc069dcb654a4286a8457b75e85a3a.16'
- ap: 3474
  img: http://i.imgur.com/5j1qaiT.png
  lat: 42.587568
  level: '?'
  lon: -87.809619
  name:  'a1c6cfc6d98a4a2cb0f6da4c028f908b.16'
- ap: 3474
  img: http://i.imgur.com/5j1qaiT.png
  lat: 41.796468
  level: '?'
  lon: -87.575566
  name:  '4955fb3ad66a4c3b9558ad4aae5e14b6.16'
- ap: 3474
  img: http://i.imgur.com/5j1qaiT.png
  lat: 42.588741
  level: '?'
  lon: -87.812867
  name:  '58cc2085b6bb44bfb3fa7aecc28b186f.11'
- ap: 3474
  img: http://i.imgur.com/5j1qaiT.png
  lat: 42.397459
  level: '?'
  lon: -86.275568
  name:  '205446d93590475ea7735a397a6a235f.16'
- ap: 3474
  img: http://i.imgur.com/5j1qaiT.png
  lat: 40.273821
  level: '?'
  lon: -88.676394
  name:  'Blue Star Highway Memorial'
- ap: 3474
  img: http://i.imgur.com/5j1qaiT.png
  lat: 40.272743
  level: '?'
  lon: -88.675349
  name:  'Adams Leaning Wheel Grader'
- ap: 3474
  img:  'http://lh3.ggpht.com/07XrBN-er6Ecleor0n9RJ4DfGO6B2yn-ZxjI-Uy8Ba46Jtb6cXNVmATPiPiGyk-1jZ4wxa7-EeIWbWUqArCG'
  lat: 40.142554
  level: 6
  lon: -88.243468
  name:  'Dog Heart'
- ap: 3474
  img:  'http://lh5.ggpht.com/AX1hc0zh7ZtN2MoSsNXTKwRtGJWb8EgeHffmjJfZvCLL7wvvjMZ8d0BwESKKrdNM--UUKA09PrLQ9qmTrMw'
  lat: 40.117186
  level: 7
  lon: -88.241556
  name:  'Champaign Limestone Sidewalk'
- ap: 3474
  img:  'http://lh5.ggpht.com/BUGNnLReyCBJJj9_zpqgwv5_CAyiW8fWBpyVs0ip1hT5NEE6YKCYzlc8ahldKzk_xv-4uckNJNb6NrJd6r33qg'
  lat: 40.116989
  level: 6
  lon: -88.242255
  name:  'Blind Pig'
- ap: 3474
  img: http://i.imgur.com/5j1qaiT.png
  lat: 40.195404
  level: '?'
  lon: -88.40408
  name:  '35d2540a6dab4d509460962b545bd2bf.16'
- ap: 3474
  img: http://i.imgur.com/5j1qaiT.png
  lat: 40.195251
  level: '?'
  lon: -88.403825
  name:  'be5ca27857734636a834fcaec3fb76db.16'
- ap: 2911
  img:  'http://lh4.ggpht.com/WFdg25t10cXowG73MPo4WTi8YOc3wTSJiEWKTssgs9mb0Aii3d7iKSHqsebFkdjHfZ8Ej40yDSC7PVdVytHL'
  lat: 40.109177
  level: 6
  lon: -88.285144
  name:  'Champaign Fire Department'
- ap: 2724
  img: http://i.imgur.com/5j1qaiT.png
  lat: 40.451766
  level: '?'
  lon: -88.117878
  name:  'd6cfe09ebcf44ee09b8cbc7b26c3a6c5.16'
- ap: 2724
  img: http://i.imgur.com/5j1qaiT.png
  lat: 40.33555
  level: '?'
  lon: -88.998923
  name:  '4c96398791b2462a8252b7bdba0ab9a2.16'
- ap: 2724
  img:  'http://lh3.ggpht.com/ehNwLdaa71H3Bylm063pawn4caIGz2rCdmmdBhAFWIuEt2kPjT8nWHDkSuoOidckWiM82FWpDSNGQqQMHiQ'
  lat: 40.098209
  level: 6
  lon: -88.28689
  name:  'First Church of the Nazarene'
- ap: 2349
  img:  'http://lh3.ggpht.com/N6TCmRtj8KYDIanTQ5jF-EJitPzPbtwBM9V5iPE6I5TfRZoAlGYKlD3Ido4Yl08dV_qvLEd2X93Pt7skoMJ3'
  lat: 40.120225
  level: 2
  lon: -88.233538
  name:  'Daisy Jackson Garden'
- ap: 2724
  img:  'http://lh5.ggpht.com/zUcdFy4LbfVjWynZZp4C5TfAppnK9Iiou6aV9idMEi-uHh7ZVcuIZxHz7Sqt4EqZY__obyqxWSrIBmWDtvwUpg'
  lat: 40.124036
  level: 5
  lon: -88.233662
  name:  'Macedonia Baptist Church'
- ap: 2724
  img:  'http://lh6.ggpht.com/eAkVY7nObat2j0fYj0bd8HEZQMvUrmB-_Qi9KABaDu_pHUpP1sEJ1Fw_PQ4GbKLqqOeQM2-ljV0wUXUwj6tmHw'
  lat: 40.124067
  level: 3
  lon: -88.232345
  name:  'St. Luke C.M.E. Church'
- ap: 2724
  img:  'http://lh4.ggpht.com/zZ2YpVpDiI1KdIQ9iI7mGJD_VtwFztJ4ZF1vRehD9OSnQ2K3433SIg22svwcqDJVfeO2fjE3fdT4eHAJWGpi'
  lat: 40.104339
  level: 5
  lon: -88.234788
  name:  'Pi Kappa Phi Fraternity'
- ap: 2537
  img:  'http://lh3.ggpht.com/4NvHbplhArQJrKIkJMw4Ia0q_OtktXP-jC6FtPlgn6V49hv8LJbu0RC2ff0eTy3bF3ihXL12v5CPGwvlRNBF'
  lat: 40.127538
  level: 5
  lon: -88.199119
  name:  'Perkins Historical Site'
- ap: 2537
  img:  'http://lh3.googleusercontent.com/GDPeCcTdJQAFt7LgbquPo-YOAp7bq5HCFbElMBeXztI4hraTGO-j1GcNOwKaaSRRLcEHG13Gu-VDboEG4a7-'
  lat: 40.149097
  level: 5
  lon: -88.276148
  name:  'Illinois Heartland Library System'
- ap: 2537
  img: http://i.imgur.com/5j1qaiT.png
  lat: 40.361766
  level: '?'
  lon: -88.429109
  name:  'Foosland Village Park'
- ap: 2537
  img:  'http://lh4.ggpht.com/BDVsIEWOaH0zZsTgU8IbvmVNJTrl3EljfhNXeVt4C2BILNtXm5hpAq_6mLrTl66aJcUyYv4hFJKhxedLkKo'
  lat: 40.11679
  level: 6
  lon: -88.281854
  name:  'International Society of Arboriculture'
- ap: 2537
  img:  'http://lh5.ggpht.com/e0BZy-ClP4miKQ9vYfkRIgxEUrpGMn9VCB-nRa_Kj579pT19ZzPuvvL1MRfd1Xu_pzF1eA-hvVhF6zLxaUTCsA'
  lat: 40.104118
  level: 7
  lon: -88.285677
  name:  'Mike Phillips Memorial Plaque'
- ap: 2537
  img:  'http://lh3.googleusercontent.com/zcTaX3OHcGZu7CzBV1HvsKtB5RiAW7oMwxS_7phps0tjr70eNr8xbxrJ_P6agi_uXJtMNdHPnks9rZcrR6mG'
  lat: 40.127267
  level: 3
  lon: -88.253451
  name:  'Champaign Fire Department'
- ap: 2537
  img:  'http://lh3.ggpht.com/NgusMNa_MQJauBXm1lCWXnmzNqo5-TB-ihUlPa_vaI83WESAp8ChhEVR7KuBr_Na2-hzlLU7AB_STTq1gu7cwQ'
  lat: 40.112585
  level: 5
  lon: -88.271575
  name:  'Bobo''s Barbecue'
- ap: 2537
  img:  'http://lh3.googleusercontent.com/ryRMzj5c3ls-s5Gocd2-IM_oonInNzjPIbCGJVps6JmZxYcG165NabHKNZW7wAepNc8rtLf3A3E0U1mbq-I'
  lat: 40.11251
  level: 5
  lon: -88.272358
  name:  'Circle K 1601 W. Springfield Ave.'
- ap: 2537
  img:  'http://lh5.ggpht.com/tuo_ByFTbwLitFP5cBseOibqRxENxbCwOJ30dCnja5ijBI_qBv5vqNP7ZuZXnxhYM6ms_GbExZEwwKVUtwV2'
  lat: 40.093712
  level: 6
  lon: -88.281583
  name:  'Brownfield Dedication'
- ap: 2537
  img:  'http://lh6.ggpht.com/p2F3xw4xL4UdiMM9aSy628ISSglrvjPexpF3j340tMAP9MX07yh_sJv7kHVkeud8lyFf2ZwDohw3zsRS2PSd'
  lat: 40.093914
  level: 6
  lon: -88.281531
  name:  'Terry M. Warmbier Memorial'
- ap: 2537
  img:  'http://lh5.ggpht.com/AmsS7GEfFX-_Icem2DP6mjQahV1jeut1CGdeqLqfpyzx0m5SqhVY4eoAohizF0xsevPQufmLRMoVj2rW7Fe8'
  lat: 40.111689
  level: 7
  lon: -88.231193
  name:  'Koi Building Art'
- ap: 2537
  img:  'http://lh3.ggpht.com/u-v3itkeM0VuM3kSQsa0wO5TAPiR3fou2d-_1ukh5ZZQlHVDJyJ6vyb3Q3ONlRDfvaHf2Nw-aWwerNtqz3rH'
  lat: 40.106197
  level: 5
  lon: -88.228614
  name:  '1913 Pillars'
- ap: 2537
  img:  'http://lh5.ggpht.com/k_9eqZVvGcr3ZNyeeSNDM1-Y7od35KmnQQptB9usrdpTdpGW2c_5-12rYy9hGazdx7qhlYrEXxaJ_ZIVFywlcA'
  lat: 40.106706
  level: 5
  lon: -88.232116
  name:  'Illini Tower'
- ap: 2162
  img:  'http://lh3.ggpht.com/LR76HrJqriPFUoc2XSs7jb2SotnStZv20kI7rgUx8B5HqhmetnTW4MA1tCp1ws4g5gw0sf9g7M3Lwq4VwfpD'
  lat: 40.111687
  level: 2
  lon: -88.225353
  name:  'Transportation Building - University Of Illinois'
- ap: 2537
  img:  'http://lh5.ggpht.com/dEeT4acpLu-WQFlZWd3psap5qAqqPTSVzm8Qt1QtpqtwZ0j1V9eKFcmpgN9K_x1PL4XVchuevw25rxHekz3tvQ'
  lat: 40.111968
  level: 5
  lon: -88.226793
  name:  'Bardeen Quad Structure'
- ap: 2537
  img: http://i.imgur.com/5j1qaiT.png
  lat: 40.194971
  level: '?'
  lon: -88.403465
  name:  '9ac55f1a3bf140e5abc27bbc95fb2036.16'
