- ap: 13033
  img:  'http://lh4.ggpht.com/vKgqIecJshMQxrhO-ZhMjcIyARuJdyU63wKfzAG0wouZex6LVzO46Qi5zM1N3Jx8xyantDFk9sQGsSEBhb-y'
  lat: 40.101327
  level: 8
  lon: -88.251412
  name:  'Zeus Memorial'
- ap: 11346
  img:  'http://lh6.ggpht.com/yjfa0jJLjsfLRf9Zn9iafMp3MuIhgCi0WiOCF8GqTGiGvzEnsPGrFa0H1n-uzWhVehLbt44ShthsA32VzHd5iQ'
  lat: 40.099737
  level: 8
  lon: -88.251157
  name:  'Tyler Van Atkins Memorial'
- ap: 10596
  img:  'http://lh6.ggpht.com/5CDidk0pqfUtSW_Yqouuf3diX8drdMu9DoT728QpSz8q6A-WxNhT0yLcgM_7gGpyIAeXrHiTkIzzaVJFgnN9WA'
  lat: 40.099852
  level: 8
  lon: -88.251947
  name:  'Our Friend Tim Palmer'
- ap: 9096
  img:  'http://lh5.ggpht.com/4DJAFPeZ_w65Km7VDnsbOqouQaeBuPuxA0KHPQToT_B6o1hBxzdu3kn89UhHgv22Ygj52Fx9QqcbzOytuw'
  lat: 40.100078
  level: 8
  lon: -88.250683
  name:  'Brian Clark Memorial Plaque'
- ap: 8722
  img:  'http://lh6.ggpht.com/qSCp5fQMlyCQ-GOAgiSFy5gaHJei705Pa3eOlJiYO5wGjZTYtjA8q7QWWfAWcLKjxZSaFiMfXOPR8SO7rWU'
  lat: 40.099353
  level: 8
  lon: -88.251876
  name:  'Raymond B. Cattell Memorial'
- ap: 7972
  img:  'http://lh4.ggpht.com/B_I1b0Jy3vW41RX8jjCNPP68AULplU0Pf8ddolyKmpEWCfBVShQkmjF1HfTPzDjmBBQGgOs0jHW-rUR0mv8BkA'
  lat: 40.098789
  level: 8
  lon: -88.251685
  name:  'Curtis William McKinney Memorial'
- ap: 7222
  img:  'http://lh3.ggpht.com/rUgM7jkTqL0VHxvsSW0yWuNJF5UrU62ITflghfn4PfKjn6L4WGz0ALkv98fc_q9dmK9SSpU1PXIawGvcRwE'
  lat: 40.098246
  level: 8
  lon: -88.251974
  name:  'Hessel Park'
- ap: 7035
  img:  'http://lh4.ggpht.com/4LxsGZZMk3DnpJXUvqzrL54CHSP5TDXjUnDJyHmCCTtCJIjGEI7kxT9g4uxfSPh0X6yGLgQo1jfqbu7B8VEr'
  lat: 40.099084
  level: 8
  lon: -88.251826
  name:  'Irina P. Stewart Memorial Plaque'
- ap: 7035
  img:  'http://lh3.ggpht.com/lzCSS0_tjwUV7JQ2fgLI0e05IrzPxlVUs-6aEPOwUv67IanQJSTi71gkw0SGm8asmoE_r3Xoh048Fd9xRpE'
  lat: 40.099169
  level: 8
  lon: -88.251419
  name:  'Lyman Larson Memorial'
- ap: 6098
  img:  'http://lh3.ggpht.com/VrbXGwlUosNLEkVdshWUFoVa3KtlJQoEU4yLYygvftYbPCmxo644Uvar_v8Kb9RS53hB0tXgvV44GotrxZyu'
  lat: 40.098592
  level: 8
  lon: -88.251676
  name:  'Ruth and Fred Steigmann Plaque'
- ap: 6098
  img:  'http://lh3.ggpht.com/G1CvGhpethi5UmprDWxZN9rTblHa3anSsQz1UPgJtkREkfN7lDFoxFObst0609Cg5mofuZxJKr0ddNKhY4VL'
  lat: 40.098464
  level: 8
  lon: -88.251426
  name:  'Ruth Haasis Memorial'
- ap: 6098
  img:  'http://lh3.ggpht.com/8FqlniFErK7cq59awiT84u8KyV4FIRd5krZzfYa58zJToFps7whdBnriPqvO_kFKeLUE3SWbJhCOPuvUQzaGFA'
  lat: 40.100691
  level: 8
  lon: -88.251337
  name:  'In Loving Memory of Zeus'
- ap: 5348
  img:  'http://lh4.ggpht.com/PHV-1ZpFzCAl_ViCKwBY_x2pIDbVyaT7wJH1sTvFJCxrSdRrO1x7NaXq9OdRGwz_Mls4iwk6wuGHMBArfV54'
  lat: 40.098688
  level: 8
  lon: -88.25063
  name:  '"New Holland Yellow Dinosaurs" at Hessel Park'
- ap: 5161
  img:  'http://lh5.ggpht.com/ENeQgqydWbi9-Oyf7vizunoRqJdsZV4o0RA_956wjGI8hqpTCHBPyWMpbTrrkwYpj5tgzDRvevGmvH4eFRU'
  lat: 40.099593
  level: 8
  lon: -88.251724
  name:  'Blessings from Devon Elaine Cattell'
- ap: 4598
  img:  'http://lh5.ggpht.com/kElaGOaV9aI8SrnM1D65gx9J0Ky1AKrN9Yo-pXVmDhELt2pee4MwVRiCqCmlqWzUWj5pS33GnEzAiXmiWKsw'
  lat: 40.108111
  level: 6
  lon: -88.229625
  name:  'Illini Sports Mural'
- ap: 4411
  img:  'http://lh5.ggpht.com/HhVreJipNvxPRVFpmsh2BPo9PcpPO2Q2l3jCpDjIKgfKGycoTNPXR4DKiYccBXW4X-4dJf_vV0ESsWAWHcChsg'
  lat: 40.100936
  level: 8
  lon: -88.250855
  name:  'Donald F. Bresnan Memorial'
- ap: 4411
  img:  'http://lh6.ggpht.com/S7Utf4_59vQkAP5JhC3mdbzVLKBTt-0zoJ2UjfxUnN10VBbixO-_VwvssWd1LbFSx_yafaijd_U0wTGo870'
  lat: 40.100941
  level: 8
  lon: -88.251314
  name:  'Gabriel Patrick Maxeiner Memorial Plaque'
- ap: 4411
  img:  'http://lh5.ggpht.com/C6wRSaEWO1NYGY5luyYZKHG3Z3aib4aflaPdV7B9G6N6adE890g3QuPRSvCUhsdFHqjoVUjo27mfz9WsjXyuhQ'
  lat: 40.100521
  level: 8
  lon: -88.250864
  name:  'Gabriel Patrick Maxeiner Memorial'
- ap: 4411
  img:  'http://lh5.ggpht.com/-UWK84I78Sftf7yg-E2pg6xEAWTvyiThgJBJlxbqOZPYKNmzQ8uGgEEMetzplrG1HpXG5kQqNItUeXKxOHDsGA'
  lat: 40.100286
  level: 8
  lon: -88.251747
  name:  'Tennis Anyone'
- ap: 3661
  img: http://i.imgur.com/5j1qaiT.png
  lat: 41.894687
  level: '?'
  lon: -87.609994
  name:  '71d41d0e027641a9a8ce927698097c51.12'
- ap: 3661
  img: http://i.imgur.com/5j1qaiT.png
  lat: 42.588123
  level: '?'
  lon: -87.807579
  name:  'c106cbaedc2348069ff32d60674e1d91.16'
- ap: 3661
  img:  'http://lh4.ggpht.com/vKkSwERLa3zQO2UUIiYl1AEruAx1QTPcP4jSmPt89PG4AviJ1WhlVVH8qmqJ0aY2gqJmHcqdZFcM2pQconc'
  lat: 40.139375
  level: 3
  lon: -88.272793
  name:  'Salt And Light Ministries'
- ap: 3661
  img:  'http://lh5.ggpht.com/QruW49d2dc1uhQlK1BaZIeo6ruDNkqQfmvZz83eQ-1aC9ytGUcpFaHnKRTnXRc70F2EZ0-pVKGr9Slo0_9RfxA'
  lat: 40.139749
  level: 3
  lon: -88.273955
  name:  'Northside Church of Christ'
- ap: 3436
  img:  'http://lh5.ggpht.com/X-Tq3QbQ3JvCApWIGFxRwDJId7aLa8hY_ka0eU3QySTcZBgXcbPC4UXEQ9VVMsA-dYRxGqAdCotw-q7dby8f'
  lat: 40.088412
  level: 3
  lon: -88.251667
  name:  'French L. Fraker Memorial'
- ap: 3661
  img:  'http://lh6.ggpht.com/PrKWQe_StHjP7QQeyxlKiMSxAelIQlmbHzFMejewhMdVT0J-uvMpZCUGvQy_dZfrqfDnkmrIZYWkZORSGrnp'
  lat: 40.088449
  level: 4
  lon: -88.251396
  name:  'Boots''s Garden'
- ap: 3661
  img:  'http://lh6.ggpht.com/BzDhCANV_iNTHhKFBGLuaUqOvChRZtPWnJ2Xk4h7NsKJHmTGgCWtFHWv2PpDA2fCsHHKSCRTrUNK8AKrLRnS'
  lat: 40.108066
  level: 5
  lon: -88.230687
  name:  'Community United Church of Christ'
- ap: 3661
  img:  'http://lh3.ggpht.com/HX3mWBGofQk08Qdp7A6KMK1AnSXlLEPJR-n6oeX69Efiiss29GHsLiDsHhRS5K8DrXh-QXP1T0AMaOsJmx_w'
  lat: 40.106921
  level: 6
  lon: -88.230145
  name:  'University Lutheran Church'
- ap: 3474
  img: http://i.imgur.com/5j1qaiT.png
  lat: 41.642323
  level: '?'
  lon: -90.018219
  name:  '0c399c802d97468ea7ae5978c7bff829.16'
- ap: 3474
  img: http://i.imgur.com/5j1qaiT.png
  lat: 41.900721
  level: '?'
  lon: -88.738761
  name:  '7a3888ad419a4f8c846e3dbc3ada97bf.16'
- ap: 3474
  img: http://i.imgur.com/5j1qaiT.png
  lat: 41.900788
  level: '?'
  lon: -88.739423
  name:  '67cfdf05d1fe40b597fb0386eb6fb382.16'
- ap: 3474
  img: http://i.imgur.com/5j1qaiT.png
  lat: 42.401374
  level: '?'
  lon: -86.288005
  name:  '9c168d55307d46deafd3684ceac79063.16'
- ap: 3474
  img:  'http://lh6.ggpht.com/y9bxecO9Wm4VrE6p2LRWA8XIIUlHlYWbTSZJ6GrJrTpeVtxB7wI7cWjdLkM6gjq_eOk7n-nJOlSJ9WzGjgfG'
  lat: 40.137123
  level: 5
  lon: -88.277784
  name:  'US Post Office'
- ap: 3474
  img:  'http://lh3.googleusercontent.com/vMuPZQrBjsuqibkb-FCbuVrZzyuUSOhjlXxxxRc9hq0Y7prkP-Fpk1Hh6o5Eq8BhT6s7GRP5S5z2KFUL7hJY'
  lat: 40.113606
  level: 6
  lon: -88.243766
  name:  'Mural on South Neil St.'
- ap: 3474
  img:  'http://lh6.ggpht.com/XsUl74M1oxj6ptAvGEBOMH2wivRhxBNns62UJSGcPiQkuJIgPrmUYxMpSZZUfXRMMjrwoxlFK_DbAM78UrOh'
  lat: 40.113499
  level: 5
  lon: -88.244374
  name:  'Shatterglass Studios Mural'
- ap: 3474
  img:  'http://lh3.googleusercontent.com/ZyXHLNlediISMVLqM9sUeZ0FEft3El4ni5P7GPOy5UF2YYBkTywnN5g1lkaer_lDNSvBUvg7bQ5yA_4Wd9qRWg'
  lat: 40.113521
  level: 5
  lon: -88.244122
  name:  'Artistic Graffiti at MCS'
- ap: 3474
  img:  'http://lh5.ggpht.com/tfAfnmo6mSMc6U0P533NMFJRGwn6lasmx-MLR2JJg1QOizMKkghFU8E7hb2zgYgdQEbgnCJUlvZIMdrrJe4'
  lat: 40.100822
  level: 8
  lon: -88.25193
  name:  'Seeds of Kindness Bench'
- ap: 3249
  img:  'http://lh5.ggpht.com/EaT0PxhOud4vjm0kHYMit1zq4b2aTjV4M2olWNI-rM0oUVFeEI4kgeWGcrbk_EvcGBz6hwrN_wYLDLK3CUBi'
  lat: 40.088861
  level: 3
  lon: -88.251811
  name:  'A Flagstone Garden in Mattis Park'
- ap: 3474
  img:  'http://lh6.ggpht.com/pxaCt7clhIXc1RVGMMJZsmnbEWNWjFYJiUrQMev_SeOmXBothvOzmfnirQ5_W8CMa7hpigqydQhKMa4XFCAi'
  lat: 40.108173
  level: 7
  lon: -88.230209
  name:  'Mural on South Sixth Street'
- ap: 3474
  img:  'http://lh6.ggpht.com/yE7aPklOUj6Y4vlNLUrqm7uJbj0TAVjhl_vSEgy7CHGlkTo5yyJGeTCUnRsHYe2UAZq2h_Y3AD_m3y3i2B8'
  lat: 40.106876
  level: 6
  lon: -88.228565
  name:  'Lincoln Hall Sigil'
- ap: 2911
  img:  'http://lh3.googleusercontent.com/gCJN301o7TKMPpTwXYpuWceaR0wtjm4S3By0SJ5ubrMNK0UEKo6bMcldlreNdLDqpnrYOFmjqByM6vCJDCT-'
  lat: 40.086378
  level: 4
  lon: -88.251308
  name:  'Life Lessons from Kimberly Kueffler'
- ap: 2724
  img: http://i.imgur.com/5j1qaiT.png
  lat: 41.892269
  level: '?'
  lon: -87.609873
  name:  '93a1b13c02d04db99ebaf46f118bef83.16'
- ap: 2724
  img: http://i.imgur.com/5j1qaiT.png
  lat: 42.40148
  level: '?'
  lon: -86.287044
  name:  'be78c15683554893a96f56b528eb8f83.16'
- ap: 2724
  img: http://i.imgur.com/5j1qaiT.png
  lat: 41.891065
  level: '?'
  lon: -87.61055
  name:  '5f5a1a66edbd45a5bcdb4032a5f5d782.12'
- ap: 2724
  img: http://i.imgur.com/5j1qaiT.png
  lat: 42.40188
  level: '?'
  lon: -86.282463
  name:  'b9d68e45473941df8150e2fe46e65617.16'
- ap: 2724
  img: http://i.imgur.com/5j1qaiT.png
  lat: 41.891383
  level: '?'
  lon: -87.610138
  name:  '8490a15bbc6d40e68d80c7d9626f193c.16'
- ap: 2724
  img:  'http://lh3.ggpht.com/M4bKZ-CKQxZ9kYbwoDe79j6v5hIrWVwAcRzAUm9hg6fREm0ubCBwul695BAa_BhnyxOXdXIub7UvBaqxHnk'
  lat: 40.098803
  level: 4
  lon: -88.283425
  name:  'Taylor Memorial'
- ap: 2724
  img:  'http://lh3.ggpht.com/6Fer3GtYrst46oErqZdyi-cArt8MkVMBnho4Lei9skNu9ne3ktFspBwKvXS0rum8O2K7Qpso6J6lO0sipio'
  lat: 40.110656
  level: 5
  lon: -88.240991
  name:  'Mural At Wild Side '
- ap: 2724
  img:  'http://lh5.ggpht.com/Tn5ARN-X6VTc2q6atZ2WYq3c2g3gbSGXu6_vXf1MDwHfLpdTtnQ-CilBAVGvL6R-SHhq3fJ4WZI-yiJKmIId'
  lat: 40.110398
  level: 5
  lon: -88.235143
  name:  'US Post Office, E Green St, Champaign'
- ap: 2724
  img:  'http://lh4.ggpht.com/vxjetUOC6_S8Ru3Q1ivzG4NE4bAAWg7_opiMwStExCoUHiRaIab8NyXLypEOAo7KBtsRQRzJX-TimhsOlBu3'
  lat: 40.087121
  level: 4
  lon: -88.251406
  name:  'Amdocs Shelter'
- ap: 2724
  img:  'http://lh5.ggpht.com/_gJqtOHLZ9UHsmd_iLjxMsPw5eF5YzqE63qEAzURvSp_3OL9ZrPjM-usiUeYx95b7zTdNodab42cQiyiRRja'
  lat: 40.087835
  level: 4
  lon: -88.251299
  name:  'Amdocs Shelter'
- ap: 2724
  img:  'http://lh3.ggpht.com/KxQsev6i7POmNh1IadCWwWQSMdCuLIYpPwIdenSlVtzum523D1R-1kfeTbuOGTkt_jDwn4jswCu1edkumm2-'
  lat: 40.110037
  level: 3
  lon: -88.23549
  name:  'Red Lion'
- ap: 2724
  img:  'http://lh4.ggpht.com/0j8eeTKJgjnYhHpf4qH_70CZHLbujC5v-XP_ndcqh1xIR-5V2K_CGdjIe1ZfMbwvSyISxxYKoZynw1DaQcj8'
  lat: 40.105874
  level: 5
  lon: -88.230562
  name:  'St. John''s Rectory'
- ap: 2537
  img: http://i.imgur.com/5j1qaiT.png
  lat: 40.312242
  level: '?'
  lon: -88.201368
  name:  '2012 Employee Dedication Bench'
- ap: 2537
  img: http://i.imgur.com/5j1qaiT.png
  lat: 40.753838
  level: '?'
  lon: -88.29154
  name:  'f87bcd5251964920aeee2b3093ac8a54.12'
- ap: 2537
  img: http://i.imgur.com/5j1qaiT.png
  lat: 42.40187
  level: '?'
  lon: -86.282885
  name:  '925374a07ea54991930c54b17438563f.16'
- ap: 2537
  img: http://i.imgur.com/5j1qaiT.png
  lat: 41.353743
  level: '?'
  lon: -90.371755
  name:  '5463a042828c412396e3c501b72f3a9b.16'
- ap: 2537
  img: http://i.imgur.com/5j1qaiT.png
  lat: 41.562534
  level: '?'
  lon: -89.650933
  name:  '3a45fd306eda4e65b42f9e07672cd0cf.12'
- ap: 2537
  img: http://i.imgur.com/5j1qaiT.png
  lat: 40.106513
  level: '?'
  lon: -88.5585
  name:  'Lodge Christian Church'
- ap: 2537
  img: http://i.imgur.com/5j1qaiT.png
  lat: 40.113259
  level: '?'
  lon: -88.369764
  name:  'Bondville United Methodist Church'
- ap: 2537
  img: http://i.imgur.com/5j1qaiT.png
  lat: 44.142266
  level: '?'
  lon: -87.569224
  name:  'd42134e4908e4894a099b7dddd44bf31.16'
- ap: 2537
  img: http://i.imgur.com/5j1qaiT.png
  lat: 42.401972
  level: '?'
  lon: -86.281143
  name:  'f8b2c5c42445442e982537e565c986af.16'
- ap: 2537
  img: http://i.imgur.com/5j1qaiT.png
  lat: 42.401928
  level: '?'
  lon: -86.282129
  name:  '85c85407c75c4644a1e41ffa5a211494.16'
- ap: 2537
  img: http://i.imgur.com/5j1qaiT.png
  lat: 40.04524
  level: '?'
  lon: -88.566794
  name:  '538a09295d354762bf16129fa1b7c7ed.16'
- ap: 2537
  img: http://i.imgur.com/5j1qaiT.png
  lat: 39.931405
  level: '?'
  lon: -88.304279
  name:  'Illini Prairie Historic Plaque'
- ap: 2537
  img:  'http://lh5.ggpht.com/DebAit5dt4fRUaqvm-qbtIu1w1qep15Lpzb1kkMbiUT3_qT31rdXxCeIVQ_szOWqP16Es-q5irPAf-80kc6IAA'
  lat: 40.0986
  level: 1
  lon: -88.283262
  name:  'Diaz Memorial'
- ap: 2537
  img:  'http://lh4.ggpht.com/GH0L77ajJqdeWLVc2Mn_FFhT4HGW8EMC3C1us7H_4f8LxWfQRnYQL6J8MDPNvomSwZP9gl8yMqo0qmwuOphB'
  lat: 40.098826
  level: 5
  lon: -88.284599
  name:  'Bocci Ball Court'
- ap: 2537
  img:  'http://lh3.ggpht.com/S2DoIWxkTKxG56hK4lv2QLq8peGyxtsYcpRM7vWxcHOxECyRXDdeMhD-3E7munflftWVVu_FusxLxzJKIOI'
  lat: 40.110892
  level: 5
  lon: -88.241745
  name:  'Twin City Bible Church Midtown'
- ap: 2537
  img:  'http://lh6.ggpht.com/9gMh8fB58u0oHc_J2mpLyKwtakXUwh9gBBf6Rgi2dc1Khes439IR93o3xpNaE45sGeCW56uW0NY7n_gLwvmP'
  lat: 40.086686
  level: 4
  lon: -88.252282
  name:  'Elsie Mattis Springer Memorial'
- ap: 2537
  img:  'http://lh4.ggpht.com/RF7EbCh1YRbFHfis_PEc88NF1v4Ndhj-Rm7rrlY7F8s-Mrv1EMEFnajFbYiNffZ_3kMNL80Zv-_jtaMYMtLA'
  lat: 40.110655
  level: 4
  lon: -88.22725
  name:  'Gothic Brass'
- ap: 2387
  img:  'http://lh6.ggpht.com/RW34ntixvJkg7fD71TPYo_4KIsBzA0-a-6yXO0jKPbpGxX5gIGC7kBI-pXEF9OHhuolcAGW2fxyK3Pt42Iev'
  lat: 40.110489
  level: 4
  lon: -88.227412
  name:  'Bus Stop - Illini Union, Westbound'
- ap: 2537
  img:  'http://lh3.ggpht.com/A87H2Ev-nSq_HCpnUCxDLdRG04MKhj9Uap_0Ii4kdUx_db5SwcKhAAOey5ls43XiDLYaw7uYymdNMcsAXfNo'
  lat: 40.106182
  level: 5
  lon: -88.235521
  name:  'Evans Scholars'
