- ap: 13033
  img:  'http://lh4.ggpht.com/vKgqIecJshMQxrhO-ZhMjcIyARuJdyU63wKfzAG0wouZex6LVzO46Qi5zM1N3Jx8xyantDFk9sQGsSEBhb-y'
  lat: 40.101327
  level: 8
  lon: -88.251412
  name:  'Zeus Memorial'
- ap: 11346
  img:  'http://lh6.ggpht.com/yjfa0jJLjsfLRf9Zn9iafMp3MuIhgCi0WiOCF8GqTGiGvzEnsPGrFa0H1n-uzWhVehLbt44ShthsA32VzHd5iQ'
  lat: 40.099737
  level: 7
  lon: -88.251157
  name:  'Tyler Van Atkins Memorial'
- ap: 10596
  img:  'http://lh6.ggpht.com/5CDidk0pqfUtSW_Yqouuf3diX8drdMu9DoT728QpSz8q6A-WxNhT0yLcgM_7gGpyIAeXrHiTkIzzaVJFgnN9WA'
  lat: 40.099852
  level: 8
  lon: -88.251947
  name:  'Our Friend Tim Palmer'
- ap: 9096
  img:  'http://lh5.ggpht.com/4DJAFPeZ_w65Km7VDnsbOqouQaeBuPuxA0KHPQToT_B6o1hBxzdu3kn89UhHgv22Ygj52Fx9QqcbzOytuw'
  lat: 40.100078
  level: 8
  lon: -88.250683
  name:  'Brian Clark Memorial Plaque'
- ap: 9094
  img:  'http://lh4.ggpht.com/2tHD_AHYQu0kWuwLX2HMYWBG4txVkuWsBEfzWLL39npWp8kMSHiUKxSJM1E7yhimuMVUJ-RIlSSKsgjETvtr'
  lat: 40.110524
  level: 4
  lon: -88.228706
  name:  'Leo Roy Tehon Memorial'
- ap: 8722
  img:  'http://lh6.ggpht.com/qSCp5fQMlyCQ-GOAgiSFy5gaHJei705Pa3eOlJiYO5wGjZTYtjA8q7QWWfAWcLKjxZSaFiMfXOPR8SO7rWU'
  lat: 40.099353
  level: 8
  lon: -88.251876
  name:  'Raymond B. Cattell Memorial'
- ap: 8720
  img:  'http://lh3.googleusercontent.com/NRpdP-ebGuykq3sH1NZBQVjhmSdVJW3F4MTCRdXrWKQf3Z5dBgo0Phhyqnel5IrJmriQRmJNFR12lRDrjxJ9'
  lat: 40.114911
  level: 5
  lon: -88.227781
  name:  'Electrical & Computer Engineering Building'
- ap: 7972
  img:  'http://lh4.ggpht.com/B_I1b0Jy3vW41RX8jjCNPP68AULplU0Pf8ddolyKmpEWCfBVShQkmjF1HfTPzDjmBBQGgOs0jHW-rUR0mv8BkA'
  lat: 40.098789
  level: 8
  lon: -88.251685
  name:  'Curtis William McKinney Memorial'
- ap: 7785
  img:  'http://lh4.ggpht.com/RF7EbCh1YRbFHfis_PEc88NF1v4Ndhj-Rm7rrlY7F8s-Mrv1EMEFnajFbYiNffZ_3kMNL80Zv-_jtaMYMtLA'
  lat: 40.110655
  level: 6
  lon: -88.22725
  name:  'Gothic Brass'
- ap: 7222
  img:  'http://lh3.ggpht.com/rUgM7jkTqL0VHxvsSW0yWuNJF5UrU62ITflghfn4PfKjn6L4WGz0ALkv98fc_q9dmK9SSpU1PXIawGvcRwE'
  lat: 40.098246
  level: 8
  lon: -88.251974
  name:  'Hessel Park'
- ap: 7035
  img:  'http://lh4.ggpht.com/4LxsGZZMk3DnpJXUvqzrL54CHSP5TDXjUnDJyHmCCTtCJIjGEI7kxT9g4uxfSPh0X6yGLgQo1jfqbu7B8VEr'
  lat: 40.099084
  level: 7
  lon: -88.251826
  name:  'Irina P. Stewart Memorial Plaque'
- ap: 7035
  img:  'http://lh3.ggpht.com/lzCSS0_tjwUV7JQ2fgLI0e05IrzPxlVUs-6aEPOwUv67IanQJSTi71gkw0SGm8asmoE_r3Xoh048Fd9xRpE'
  lat: 40.099169
  level: 8
  lon: -88.251419
  name:  'Lyman Larson Memorial'
- ap: 7033
  img:  'http://lh4.ggpht.com/cXzBVEYwsBuU4BX2Fkwi_8TwqSW6ExF6m7IyyHAOrdCMru_sr74MrtK8iGVa0zj3YFt--pdhmI5xwUIeJw'
  lat: 40.120191
  level: 2
  lon: -88.215485
  name:  'Champaign County Fairgrounds'
- ap: 6285
  img:  'http://lh5.ggpht.com/LPlCgoOAlClRaVCl_B1sHDkn38OgDbXat-l5Q1bDZLP7mOUMfU8pK-o3N8BEqh0vHJcZBHo3iz2AMQKAhot7Tw'
  lat: 40.110833
  level: 5
  lon: -88.227425
  name:  'Engineering Class of 1975 Monument'
- ap: 6283
  img:  'http://lh4.ggpht.com/ezHSw_hRdts3U3bzkEEn46LneS1miDpbSGoxg0v1TqG_W82bvfR2uSTZeDFfhG0kmPJAkOblWP_ZilA6TP8'
  lat: 40.112523
  level: 5
  lon: -88.227765
  name:  'Bardeen Quadrangle - North Side'
- ap: 6098
  img:  'http://lh3.ggpht.com/VrbXGwlUosNLEkVdshWUFoVa3KtlJQoEU4yLYygvftYbPCmxo644Uvar_v8Kb9RS53hB0tXgvV44GotrxZyu'
  lat: 40.098592
  level: 8
  lon: -88.251676
  name:  'Ruth and Fred Steigmann Plaque'
- ap: 6098
  img:  'http://lh3.ggpht.com/G1CvGhpethi5UmprDWxZN9rTblHa3anSsQz1UPgJtkREkfN7lDFoxFObst0609Cg5mofuZxJKr0ddNKhY4VL'
  lat: 40.098464
  level: 8
  lon: -88.251426
  name:  'Ruth Haasis Memorial'
- ap: 6098
  img:  'http://lh3.ggpht.com/8FqlniFErK7cq59awiT84u8KyV4FIRd5krZzfYa58zJToFps7whdBnriPqvO_kFKeLUE3SWbJhCOPuvUQzaGFA'
  lat: 40.100691
  level: 7
  lon: -88.251337
  name:  'In Loving Memory of Zeus'
- ap: 6098
  img:  'http://lh4.ggpht.com/6WTMH3liIIuH6pEvRGZOkUNNR84nR8frjFch6yn_4mbGIokY-MajBCG6jZHWU37a8TBI97rYTBlX-ks8m5XJTw'
  lat: 40.112843
  level: 5
  lon: -88.227657
  name:  'Class of 1904 Flagpole'
- ap: 6098
  img:  'http://lh3.ggpht.com/2WMtYMnBjTlw-gPK9quwjMde6Heie7SQHCZT41kPiIpOwxXEIQWbB_euK-R5rZhqUcmGuZJ0tIBh_801KGyVsw'
  lat: 40.11453
  level: 4
  lon: -88.227324
  name:  'Beckman Institute - Upwells Fountain'
- ap: 6096
  img:  'http://lh6.ggpht.com/RR0i4QdfoY8NkTQtssdOtDLhAEaCR7e-R4ipk5NzdKe9lTGDq2nyKI_7sF2BCXrgCZAZ2zEEtIzS7vg6Pu0hzA'
  lat: 40.126458
  level: 4
  lon: -88.218544
  name:  'The Vineyard Church'
- ap: 6096
  img:  'http://lh3.ggpht.com/fvQtXA7uQ_ump_R8JixzV9ndFr5gVzIttL7RP9cD1MYPv5sui8NvcUwgkO7V83M9DpRjiqE505roZ62DjPgHCQ'
  lat: 40.122254
  level: 3
  lon: -88.219635
  name:  'King Park 1967'
- ap: 6096
  img:  'http://lh3.ggpht.com/aHqOXq4BX_XXhSNRFJn0768z_1bjWEniMumNJ4FMy9Nv5j3AefPsZDiAGCehCguZ1HFOBMBXxRI4mOXd077e'
  lat: 40.112957
  level: 5
  lon: -88.227127
  name:  'Early Computers Plaque'
- ap: 5722
  img:  'http://lh3.googleusercontent.com/3Myf6CnmcDIYbRC1TWtiQ0Q34tm-r8kQZQ8GjoGZ4AI5ome7PHiB7E6Maihk_SvkVJF8LPW5RSjo36Bsa7VM'
  lat: 40.12807
  level: 5
  lon: -88.215897
  name:  'Busey Woods Trail Entrance'
- ap: 5722
  img:  'http://lh5.ggpht.com/39qvivJbsTr57F8HWz9_3WhqwtI6kCbL9qeIckApwB7s51qHqm4RS4qZLPkY2GUv6A2wi2wrlNxhnIN6xGKS'
  lat: 40.113427
  level: 4
  lon: -88.229089
  name:  'Lee Williamson Memorial'
- ap: 5348
  img:  'http://lh4.ggpht.com/PHV-1ZpFzCAl_ViCKwBY_x2pIDbVyaT7wJH1sTvFJCxrSdRrO1x7NaXq9OdRGwz_Mls4iwk6wuGHMBArfV54'
  lat: 40.098688
  level: 8
  lon: -88.25063
  name:  '"New Holland Yellow Dinosaurs" at Hessel Park'
- ap: 5348
  img:  'http://lh3.ggpht.com/3WnMbDq1Vm3HiqAM5qk1r9m3OqcO-YUN0nCOt2yRfUxVWLZ-8huxevlCI0JnIJgpSBZN4mtw0gxJnrGtuaS9iUf7k-JFfmRGRkBXQafWO9MIk_oJ'
  lat: 40.115491
  level: 5
  lon: -88.227358
  name:  'Arnold O. Beckman Statue'
- ap: 5161
  img:  'http://lh5.ggpht.com/ENeQgqydWbi9-Oyf7vizunoRqJdsZV4o0RA_956wjGI8hqpTCHBPyWMpbTrrkwYpj5tgzDRvevGmvH4eFRU'
  lat: 40.099593
  level: 8
  lon: -88.251724
  name:  'Blessings from Devon Elaine Cattell'
- ap: 5161
  img:  'http://lh6.ggpht.com/TXVMllOHjnPSJgg_7oE4ZuY82xJs56TE9AbaxAFxXWiD5yKwlOZUHfx74BaxCzczl9hTtaKqkaDsA4LeZ94'
  lat: 40.110617
  level: 4
  lon: -88.228248
  name:  'Everitt Lab'
- ap: 4972
  img:  'http://lh3.ggpht.com/OtT56RocwPxPgcve6b9P9h4GvUFT5XVlsBBqmCg-K8i6I1c-3RVRip5KtAoqlaUqE2BUkSwl8clISDit9EU'
  lat: 40.119453
  level: 4
  lon: -88.219746
  name:  'Family Video'
- ap: 4785
  img:  'http://lh3.ggpht.com/V-oTVbkji_q7V9k0WGhQyDum7PEtruXdbp6e-PzZq3sFNxGWdA79FLEv8uGaZrcSwWE15UhTtBB0ZMW0Ig3j'
  lat: 40.127466
  level: 7
  lon: -88.216274
  name:  'Lincoln Bindery'
- ap: 4785
  img:  'http://lh6.ggpht.com/RW34ntixvJkg7fD71TPYo_4KIsBzA0-a-6yXO0jKPbpGxX5gIGC7kBI-pXEF9OHhuolcAGW2fxyK3Pt42Iev'
  lat: 40.110489
  level: 5
  lon: -88.227412
  name:  'Bus Stop - Illini Union, Westbound'
- ap: 4598
  img:  'http://lh6.ggpht.com/duOeXcOSQLWosdD0JJXg3pWWQp4t5sL0x9qDHoTIBFNOzEW0t53Lt2cnwgV2E_Su0l1ajIQxPtVbbK_sDRaS'
  lat: 40.141775
  level: 5
  lon: -88.242671
  name:  'Marketplace Mall Fountain'
- ap: 4598
  img:  'http://lh6.ggpht.com/Nv0tMktEkkuoGtg1QEPS1N2nTcBPg8ipu31i72XPDTGQ4HQI5oL58Ig8kofXUH_aCC2aaJ-NylWKPkC3hIBS'
  lat: 40.116218
  level: 5
  lon: -88.228757
  name:  'The Presidents'' Walk'
- ap: 4598
  img:  'http://lh5.ggpht.com/LLVKvcsTaSPmGBzaGFrvYIV4RhGzb6LqC_npAarehd2aLZSaVhjGzQV6T63Ke07reCQzO-GoZXmEfwZMOcM'
  lat: 40.110569
  level: 5
  lon: -88.226784
  name:  'Cubist Art at MSEB'
- ap: 4411
  img:  'http://lh3.ggpht.com/g1H1SJintXK5Zb7ng6DN7wix1q5otnzMK5JCJDnecwuIiohJmhXLJs1XzItxaTSYEuPPOqd4x-dGqd0WK5YU'
  lat: 40.13349
  level: 6
  lon: -88.313072
  name:  'Sunset Skate Park'
- ap: 4411
  img:  'http://lh3.ggpht.com/xSCQSCRT6pHyQi9LDI3OamMdZnhLQ06OSlHRHnJC0FkDo93VgOcr3gyAV0aPAKagwq9V5iViSSCgIr6_fWCB'
  lat: 40.134441
  level: 6
  lon: -88.314067
  name:  'Seasons Within the Wetland Environmental Sign'
- ap: 4411
  img:  'http://lh5.ggpht.com/nWEtxuKQdy0teBBue1DYmG7P3SF5-3A6zlB7GwVHBWlolAZYGq6Br78lWcF9ltFy-KeSlozXie2RmU6JfCUX'
  lat: 40.142673
  level: 5
  lon: -88.244603
  name:  'Italian Statue'
- ap: 4411
  img:  'http://lh5.ggpht.com/HhVreJipNvxPRVFpmsh2BPo9PcpPO2Q2l3jCpDjIKgfKGycoTNPXR4DKiYccBXW4X-4dJf_vV0ESsWAWHcChsg'
  lat: 40.100936
  level: 8
  lon: -88.250855
  name:  'Donald F. Bresnan Memorial'
- ap: 4411
  img:  'http://lh6.ggpht.com/S7Utf4_59vQkAP5JhC3mdbzVLKBTt-0zoJ2UjfxUnN10VBbixO-_VwvssWd1LbFSx_yafaijd_U0wTGo870'
  lat: 40.100941
  level: 8
  lon: -88.251314
  name:  'Gabriel Patrick Maxeiner Memorial Plaque'
- ap: 4411
  img:  'http://lh5.ggpht.com/C6wRSaEWO1NYGY5luyYZKHG3Z3aib4aflaPdV7B9G6N6adE890g3QuPRSvCUhsdFHqjoVUjo27mfz9WsjXyuhQ'
  lat: 40.100521
  level: 8
  lon: -88.250864
  name:  'Gabriel Patrick Maxeiner Memorial'
- ap: 4411
  img:  'http://lh5.ggpht.com/-UWK84I78Sftf7yg-E2pg6xEAWTvyiThgJBJlxbqOZPYKNmzQ8uGgEEMetzplrG1HpXG5kQqNItUeXKxOHDsGA'
  lat: 40.100286
  level: 8
  lon: -88.251747
  name:  'Tennis Anyone'
- ap: 4411
  img:  'http://lh4.ggpht.com/nCIRPoMhADi7TL4q2u4MuBiXC1akVoL07As3dRfJNrhBjk7TMQ6R08CVcjyVIhHKHcOuAFQpwqld8JgdcgIB'
  lat: 40.113961
  level: 5
  lon: -88.22709
  name:  'Nathan M. Newmark Civil Engineering Laboratory'
- ap: 4411
  img:  'http://lh5.ggpht.com/ZDv0mHiZcEfLxGVibvfnMCu7reJceCVnxa4GeBjK2DO4Y4a0x-M7C2M0rEam-_bPlr2e2476RXe15pRY48s'
  lat: 40.114351
  level: 4
  lon: -88.227096
  name:  'Chi Epsilon Civil Engineering'
- ap: 4222
  img:  'http://lh3.ggpht.com/OwtLBhgC6DoVKIQig8B4LZitIgWrx8rj8ejtnl3FyU2bAwcsRbcardVZSCLCP7U9es_sHo_Ee-iwR_mxOt_V'
  lat: 40.121852
  level: 5
  lon: -88.219695
  name:  'Preston Jackson Byways to Equality'
- ap: 3661
  img: http://i.imgur.com/5j1qaiT.png
  lat: 40.873822
  level: '?'
  lon: -88.646106
  name:  '48c9d6133823423796c94e34eab373eb.16'
- ap: 3661
  img:  'http://lh4.ggpht.com/A15Qc2ImqJFORKlDItFStr3pkJ1pX5dRyG8VO6RoziKIqMOMMTQdJa-fUInsxL4o7Yxg1XNHfexBZuNAyLG0yw'
  lat: 40.132021
  level: 5
  lon: -88.31285
  name:  'Sunset Ridge Park Dedication'
- ap: 3661
  img:  'http://lh3.googleusercontent.com/hJZWoErzM-MuXulq4FlhlZwMbJX1Isd81GBUBVKayd57jVIVxUle3itd-1DRKo2VaNXznWr1X639fa44Etk'
  lat: 40.141919
  level: 5
  lon: -88.244611
  name:  'Marketplace Mall Carousel'
- ap: 3474
  img: http://i.imgur.com/5j1qaiT.png
  lat: 40.746617
  level: '?'
  lon: -89.574194
  name:  '849485c8e954452db6f8033e05e30201.16'
- ap: 3474
  img: http://i.imgur.com/5j1qaiT.png
  lat: 40.746528
  level: '?'
  lon: -89.574514
  name:  '87d958fec77a481f83a66f9c9238be2a.16'
- ap: 3474
  img:  'http://lh5.ggpht.com/6W_b3aoHNnxViA4TkycmE5hhV5q_VHfypLNlgG4sAyw2eJ5Meyzi2-vwTA8miyKA5pZApxbfpAa7uc0zlCM'
  lat: 40.134758
  level: 6
  lon: -88.313172
  name:  'Sunset Ridge Prairie '
- ap: 3474
  img:  'http://lh3.ggpht.com/07XrBN-er6Ecleor0n9RJ4DfGO6B2yn-ZxjI-Uy8Ba46Jtb6cXNVmATPiPiGyk-1jZ4wxa7-EeIWbWUqArCG'
  lat: 40.142554
  level: 5
  lon: -88.243468
  name:  'Dog Heart'
- ap: 3474
  img:  'http://lh5.ggpht.com/tfAfnmo6mSMc6U0P533NMFJRGwn6lasmx-MLR2JJg1QOizMKkghFU8E7hb2zgYgdQEbgnCJUlvZIMdrrJe4'
  lat: 40.100822
  level: 8
  lon: -88.25193
  name:  'Seeds of Kindness Bench'
- ap: 3474
  img:  'http://lh5.ggpht.com/1yq3oFq9p_Yl5cUf5h7IEfZPAbae2MT7lA0DFo1DHwPWPZJJ-Ez-2AE2oTzHEHWsEJQVUcUwh3j_d3kOYgDS'
  lat: 40.110095
  level: 5
  lon: -88.22862
  name:  'Alma Mater Plaza'
- ap: 3474
  img:  'http://lh5.ggpht.com/VYMooLhz51W3fCgti3L9LEQNMJjmFeW30saxIYK34yGEReG1naEKEd3eW1uyFgSlzpu-P5KertNDe4Z6qu8'
  lat: 40.109913
  level: 6
  lon: -88.228393
  name:  'Alma Mater Statue'
- ap: 3472
  img:  'http://lh5.ggpht.com/f1O8bFXHTg2PTOAUVLvrqk5xx5ps9SeqhpJ1RIPtSxm0I-e7J275e2ujJp3lFQGHUBW_vS90KOsrcdLDJ84l4g'
  lat: 40.110797
  level: 5
  lon: -88.225321
  name:  'Multiphase Fluid Dynamics Plaque'
- ap: 2911
  img:  'http://lh5.ggpht.com/NocB62Pnsk9rCOS8TWT0vfucrEDjwhiqaxl6SHRJjjHpHjSlG4IuSzbQb1B-SqYZVjQXekDUD0IZwmpMDycw'
  lat: 40.11108
  level: 5
  lon: -88.227392
  name:  'Stanley H. Pierce Memorial'
- ap: 2724
  img: http://i.imgur.com/5j1qaiT.png
  lat: 41.9686
  level: '?'
  lon: -87.630978
  name:  '47ea0a512aca4efc981ddb89e220e8b4.16'
- ap: 2724
  img: http://i.imgur.com/5j1qaiT.png
  lat: 40.753838
  level: '?'
  lon: -88.29154
  name:  'f87bcd5251964920aeee2b3093ac8a54.12'
- ap: 2724
  img:  'http://lh6.ggpht.com/j712bbvDknzGlAU87nZA1Bx45Ng-0MGA9Uvuv-3WzIKA3W51mXOZpJ-TzVSbuU3uE2AsJ5wcO7_B6WDpdRr0'
  lat: 40.110684
  level: 5
  lon: -88.226053
  name:  'BCS Superconductivity Theory Plaque'
- ap: 2724
  img:  'http://lh6.ggpht.com/BsXdEO7HLxNLSdztPo_4GNNcbxZCxswiDT4pmmcfDQ8YO2SFVW-VnwyEZBvkuhf1rxKAtoKNLvV4rDJ-YVCYUK1qiX-dId_R8P-JskyFYAK9ruM-'
  lat: 40.110234
  level: 5
  lon: -88.224055
  name:  'The Etc'
- ap: 2724
  img:  'http://lh6.ggpht.com/POBAhJlStu1uLv82RPSkd8lKQyojPByrKqAwgiZPyXTHQcNTCN7rkJM376YcVpMmZZVMgiXz9J1BXanexyA643e-FR9M70tksLdb1akPUe2Ra_xCyw'
  lat: 40.112411
  level: 5
  lon: -88.226875
  name:  'Grainger Engineering Library - William W. Grainger Medallion'
- ap: 2724
  img:  'http://lh6.ggpht.com/pYay9oPZwUNKfLdWJ1JMI5tA9-Gd0vsBddLTz7fXN6wUW7F23hLMWRwFZNnXyomRkc2f9sqCGMxNWuYHPFZx'
  lat: 40.109142
  level: 5
  lon: -88.228748
  name:  'Kappa Alpha Psi Plaque'
- ap: 2537
  img: http://i.imgur.com/5j1qaiT.png
  lat: 41.37168
  level: '?'
  lon: -90.165095
  name:  'c95c110111b44cd08149a1712123ed13.16'
- ap: 2537
  img: http://i.imgur.com/5j1qaiT.png
  lat: 41.556343
  level: '?'
  lon: -89.461309
  name:  'fd2af0e93c084aa19be07f93e4a11add.16'
- ap: 2537
  img: http://i.imgur.com/5j1qaiT.png
  lat: 42.401628
  level: '?'
  lon: -86.283511
  name:  '5bd71ee1c5c64041a82c5975bdc768c7.16'
- ap: 2537
  img: http://i.imgur.com/5j1qaiT.png
  lat: 44.607633
  level: '?'
  lon: -87.43205
  name:  '8e6a8255e7c342e8806313a728bf9918.12'
- ap: 2537
  img: http://i.imgur.com/5j1qaiT.png
  lat: 42.397065
  level: '?'
  lon: -86.282643
  name:  'e96ba4de86854ee0b4ec9febca67e4d6.16'
- ap: 2537
  img: http://i.imgur.com/5j1qaiT.png
  lat: 40.312242
  level: '?'
  lon: -88.201368
  name:  '2012 Employee Dedication Bench'
- ap: 2537
  img: http://i.imgur.com/5j1qaiT.png
  lat: 40.784611
  level: '?'
  lon: -89.966766
  name:  '6130387fc09b422d828ad41e2d54add8.11'
- ap: 2537
  img: http://i.imgur.com/5j1qaiT.png
  lat: 40.809756
  level: '?'
  lon: -91.099301
  name:  '96e6aca35b894d7b9c51daf1942e5d82.16'
- ap: 2537
  img: http://i.imgur.com/5j1qaiT.png
  lat: 40.746846
  level: '?'
  lon: -89.593662
  name:  '1357952ee6f54ed0b51ecc76a2c22289.16'
- ap: 2537
  img: http://i.imgur.com/5j1qaiT.png
  lat: 42.399097
  level: '?'
  lon: -86.283183
  name:  'fb9db88b25f5421889ce2d688f2c82d1.16'
- ap: 2537
  img: http://i.imgur.com/5j1qaiT.png
  lat: 40.466664
  level: '?'
  lon: -88.375445
  name:  '8027cdd796814d63b3d817cdead1e269.16'
- ap: 2537
  img:  'http://lh5.ggpht.com/ek0AuIkZd5CWKmIdjFjq5gOvptOzC8VJUnyatNG8ZyUoT8-mvkd4seW8Gpbl4kkgiatIbr57h5kK_5z6NSGD'
  lat: 40.131581
  level: 5
  lon: -88.312816
  name:  'Sunset Ridge Park'
- ap: 2537
  img:  'http://lh4.ggpht.com/FOqmWFqpxmpdNn358B7Xko5DVp_H3_qI49Lw-6NI8lusw3iqZM-wuMsxRn82L8WFxV7TKpxjxwwzvqLHR0QF'
  lat: 40.087474
  level: 5
  lon: -88.329182
  name:  'Environmental Plaque - Woodland'
- ap: 2537
  img:  'http://lh6.ggpht.com/prg5Oedqi1_YJMN9GAesf7bmbUwbMGc9v7E3SYkm-TYdudfpX9SwuC1J4D4zkb1K4yrvF2ZPNWDoUniixORu'
  lat: 40.086493
  level: 5
  lon: -88.330828
  name:  'Environmental Plaque - Prairie '
- ap: 2537
  img:  'http://lh4.ggpht.com/vKkSwERLa3zQO2UUIiYl1AEruAx1QTPcP4jSmPt89PG4AviJ1WhlVVH8qmqJ0aY2gqJmHcqdZFcM2pQconc'
  lat: 40.139375
  level: 5
  lon: -88.272793
  name:  'Salt And Light Ministries'
- ap: 2237
  img:  'http://lh5.ggpht.com/QruW49d2dc1uhQlK1BaZIeo6ruDNkqQfmvZz83eQ-1aC9ytGUcpFaHnKRTnXRc70F2EZ0-pVKGr9Slo0_9RfxA'
  lat: 40.139749
  level: 3
  lon: -88.273955
  name:  'Northside Church of Christ'
- ap: 2537
  img:  'http://lh4.ggpht.com/vbIH-PkUCBuwDTIRXA4p5jtGQ86SqYlc1e-g3Y9Ef2zaSb0ozkDD41Iq51orLhtPyShj4UzC6CPn0Unt8SY'
  lat: 40.145108
  level: 5
  lon: -88.260083
  name:  'Historic Interpretive Map of Champaign'
- ap: 2537
  img:  'http://lh6.ggpht.com/WA_L9RXB_ZwCyxpgQ7Lyjp1-4xTl5O-BQohOBQcoEMnP7-wKp--MGUdnY_DPuCGZ78-x0LtEWc8FT2n9QMPS'
  lat: 40.148879
  level: 3
  lon: -88.258423
  name:  'War Veteran Memorial'
- ap: 2537
  img:  'http://lh4.ggpht.com/Mr8XeGiDafWk47NSkxDW3WManlpDnqzQWOT1VE2j0f0jFdh3tCvvntj45n1BJEnHylldZRnpPEOJ8OLeFZI'
  lat: 40.114405
  level: 2
  lon: -88.224198
  name:  'Siebel Center for Computer Science'
- ap: 2537
  img:  'http://lh5.ggpht.com/sIbYMQQ_Zap8IM-0OSNfDcmhqlGrLw12pnC_OdD-CIksN6uBVuBi0m-ZNPiXF3Eijc8dtCbZLYdv_yX_qGKR'
  lat: 40.114982
  level: 1
  lon: -88.223894
  name:  'Campbell Hall'
- ap: 2537
  img:  'http://lh6.ggpht.com/YVbqGVTjJuDMDdj71CP2mWvnUIdgO25PgoDdJwEGnEE_M9I1aDgKyjSr9JOZVU6UQTZQtfUo9RAWyz92n3jtCQ'
  lat: 40.098475
  level: 8
  lon: -88.249208
  name:  'In Fond Memory of William Moore Jr'
- ap: 2537
  img:  'http://lh5.ggpht.com/aeGh3iXJqJ7skg-2JHEpngMSfcp1qDIEPoLMxzQNqbS5Y7HcxN7oE789bXiVFoFIcdCn7-3AhLPtxT_WE2E'
  lat: 40.0985
  level: 8
  lon: -88.248681
  name:  'Siti Sculpture'
- ap: 2537
  img:  'http://lh5.ggpht.com/tGPCRHNr4nuHRON7RaLcO3CcrRygkmN1XBdp0HsdTAkUF_IrbfmlyzJuqHTZzJonP7RBwdy8c6q5llROUur7YA'
  lat: 40.10975
  level: 5
  lon: -88.225299
  name:  'Methodist Scriptures'
- ap: 2537
  img:  'http://lh3.ggpht.com/mtgiI5TKcuExETpmdSqIFabkYgVZTaXXLJnaIyzxeHPIunWoj_Fj8BqqwZG4nVQwSnngv15YxD-c_m9CHkr3'
  lat: 40.111202
  level: 5
  lon: -88.226447
  name:  'Boneyard Creek Memorial Streamflow Gaging Station'
- ap: 2537
  img:  'http://lh6.ggpht.com/ccBTHN5qNJjNkD0fG_ipEQKtSNVqZu8Rrp_xkW2wZqmKB-oUGkM97IzwRiThXQIQFp4KEsLk8bL06Bx6Z4s'
  lat: 40.109592
  level: 5
  lon: -88.22514
  name:  'Ecclesia Noctus'
- ap: 2537
  img:  'http://lh4.ggpht.com/CuRKYla63wCvLaTdKqGMMAd1Mr0_HK3v2iQjltrJwmsOownFtry6TsHMkAeHmOP6ULUYA53u4MUP61rgLzs6'
  lat: 40.1097
  level: 6
  lon: -88.228059
  name:  'Liza Kotz Memorial Plaque'
- ap: 2537
  img:  'http://lh5.ggpht.com/Z2EWM4D6YQHuqnLwtuPBawyQBZxTzVe9E17MKc8jOZkO0ZzkuD5zSQslY2iuXkkUnztPteUeOSHrSTz3voHC'
  lat: 40.111166
  level: 5
  lon: -88.228747
  name:  'Boneyard Creek Mural'
- ap: 2537
  img:  'http://lh3.googleusercontent.com/OJqY1AUoZ28MDbchhtJ4BXjAeEUJsIUW9en5XctYJukeTYOV_zmwBnngt6wmdVqSjj0G4qwF-Mr7Hsqx8LKl'
  lat: 40.109736
  level: 5
  lon: -88.224983
  name:  'Methodist Symbolism'
- ap: 2537
  img:  'http://lh3.googleusercontent.com/JtDKcaLvXa-az4aUAoga4ikpwAKEsCsSIgnN9eVPp7q2Tiynz0iyg5e2mk0InXRsJclU6axBXOMi3NcfABUd'
  lat: 40.110065
  level: 5
  lon: -88.225155
  name:  'Wesley United Methodist Church'
- ap: 2537
  img:  'http://lh5.ggpht.com/28al1CSkHNCrM9Sb57TYmawr1uFh6r5raWMJKD4QjLCj6N5YHEYIIizONs_hHF3pHuIppLjqxbTFcvrI9Dq9'
  lat: 40.111205
  level: 3
  lon: -88.227583
  name:  'Theory of Superconductivity Plaque'
- ap: 2537
  img:  'http://lh6.ggpht.com/fBCIw-ohQqPYmU_DWfwbcZnXqbmVh6zOWlUta8mx1F53zxG1Wxr08J9-fOCaz1B9i_8Nb3Il_kqdxzdyRyc'
  lat: 40.109043
  level: 5
  lon: -88.224397
  name:  'Archaea Plaque'
- ap: 2537
  img:  'http://lh5.ggpht.com/Zoidr1eUAO2UEM6SyifBpkC3K42Ctl355Krd3S2ZU3BbbIMt1XFKF4C35huJT7a-K1PMF6JCK3ztTnr2Wbc9zw'
  lat: 40.109178
  level: 5
  lon: -88.22945
  name:  'Pineapple Pillar'
- ap: 2537
  img:  'http://lh6.ggpht.com/vlKOFCgVZb_8XoZHDdzD2X9Xsejb8QVVqEM5U4YfgnKJbQIIHHSK2hSpgycF7vqRkGKRYYnbjVTyKS8dsHF3ChRyF01faLh907jhNd__xiEkGTWx'
  lat: 40.111225
  level: 5
  lon: -88.226537
  name:  'Fire College Plaque'
- ap: 2537
  img:  'http://lh5.ggpht.com/3RfiPeOzF67ubNX-vkwUJ6-EYld6BKuoBernq0_9kOjlIsSPr3saR9FIQzN7uiw7ouF0CpNflOnL0mUj9zbqdQ'
  lat: 40.109452
  level: 5
  lon: -88.229031
  name:  'Illini Hall'
- ap: 2537
  img:  'http://lh3.ggpht.com/fxsMa6MK6sWcY8fyTRPmRixomHagKag2YrMZjovxjujmavVawLdmU0Mi0HpNq5kH7UUoXfELEoBOFTkzeRwV2hp9PknjajWlvhX6jYIyUSrrH76k'
  lat: 40.10952
  level: 6
  lon: -88.228288
  name:  'Altgeld Hall'
- ap: 2537
  img:  'http://lh6.ggpht.com/wt3gCGeGlsRNnOiaTX96Vh-viR16DO-cpnFyVgwzneUPTS5f0WHyCYLTRqDCgS7PRzg5IAEgkbnTLuc5782N'
  lat: 40.111681
  level: 4
  lon: -88.229683
  name:  'Shelford Vivarium'
- ap: 2537
  img:  'http://lh6.ggpht.com/C7ThuP5fwrDTu5cMDpoeGmRjotNh6eUnPf3ksvSsUj5NkHZ0yKbIUnF8cSikhX-I_7O42CTwqjhLq9z3jkIL'
  lat: 40.111844
  level: 5
  lon: -88.228609
  name:  'Talbot Labs '
- ap: 2537
  img:  'http://lh5.ggpht.com/WZc539Zuz4CnOeahoDxnw7bXfoXbAW8PlbPdBvZNK5s1q7hQoFcVebhZRoTQV6uPovHywWaXUsleNvoQP2wE'
  lat: 40.113647
  level: 5
  lon: -88.227628
  name:  'Micro and Nanotechnology Laboratory'
- ap: 2537
  img:  'http://lh4.ggpht.com/ZwDzLvPP0KTL_mUj9ta-0DRkbA4q3X7b-r02bm3rTibFkPbu00GKehClddYfSkXbwVuJ4pjt4T7yo7ou54ov'
  lat: 40.111869
  level: 5
  lon: -88.227932
  name:  'Talbot Lab Mural'
- ap: 2537
  img:  'http://lh3.ggpht.com/kAxEWb1VdMZ1-OTPwyl-CGWs0lF3FNth0gbxr6aqk6BaG_tfbCZM31s6UWKUY8aFtUA3j2GFL2z6yvu95yz3'
  lat: 40.115068
  level: 4
  lon: -88.228451
  name:  'Electrical and Computer Engineering Building'
- ap: 2537
  img: http://i.imgur.com/5j1qaiT.png
  lat: 40.199138
  level: '?'
  lon: -88.385786
  name:  'dbf3b4e9041a4a01af2e803c4a7296c6.16'
- ap: 2537
  img: http://i.imgur.com/5j1qaiT.png
  lat: 40.202366
  level: '?'
  lon: -88.384745
  name:  '7bdfd863c7424e10807428d4beeefb98.16'
