- ap: 14344
  img:  'http://lh6.ggpht.com/BKeORacgeVrG8XzxTuXmpq5UxomWpK-I2n7Xy0PVbdSciNx9MJl869TcibnFIiV5PJHGv5R3QOpX6ZgLUwU'
  lat: 40.099706
  level: 8
  lon: -88.250065
  name:  'Lois Barham Memorial Tree'
- ap: 11533
  img:  'http://lh3.ggpht.com/lzCSS0_tjwUV7JQ2fgLI0e05IrzPxlVUs-6aEPOwUv67IanQJSTi71gkw0SGm8asmoE_r3Xoh048Fd9xRpE'
  lat: 40.099169
  level: 8
  lon: -88.251419
  name:  'Lyman Larson Memorial'
- ap: 11155
  img:  'http://lh5.ggpht.com/GN_FYcjKjamCNlfD8yA995MpcEHa9gIZVV6FBYtdeiNr_XgtCIN6gnN6_dSKwt-DenNMN_ZiJaG12iLuY6wt'
  lat: 40.103588
  level: 6
  lon: -88.233095
  name:  'Huff Hall'
- ap: 10783
  img:  'http://lh6.ggpht.com/YdeB0EKlsopL39a9YXWj4JBZgXNNLWHgfe4PQzdpWCNWc0fR1YTj8WjARDHnmrusvKWTqKLcGg8U9frhtsw'
  lat: 40.09821
  level: 8
  lon: -88.249879
  name:  'Hessel Park'
- ap: 10596
  img:  'http://lh3.ggpht.com/-MRGQEVV5mNMzB4sb8JAsgVC56kTzYaFEf3mpRsfXAiO4KIrLw3LGFkt7Au97yDwY-AUSfghHcri53Zpmn-Z4Q'
  lat: 40.11621
  level: 6
  lon: -88.242535
  name:  'Inman Building Historic Plaque'
- ap: 10407
  img:  'http://lh5.ggpht.com/Q32BPmFRIQYqXI5gLOV9ifHvFlGdyD_yws2172-sHnSZ-StunhCM0Abqd9rBWSaKBWN7RPpa1h-nok4Mc23i'
  lat: 40.101062
  level: 8
  lon: -88.249275
  name:  'Narayan & Shanti Achanta Memorial Plaque'
- ap: 10220
  img:  'http://lh6.ggpht.com/WVVbmiu2GGTnPTszcnYYILHKlkZDoxB-QY6Yv7YPoUfdVn92jYnKjpVKNkfWdFrPjq-BaFeKGJWLZlE-bbA'
  lat: 40.120467
  level: 7
  lon: -88.2577
  name:  'Salvation Army Church'
- ap: 10220
  img:  'http://lh4.ggpht.com/W2chhQwPqSJEkl57NVoIL-OE4KFvJfp7Bsrrxza1apCYltcT3npz95LJxqHxvT9ZZu7wxF2gQy-5bpKal2p2'
  lat: 40.115838
  level: 6
  lon: -88.241338
  name:  'Illinois Terminal'
- ap: 9846
  img:  'http://lh3.ggpht.com/rUgM7jkTqL0VHxvsSW0yWuNJF5UrU62ITflghfn4PfKjn6L4WGz0ALkv98fc_q9dmK9SSpU1PXIawGvcRwE'
  lat: 40.098246
  level: 8
  lon: -88.251974
  name:  'Hessel Park'
- ap: 9846
  img:  'http://lh5.ggpht.com/aeGh3iXJqJ7skg-2JHEpngMSfcp1qDIEPoLMxzQNqbS5Y7HcxN7oE789bXiVFoFIcdCn7-3AhLPtxT_WE2E'
  lat: 40.0985
  level: 8
  lon: -88.248681
  name:  'Siti Sculpture'
- ap: 9846
  img:  'http://lh4.ggpht.com/aQomBYYXuWBUbnpgDH92zk4VBmLMOuf5n6WXkMHGTzf1DUlyXL-u4a9ulFUrqE5AO82s_LFM126E-B0HqONp'
  lat: 40.088127
  level: 5
  lon: -88.253036
  name:  'Peggy and Robert White Garden'
- ap: 9659
  img:  'http://lh3.ggpht.com/GXyi2ghi2DR3h7uIHNYiEZPYixRhDo7LO0WHQ0PyEzb-150r7ar7JGeVjUoPuObC-GFWf22UWqnYCMtED0M-'
  lat: 40.100341
  level: 8
  lon: -88.249937
  name:  'Alice Marie Weber Plaque'
- ap: 9657
  img:  'http://lh6.ggpht.com/eeOtj4-6PU8Dt6QXk_TJjgkoEGRW9L8YzUqZE8QV5ZMCHnqA5CzoQoxKpnjCvXwaIflUUvPJmO_S7BdvMhcuzw'
  lat: 40.117588
  level: 6
  lon: -88.241787
  name:  'Adam & Eve Mourning Over the Soul of Abel'
- ap: 9470
  img:  'http://lh4.ggpht.com/vKgqIecJshMQxrhO-ZhMjcIyARuJdyU63wKfzAG0wouZex6LVzO46Qi5zM1N3Jx8xyantDFk9sQGsSEBhb-y'
  lat: 40.101327
  level: 8
  lon: -88.251412
  name:  'Zeus Memorial'
- ap: 9283
  img:  'http://lh5.ggpht.com/xcqe13f85fuXohGUUBZkNrUU1PunkcZ6xMNmHpAp0GJBtydVqCCGj5MqP3Uax4M7Qq4JzDFGqICFrFb6PNEXRw'
  lat: 40.08932
  level: 5
  lon: -88.251883
  name:  'Boulware Trail'
- ap: 9096
  img:  'http://lh4.ggpht.com/ZEK-DXu7TJqsrt7cbLRjXyr3JbENJCn1FaKxH4Oi6kEvo4K0Yzm5qzMddhRLNlXvokAwQoeG4EKaNkXnJDA'
  lat: 40.114015
  level: 7
  lon: -88.245256
  name:  'Firefighters Park'
- ap: 8909
  img:  'http://lh5.ggpht.com/HhVreJipNvxPRVFpmsh2BPo9PcpPO2Q2l3jCpDjIKgfKGycoTNPXR4DKiYccBXW4X-4dJf_vV0ESsWAWHcChsg'
  lat: 40.100936
  level: 8
  lon: -88.250855
  name:  'Donald F. Bresnan Memorial'
- ap: 8909
  img:  'http://lh5.ggpht.com/-UWK84I78Sftf7yg-E2pg6xEAWTvyiThgJBJlxbqOZPYKNmzQ8uGgEEMetzplrG1HpXG5kQqNItUeXKxOHDsGA'
  lat: 40.100286
  level: 8
  lon: -88.251747
  name:  'Tennis Anyone'
- ap: 8909
  img:  'http://lh6.ggpht.com/3o0ObAARFV_8mBVCC_QD0iLOPVzNkakXybhLnSVEuXIJfDLKMxeYj-EkWIw9NPoZIVRf5Dkrid2yf_NEQ-iE'
  lat: 40.100347
  level: 8
  lon: -88.249385
  name:  'Travis Marmion Memorial'
- ap: 8907
  img:  'http://lh5.ggpht.com/_9uqsDQROIwqIhKx_URY4DdZAapoZBEWK6Eaclt5mM5vPsjwQAD-v8Bv-4b-Smq2F8X4zOgzLx2KwySkFWc'
  lat: 40.118448
  level: 5
  lon: -88.25211
  name:  'First Church of Christ, Scientist'
- ap: 8533
  img:  'http://lh3.ggpht.com/NfRR7PyM2-UNoQGKgRsf6sUZdUTMp0sWqha9caVs49hYb0AnT9OznQX0dQGxKJNP6KiHWJ0WRUMSQh1m4-rwvg'
  lat: 40.117976
  level: 8
  lon: -88.245082
  name:  'Robeson Building '
- ap: 8533
  img:  'http://lh3.ggpht.com/lSr_gDGX9o1BHZX9FUPCKAO2VVQjZ_NwTBaSNhNgjVyJ2p6BnLDByC_vIkhu637-W5nKMW2SShi0gXOlXNqY7A'
  lat: 40.097979
  level: 8
  lon: -88.247785
  name:  'Jarling''s Custard Cup'
- ap: 8159
  img:  'http://lh4.ggpht.com/MvwoDsxwfyNLHzfGkFJl-4VFeX7OvqB0hsMCrZ2D9Olh8GSghAJDfFfDh7a7cOtMIGwEDMyesZoKvKCXAGj4'
  lat: 40.116553
  level: 6
  lon: -88.242268
  name:  'Esquire Lounge'
- ap: 7972
  img:  'http://lh6.ggpht.com/cZVUlNaHjfsB6Lu5hnj8JjUk4lvsgOV7DFz4Nl47-RaQObW1VPRpos6hTDD6WgYrNxCh9UKfn5DFU-K7lRe9pQ'
  lat: 40.1164
  level: 7
  lon: -88.242747
  name:  'Sidewalk Art'
- ap: 7972
  img:  'http://lh3.ggpht.com/J_h4tdb4wqy8bmmQfDuy5yqTR2IlkzKojfvsMOvlD-3tf1pKxbDlhA6W9Q8RX-JaSxhItMr4bmCxiUQXTLbz'
  lat: 40.10064
  level: 8
  lon: -88.24958
  name:  'Edward A. Cousins Plaque'
- ap: 7972
  img:  'http://lh3.googleusercontent.com/Tixp17uCaP682s77UzvCwWCOE6vg7iB2qEFLjACq7xtVJdHE0K3yKYsl3_SwKbiUfQWwgTQRbvfka3U0NvNc'
  lat: 40.098819
  level: 8
  lon: -88.249214
  name:  'Bette McKown Honorary'
- ap: 7972
  img:  'http://lh5.ggpht.com/T0WLAJf0s4nu2Phxax31eu6pO6zNoA4JpvHMLyfMKttzJALEWB8EAWOziQwgjdWE3YjBbG1XjGYsgihqCSX9'
  lat: 40.100414
  level: 8
  lon: -88.249061
  name:  'Randy William Auteberry Memorial'
- ap: 7972
  img:  'http://lh5.ggpht.com/C6wRSaEWO1NYGY5luyYZKHG3Z3aib4aflaPdV7B9G6N6adE890g3QuPRSvCUhsdFHqjoVUjo27mfz9WsjXyuhQ'
  lat: 40.100521
  level: 8
  lon: -88.250864
  name:  'Gabriel Patrick Maxeiner Memorial'
- ap: 7972
  img:  'http://lh6.ggpht.com/5CDidk0pqfUtSW_Yqouuf3diX8drdMu9DoT728QpSz8q6A-WxNhT0yLcgM_7gGpyIAeXrHiTkIzzaVJFgnN9WA'
  lat: 40.099852
  level: 8
  lon: -88.251947
  name:  'Our Friend Tim Palmer'
- ap: 7972
  img:  'http://lh5.ggpht.com/q-mJ2EvrjGn2PfbBh3Pl3XIGUyzTqxGjZmTMhn3k9_2Qi0S2hs3k2ZvpKb4kvt60AXHiyQdxqft5ZecPcg7x'
  lat: 40.098959
  level: 8
  lon: -88.250141
  name:  'Bob and Wilma Tinkham'
- ap: 7972
  img:  'http://lh5.ggpht.com/fDRifvVcFT_dKhPuNBN4rR9lNHL0Q6NvbMnGr2-ZdiirR2rJrBcWRi4vyM3-DYNHymUs7bWchaWRaUtBpg'
  lat: 40.098541
  level: 8
  lon: -88.250389
  name:  'Dennis Robert Costello Memorial'
- ap: 7972
  img:  'http://lh3.googleusercontent.com/awNe0JGlWWAtHv9iiLcqQjVyppWY-io4ybTL_ir2ZKsMLJgkZcW4rdUAuDjOFdWQvIcp5jlTWiROgHANh1Y1'
  lat: 40.087822
  level: 5
  lon: -88.253161
  name:  '"Ice" at Mattis Park'
- ap: 7970
  img:  'http://lh5.ggpht.com/0m1i3CJSj3bKhLj5BgXi8SFpgoihNsBoN6fpccgDU2tjtPcA5BqB1IxvR0yAX9FWkgt3_Q8gbAyGfdJDliGP'
  lat: 40.115142
  level: 6
  lon: -88.238658
  name:  'First Street Antiques'
- ap: 7785
  img:  'http://lh3.ggpht.com/VrbXGwlUosNLEkVdshWUFoVa3KtlJQoEU4yLYygvftYbPCmxo644Uvar_v8Kb9RS53hB0tXgvV44GotrxZyu'
  lat: 40.098592
  level: 8
  lon: -88.251676
  name:  'Ruth and Fred Steigmann Plaque'
- ap: 7785
  img:  'http://lh4.ggpht.com/4LxsGZZMk3DnpJXUvqzrL54CHSP5TDXjUnDJyHmCCTtCJIjGEI7kxT9g4uxfSPh0X6yGLgQo1jfqbu7B8VEr'
  lat: 40.099084
  level: 8
  lon: -88.251826
  name:  'Irina P. Stewart Memorial Plaque'
- ap: 7596
  img:  'http://lh5.ggpht.com/jz0XvZSSYKqKSa4lJDK-rludOns_o36jZ8ZTzfEr42piZamiTjSASTLdII6pkxgjZgnCwKirjhEouS77BPB8Dg'
  lat: 40.094288
  level: 6
  lon: -88.248914
  name:  'Boulware Trail'
- ap: 7409
  img:  'http://lh3.googleusercontent.com/W5PjcRhelt3420IFjpSdOXtmIiv0M99Qv9Xupe6lckHDJDW4zHE9GyACkz8wXBF0_OIO2Jex9d7S8UQ4FJLa'
  lat: 40.118361
  level: 7
  lon: -88.244573
  name:  'Art Theater'
- ap: 7409
  img:  'http://lh4.ggpht.com/Gyz7BDhWdUinBQfD8duByX5-aBgPmB9oSesH20dH8uGJnTiaIHkeRJARtH6YQUUD5A5X2IjPTlT989AfutNc'
  lat: 40.092773
  level: 6
  lon: -88.250951
  name:  'William C. Fox Waterway'
- ap: 7409
  img:  'http://lh3.ggpht.com/ugJXpaIWZ-wI1vpderJmQjM8r0T5_Li2j4hvvsu4fRM9k3MeBpETqj2LFNd1pEkcfH0I9bgZh--5g1AEJKkq'
  lat: 40.092745
  level: 7
  lon: -88.251235
  name:  'William C Fox Honorary Plaque'
- ap: 7409
  img:  'http://lh5.ggpht.com/BkbaZlRlq44d6DiMOVuIlrel2Hsi_RzzHhhdmJH6BLzJk5RKxAcvh2mMd93BFhKgTKLk-yZsNLTaJiTbZsk'
  lat: 40.086686
  level: 5
  lon: -88.252282
  name:  'Elsie Mattis Springer Memorial'
- ap: 7409
  img:  'http://lh5.ggpht.com/_gJqtOHLZ9UHsmd_iLjxMsPw5eF5YzqE63qEAzURvSp_3OL9ZrPjM-usiUeYx95b7zTdNodab42cQiyiRRja'
  lat: 40.087835
  level: 5
  lon: -88.251299
  name:  'Amdocs Shelter'
- ap: 7409
  img:  'http://lh6.ggpht.com/PrKWQe_StHjP7QQeyxlKiMSxAelIQlmbHzFMejewhMdVT0J-uvMpZCUGvQy_dZfrqfDnkmrIZYWkZORSGrnp'
  lat: 40.088449
  level: 5
  lon: -88.251396
  name:  'Boots''s Garden'
- ap: 7409
  img: http://i.imgur.com/5j1qaiT.png
  lat: 40.204412
  level: '?'
  lon: -88.394094
  name:  '2a77bf7698f24379838733d064f5ce04.16'
- ap: 7222
  img:  'http://lh4.ggpht.com/tLO2wjyCgyune3KDOlQMV_oiDRxVsHqO1gAG_0xs9TvKOiuWRVmJcO29WI7jELxoxncaXpy91kMa89Uj65JVNw'
  lat: 40.11784
  level: 7
  lon: -88.24286
  name:  'Kaufman Memorial'
- ap: 7220
  img:  'http://lh3.ggpht.com/IKYzmqr6aeIX2d99jn1dQHjjq0-h7glRdyPEPoTdQnggoAgc8uutzh3X4OYjcCllXVp5r9rYyYnVPwNALI8B'
  lat: 40.115178
  level: 6
  lon: -88.246191
  name:  'Clark Bar'
- ap: 7035
  img:  'http://lh5.ggpht.com/DFa-Mh8ldMlU5wGTYmJIGYKPoSYUfYebRpnom9j15NFNRkwMdU5kDME0GYQUyA_LXnsNi9Jka-xidd302s93'
  lat: 40.099056
  level: 8
  lon: -88.249136
  name:  '"Cricket" and Bob Barger Memorial'
- ap: 7035
  img:  'http://lh5.ggpht.com/3t7XZHqwxLZ8Lc9YomR8FInm74U2PAA-DBk8kmdxXIrcXbKa1CoBDTlgdDJeO-_yVT3qNKRnNLzbdil1eH41iA'
  lat: 40.09935
  level: 8
  lon: -88.249766
  name:  'Jim Bickel Honorary Plaque'
- ap: 7035
  img:  'http://lh3.ggpht.com/G1CvGhpethi5UmprDWxZN9rTblHa3anSsQz1UPgJtkREkfN7lDFoxFObst0609Cg5mofuZxJKr0ddNKhY4VL'
  lat: 40.098464
  level: 8
  lon: -88.251426
  name:  'Ruth Haasis Memorial'
- ap: 7035
  img:  'http://lh4.ggpht.com/PHV-1ZpFzCAl_ViCKwBY_x2pIDbVyaT7wJH1sTvFJCxrSdRrO1x7NaXq9OdRGwz_Mls4iwk6wuGHMBArfV54'
  lat: 40.098688
  level: 8
  lon: -88.25063
  name:  '"New Holland Yellow Dinosaurs" at Hessel Park'
- ap: 7035
  img:  'http://lh3.ggpht.com/KzADjdPRAvwycpfTBdAeDwFJ0AxZJG2dPmbPWkXq55QLV9PfpJ_-DsXWIlVgsISUApRdJ5cAxRWx0k0W2hI'
  lat: 40.09979
  level: 8
  lon: -88.249107
  name:  'Jerome Cook Memorial'
- ap: 7035
  img:  'http://lh6.ggpht.com/S7Utf4_59vQkAP5JhC3mdbzVLKBTt-0zoJ2UjfxUnN10VBbixO-_VwvssWd1LbFSx_yafaijd_U0wTGo870'
  lat: 40.100941
  level: 8
  lon: -88.251314
  name:  'Gabriel Patrick Maxeiner Memorial Plaque'
- ap: 7035
  img:  'http://lh3.ggpht.com/8FqlniFErK7cq59awiT84u8KyV4FIRd5krZzfYa58zJToFps7whdBnriPqvO_kFKeLUE3SWbJhCOPuvUQzaGFA'
  lat: 40.100691
  level: 7
  lon: -88.251337
  name:  'In Loving Memory of Zeus'
- ap: 7035
  img:  'http://lh5.ggpht.com/4DJAFPeZ_w65Km7VDnsbOqouQaeBuPuxA0KHPQToT_B6o1hBxzdu3kn89UhHgv22Ygj52Fx9QqcbzOytuw'
  lat: 40.100078
  level: 8
  lon: -88.250683
  name:  'Brian Clark Memorial Plaque'
- ap: 7035
  img:  'http://lh6.ggpht.com/yjfa0jJLjsfLRf9Zn9iafMp3MuIhgCi0WiOCF8GqTGiGvzEnsPGrFa0H1n-uzWhVehLbt44ShthsA32VzHd5iQ'
  lat: 40.099737
  level: 8
  lon: -88.251157
  name:  'Tyler Van Atkins Memorial'
- ap: 7035
  img:  'http://lh5.ggpht.com/ENeQgqydWbi9-Oyf7vizunoRqJdsZV4o0RA_956wjGI8hqpTCHBPyWMpbTrrkwYpj5tgzDRvevGmvH4eFRU'
  lat: 40.099593
  level: 8
  lon: -88.251724
  name:  'Blessings from Devon Elaine Cattell'
- ap: 7035
  img:  'http://lh6.ggpht.com/qSCp5fQMlyCQ-GOAgiSFy5gaHJei705Pa3eOlJiYO5wGjZTYtjA8q7QWWfAWcLKjxZSaFiMfXOPR8SO7rWU'
  lat: 40.099353
  level: 8
  lon: -88.251876
  name:  'Raymond B. Cattell Memorial'
- ap: 7035
  img:  'http://lh3.ggpht.com/sisvfsphxy7AK_2qrrqb7lNJk3_7ciHSVJyodINYITBc-UqugyNOooCxKupgJKEg5m_x95eZwouSO2WCmN60ew'
  lat: 40.098579
  level: 8
  lon: -88.249603
  name:  'Chef Ra Memorial Plaque'
- ap: 7035
  img:  'http://lh5.ggpht.com/8zq5tMevCiipZK8N9-8SZw3vdsA2HwH0E02ormQshGxHVZrB2WPK7OPC8zt6pjLlgpXVuEYHVA_08_Q8fPw-'
  lat: 40.099647
  level: 8
  lon: -88.249648
  name:  'Max Overmyer Memorial Playground'
- ap: 7035
  img:  'http://lh4.ggpht.com/vxjetUOC6_S8Ru3Q1ivzG4NE4bAAWg7_opiMwStExCoUHiRaIab8NyXLypEOAo7KBtsRQRzJX-TimhsOlBu3'
  lat: 40.087121
  level: 5
  lon: -88.251406
  name:  'Amdocs Shelter'
- ap: 7035
  img:  'http://lh5.ggpht.com/X-Tq3QbQ3JvCApWIGFxRwDJId7aLa8hY_ka0eU3QySTcZBgXcbPC4UXEQ9VVMsA-dYRxGqAdCotw-q7dby8f'
  lat: 40.088412
  level: 5
  lon: -88.251667
  name:  'French L. Fraker Memorial'
- ap: 7035
  img:  'http://lh5.ggpht.com/EaT0PxhOud4vjm0kHYMit1zq4b2aTjV4M2olWNI-rM0oUVFeEI4kgeWGcrbk_EvcGBz6hwrN_wYLDLK3CUBi'
  lat: 40.088861
  level: 5
  lon: -88.251811
  name:  'A Flagstone Garden in Mattis Park'
- ap: 6846
  img:  'http://lh4.ggpht.com/mlUN5QXAR7rKFvUg7yhxcae3udkR7zCJVaWt5sq_YA47piV6tRi42RNN9fEtT_FafT7lhqg26WM1VETbz5E'
  lat: 40.098239
  level: 7
  lon: -88.25376
  name:  'Hessel Park Christian Reformed Church'
- ap: 6846
  img:  'http://lh5.ggpht.com/qq3QmeyCYxWnJF_DzzI5wVvHF4foNyr_bF3_j5eVPHJ1omSbD2INOifPJEO3pjz4X1l4_wMGD4uOT1_w6Tid'
  lat: 40.086713
  level: 5
  lon: -88.248293
  name:  'Garden Patio'
- ap: 6659
  img:  'http://lh4.ggpht.com/HEEvU2OlgWiV5huAu3cvNKaI-C8YKYTO3qB8WMTO7EbsjTO84KS6jLjbGCq7THZq6l63UiUKCSEqY2IADYns'
  lat: 40.091766
  level: 6
  lon: -88.250003
  name:  '"The Cranes" at Fox Corporate Center'
- ap: 6659
  img:  'http://lh4.ggpht.com/aXG2XQNJXyPDBz0o8tyfv07VIfskZuFMOWW2ylZpZKkWMnFjoiBmBiWg2VedsjdIorpfX5mtUGnwVLFb7Ga6'
  lat: 40.091438
  level: 6
  lon: -88.25077
  name:  'Fox Development Corporation'
- ap: 6472
  img:  'http://lh5.ggpht.com/wX6-mbTE7nT00T6ildapKbI5ZrnhPIt4l91DhMseyo3GYFrgQIuqbjh8ntZY6NxGZ-qa6fKWlyoBOPdIdNIt'
  lat: 40.114653
  level: 6
  lon: -88.243729
  name:  'The Phoenix'
- ap: 6472
  img:  'http://lh5.ggpht.com/Sgu5qG2Ltp9axQc8nEr3fJ_qvNo6-gwd5TuKMrk2LM9d5P7DDy0oCoWiGnr6Ybp84FGMh9DQYLnFtBTZtBIm'
  lat: 40.113606
  level: 7
  lon: -88.243766
  name:  'Mural on South Neil St.'
- ap: 6472
  img:  'http://lh4.ggpht.com/XlTZ26_29c4-74t23p1lgghqNfLI7aS3_kradmcl7vVQzV9jJRu78D1HdzJf-sWibnak644kxCBJDnA594PVaw'
  lat: 40.092849
  level: 7
  lon: -88.251586
  name:  'Boulware Trail'
- ap: 6472
  img:  'http://lh3.ggpht.com/DpFBT6YsInBvoo-6DUZeryDpITUgNnrw3j-iMPdeg6S2h9pL4DSqJLbMzsMqmLRwgJKLHa-xMVjHKDoSqwE'
  lat: 40.089107
  level: 5
  lon: -88.251579
  name:  'Donald M. Decker Memorial'
- ap: 6472
  img:  'http://lh5.ggpht.com/WtLGJ5PPeFPGSKegRKCurNiGVHvfV53LdGHbVkCfDXxVvUpneEqngOPUTZJgZL4RdA1_YVGUXlpWs0ZDr6OH'
  lat: 40.086378
  level: 5
  lon: -88.251308
  name:  'Life Lessons from Kimberly Kueffler'
- ap: 6285
  img:  'http://lh4.ggpht.com/PfcTU4XsA06ThtmCWydIWhTsN3gR4jrqnrKxu0O5lhyibhRdKMEaf3jM8VNhViF8qLf13b01E71wr_ajxn0'
  lat: 40.118465
  level: 6
  lon: -88.245077
  name:  'Mural at Nitaya'
- ap: 6285
  img:  'http://lh3.ggpht.com/oHMQr2Z5LayQFbZOwOZK4ZbYQ1OVxs85-qNTvSj8epsP72vQiOdrzVmkuMPFQtCSf9Rr0oqcnSLFjLn-sPw'
  lat: 40.116592
  level: 7
  lon: -88.243236
  name:  'Champaign City Bldg. Landmark Plaque'
- ap: 6285
  img:  'http://lh6.ggpht.com/btym2_WGYuFNu2SNiR8qif7GXLMOPT7XpuHE7RPOipPC9Q5lEPfImKAzf2vm9RUe2rN0u3TePq4pM0IuZiLS'
  lat: 40.116436
  level: 6
  lon: -88.243459
  name:  'Champaign City Building'
- ap: 6285
  img:  'http://lh6.ggpht.com/rGhR45ZFbHtxmrZSSy9V19eFoyHIDB42c6MK188isPJFWpUsW9ywNHayKt3acNvKNC8DAV6mDkUloj3aiS4'
  lat: 40.118422
  level: 7
  lon: -88.24346
  name:  'Entrance'
- ap: 6285
  img:  'http://lh5.ggpht.com/tfAfnmo6mSMc6U0P533NMFJRGwn6lasmx-MLR2JJg1QOizMKkghFU8E7hb2zgYgdQEbgnCJUlvZIMdrrJe4'
  lat: 40.100822
  level: 8
  lon: -88.25193
  name:  'Seeds of Kindness Bench'
- ap: 6285
  img:  'http://lh4.ggpht.com/aFcisvUEjvw8cW_JZB2JIOpPXr_cWq9tGzjT65AMZfaR6Dwevg8S6dfNMTVswut9cKOr9-SCQdSqoOnQ4c1Q'
  lat: 40.087914
  level: 5
  lon: -88.253489
  name:  'In Loving Memory of Robert and Elizabeth Grubb'
- ap: 6283
  img:  'http://lh5.ggpht.com/hjAc940kWyt9QT4G_BJyJKaTef3jL_Njnm8ubUtQD7u6qVsD9_7TiJbgZpKeqAv60kNw8FYspVxkn-Bt1cxYBw'
  lat: 40.109959
  level: 7
  lon: -88.24318
  name:  'Mini Park II Sculpture'
- ap: 6098
  img:  'http://lh4.ggpht.com/1LzO6yLZvWb6_g3FLduNKYb6d5TVljqsdNnQggC6Idh7XbUSLf4TOcuWChcYsVve_pt7N5f77mEJLTqUmA'
  lat: 40.085878
  level: 4
  lon: -88.331166
  name:  'Porter Family Park Dedication'
- ap: 5873
  img:  'http://lh6.ggpht.com/yoVMhDWju7bkAa8CImnlTqi4n2uH0odsX-LgEGeq_lqcXSmf2HQxX-c00NB1noOlmnFs51tZqBQXBLIJRfr8'
  lat: 40.117495
  level: 4
  lon: -88.241616
  name:  'Lincoln Building'
- ap: 6098
  img:  'http://lh3.ggpht.com/1G0o5RjtXyfAjbI-E2honhhelnuiq4lIkpHmB44e-AwSBuIxVOdLPVYjImbTMS8kyBdZuKuiMQHciUIdAWg'
  lat: 40.118368
  level: 7
  lon: -88.243737
  name:  'Frank Robeson Memorial'
- ap: 6098
  img:  'http://lh3.ggpht.com/VLipBehsKPCp8ewQnBV1ZCz7uE75zcY46iGDyFfFHgX1o55t3DONb3wcBcL5RMYSqABRK0TgIW3DluNy8y6WaA'
  lat: 40.101131
  level: 8
  lon: -88.250539
  name:  'Hessel Park'
- ap: 6098
  img:  'http://lh6.ggpht.com/YVbqGVTjJuDMDdj71CP2mWvnUIdgO25PgoDdJwEGnEE_M9I1aDgKyjSr9JOZVU6UQTZQtfUo9RAWyz92n3jtCQ'
  lat: 40.098475
  level: 8
  lon: -88.249208
  name:  'In Fond Memory of William Moore Jr'
- ap: 6098
  img:  'http://lh6.ggpht.com/n0f7lyo15OzZn5IJHsohIGAA58iioentPZGEY4zeMZCCoX4GjEEkqfaTCIbrx9OnezriThnbFV14kYcwKTgL1g'
  lat: 40.098444
  level: 7
  lon: -88.248167
  name:  'Healthcare Not War Mural'
- ap: 6098
  img:  'http://lh3.ggpht.com/rlm0tE7Js-ApRSIfi0JxzxMVzrls50Gpr-Dbml7uBn7o0sCMtpiVa81HJc88eD0VlJiuzy9UTBFPebVcw-GK'
  lat: 40.087494
  level: 5
  lon: -88.253476
  name:  'Rotary Club Meditation Garden'
- ap: 6098
  img:  'http://lh5.ggpht.com/6MHa8mHyPoZr8QcAXRVJp6cTJ-Besa5bB801GzhlToXL5ff4Zg6U6VtnrbMINQ441jCzYNZDWNxHIBtf7VXvVw'
  lat: 40.087719
  level: 5
  lon: -88.253446
  name:  'Milla Gross Memorial'
- ap: 6098
  img: http://i.imgur.com/5j1qaiT.png
  lat: 40.203703
  level: '?'
  lon: -88.394049
  name:  '1ab1edcdd05447019675c2b4b0d30cbb.16'
- ap: 6098
  img: http://i.imgur.com/5j1qaiT.png
  lat: 40.20265
  level: '?'
  lon: -88.393912
  name:  '9c9b58d1e22949bc983b080f051d97d6.16'
- ap: 6096
  img:  'http://lh6.ggpht.com/NMgUdPOdhvhvKZh7ugwXgybshZBZ2mkaEWMNKYdFPX6cfIYENSCqE9YpAXSNVuq_9VVWXJB-ShCBAPfF2Yvs'
  lat: 40.102513
  level: 7
  lon: -88.243679
  name:  'Robert Hosier Memorial Garden'
- ap: 6096
  img:  'http://lh3.ggpht.com/psgrRGIt786cUSq8EV7SBSDsS-aptrUKjaCXWv864H7OaJL2K71qJpxU9Iw-acwFMi52ZN2qpEmicGmlmhJq'
  lat: 40.121061
  level: 5
  lon: -88.250227
  name:  'Curtis F. Columbia Legacy Plaque'
- ap: 5909
  img:  'http://lh4.ggpht.com/IAi2A1ukQunZaoCY1OUJnvZC_MAEjnYzlg7vcsIuPQyLIB710_5ueVQ3El8Pok0aNvlB18-Tdo1euhYbaf0'
  lat: 40.115224
  level: 7
  lon: -88.24957
  name:  'Linda M. Wesolowski Memorial Sign'
- ap: 5909
  img:  'http://lh5.ggpht.com/vYay8RKsCV_BP_MkeFm7se0VZoYthm-1pThiATAADleBlTsPowobgZyUoU7DUto6p5cpg9adpCcTgNR6iop0Jw'
  lat: 40.120121
  level: 6
  lon: -88.251967
  name:  'Sesquicentennial Neighborhood Sign'
- ap: 5909
  img:  'http://lh3.ggpht.com/kvJpDVeizd9sYgE0gsuLMptNV4trFwsY2y5QVAP_9RwWmIAb_1GOXGlJf0qViO7mywZQg7-Ky5pjxSPu22U'
  lat: 40.123653
  level: 6
  lon: -88.252479
  name:  'Spalding Park Playground Dedication'
- ap: 5909
  img:  'http://lh3.ggpht.com/-xag7tp3BReTAhfRmVAvpMw1Af15prESg4rve7QnsiIC5IKmKjBszxDIj8F212BmRU1apH_2u_9wAmq58_91'
  lat: 40.114157
  level: 6
  lon: -88.238621
  name:  'Bombay Indian Grill'
- ap: 5909
  img:  'http://lh6.ggpht.com/ea6HxAw7m0OhhPqJJkZR9u60pR1sab_JdxaOyEltqmQd-63FFJzPY72jEnu08g9Gcjjj5cf3jyyS_M1E7OIbfg'
  lat: 40.11616
  level: 7
  lon: -88.241422
  name:  'It''s A Mistree'
- ap: 5909
  img:  'http://lh6.ggpht.com/q48Oqk2mm3dXQ2ppK-aYGXKjIiTAOEZfrFkiLK9LXRz2uN9hSKihKeCwfg33q1Z2zMTIMjqJRjPA1U_V3pbR6Q'
  lat: 40.104417
  level: 7
  lon: -88.231962
  name:  '1926 Sigil'
- ap: 5722
  img:  'http://lh5.ggpht.com/H3lz_PbTP4RFYuRMUyZuMouxslODKZQ3RjFiZrITFZcpj2FuEb1K2VVlveQtOyUHG2rYZ114AGuGqK4rATI5jg'
  lat: 40.097868
  level: 7
  lon: -88.242344
  name:  'Campus Information Booth '
- ap: 5722
  img:  'http://lh5.ggpht.com/9XV46K2cUd84oc6HPyqlj53LKJS8lVs0f0gPHSCBkkTwiHaxivu36dlAj5M38EzK-2U4xhvZJ7AiVvGM5yk'
  lat: 40.118175
  level: 7
  lon: -88.244562
  name:  'The Russell Building'
- ap: 5722
  img:  'http://lh5.ggpht.com/39qvivJbsTr57F8HWz9_3WhqwtI6kCbL9qeIckApwB7s51qHqm4RS4qZLPkY2GUv6A2wi2wrlNxhnIN6xGKS'
  lat: 40.113427
  level: 5
  lon: -88.229089
  name:  'Lee Williamson Memorial'
- ap: 5722
  img:  'http://lh5.ggpht.com/Z2EWM4D6YQHuqnLwtuPBawyQBZxTzVe9E17MKc8jOZkO0ZzkuD5zSQslY2iuXkkUnztPteUeOSHrSTz3voHC'
  lat: 40.111166
  level: 6
  lon: -88.228747
  name:  'Boneyard Creek Mural'
- ap: 5722
  img:  'http://lh3.ggpht.com/swF7asGHDD1L9hslewSBg2z-tocpd_HXkIYuOmz739SWxCj8KBqf-kcOPOFPoE8pLXKDxR6Z8jAJ8Kx7Fbnc'
  lat: 40.089334
  level: 5
  lon: -88.253652
  name:  'Mattis Park'
- ap: 5497
  img:  'http://lh3.ggpht.com/jnMeoF6SBZ0Iinf5GnB2N90IMGTEQdGggLITfjWcIY6d5yipHaBN52a1NPxmn-VFwc_G1cHiMmyEDGg5nkwo'
  lat: 40.101623
  level: 4
  lon: -88.231761
  name:  'Metal Spire'
- ap: 5722
  img:  'http://lh6.ggpht.com/MsCeiBKy8tV3-ziINPCBPzkisfwOnBClSPr68FUxT1uMHlVmqtyTYYxNAZapU8bvWdcmm0lsmIzjMyv0CTJ2tQ'
  lat: 40.095364
  level: 4
  lon: -88.217386
  name:  'Miles C Hartley Selection Garden'
- ap: 5535
  img:  'http://lh5.ggpht.com/OjHvATZsWSqcIG4MCHe5lUc8sE12iGmAJiQ_pp4ttXXy6QR3QTJ9OiFqGfdFxEbY6WMTgh_Vl2WcqFK0ptEn'
  lat: 40.086227
  level: 4
  lon: -88.332388
  name:  'Spiral the Gate'
- ap: 5535
  img:  'http://lh6.ggpht.com/QhX7LQjknZJxL4GjIVRORINW4Ftw5F854uaMsoIWpHQNzoc_1c8nRxsoxw27U0InC7UZkcxueRyo8sqyTD7-iA'
  lat: 40.113262
  level: 7
  lon: -88.257966
  name:  'Grace Lutheran Church'
- ap: 5535
  img:  'http://lh5.ggpht.com/dRrlHXlT2nMNgZNHiYo52ha9L-Xay9DyOJR2Cpqs74hgAJ09abn9OTAtMzRVedt1_R9ObZllLO98vRhNMfgTgVsJCk1S-HJwX_XgiGpG4lz3a328'
  lat: 40.11671
  level: 7
  lon: -88.24263
  name:  'Cafe Kopi'
- ap: 5460
  img:  'http://lh6.ggpht.com/Jj5dr0C8flwov23nPbKRDVme7HOE0xZvNC6JkRscLlNqRr6uxkxBExdu-rQUdt9kZtd9e5dvHsv6Vs1Hdtd9'
  lat: 40.117186
  level: 6
  lon: -88.241556
  name:  'Champaign Limestone Sidewalk'
- ap: 5460
  img:  'http://lh6.ggpht.com/YEHyAsx3ysK3IxTTbSx5dLEcHRtRVKQ4XTvE0Kvkd3iIW3mA6lplwojkVOpWCemyQS6G3JESxZnMFQtVf7V3'
  lat: 40.11652
  level: 5
  lon: -88.241845
  name:  'Mike ''N Molly''s'
- ap: 5535
  img:  'http://lh6.ggpht.com/Pnd8JOVl_Lm-LFi5TL9dblCUNbrwX2rh4_oKgOC5Ynga-E_Y207oGsL4Uz931FTapBrs35H98qxJU4Cm_Gk'
  lat: 40.113024
  level: 6
  lon: -88.229095
  name:  'University Place Christian Church'
- ap: 5535
  img:  'http://lh3.ggpht.com/yeYI3q7rDQLA5xBcWfH-Caw2Uh740ZPRQjjyvOrZz7ZyLI-gxBpi8yqxqDrlOBzG9YHs6YlxdgX0obTpXlQ'
  lat: 40.117681
  level: 6
  lon: -88.241405
  name:  'Jupiter''s Downtown'
- ap: 5535
  img:  'http://lh6.ggpht.com/XsUl74M1oxj6ptAvGEBOMH2wivRhxBNns62UJSGcPiQkuJIgPrmUYxMpSZZUfXRMMjrwoxlFK_DbAM78UrOh'
  lat: 40.113499
  level: 7
  lon: -88.244374
  name:  'Shatterglass Studios Mural'
- ap: 5535
  img:  'http://lh3.ggpht.com/by946OhJ5ooOkbG4f662qjbXqvrQAd98E36mSJLgTsLgL_tb8GDpNxTOEhtgsjEhY-OzKmRxAmLFbYPscSH6'
  lat: 40.101619
  level: 4
  lon: -88.233644
  name:  'Taft-Van Doren Hall'
- ap: 5535
  img:  'http://lh3.ggpht.com/wkPcdDupubV3THJo6r2OpMtshziiIkqBISPTCPe8boa-8nH33u83Mznkr1yYWNR_l60RCy8HO_obqrdNGUI'
  lat: 40.093633
  level: 6
  lon: -88.246611
  name:  'Fountain at Illini Plaza'
- ap: 5535
  img:  'http://lh3.googleusercontent.com/erdNDM4HaNMn_EeFz0IoM_0LQWykLGJ1Y7-URXSvEithPHs8Rnwf7oWZyxVKu7qOpPdKjeeCy3dkywZ7n6KrsA'
  lat: 40.111615
  level: 7
  lon: -88.235593
  name:  'Fred B Lamb Trail'
- ap: 5535
  img:  'http://lh3.ggpht.com/x5fBw8MRogV8dm3kPO5zKNkUrQxn0dM7d1PIoASdX1_Rc8H5Duex4iZdOoIlqazCGll25TmptsWIRq1JFmj6'
  lat: 40.112135
  level: 5
  lon: -88.225762
  name:  'Computer Based Education Plaque'
- ap: 5348
  img:  'http://lh6.ggpht.com/xmgP6_TbSrlLRJsCZSQjC_DLNjFvpQZvEQ1HG5OqrNlNx6ze282h78In-2DEf_6Czi85r3XRa99MH0Ird8qu'
  lat: 40.085035
  level: 4
  lon: -88.33118
  name:  'Environmental Plaque - Pond'
- ap: 5348
  img:  'http://lh5.ggpht.com/XQVr2AUWddJQMpYbapEIpcTLBeBvcpgmW016VjkAOXrp8_P2VsMxQY8FVhtDhA73iTCXCPiydjFIJcbcSa8_'
  lat: 40.116206
  level: 6
  lon: -88.24306
  name:  'Indigo Art Gallery'
- ap: 5348
  img:  'http://lh5.ggpht.com/KadNuhjGK6FUXezGHW1W1kfPOQV5l7gJP594EQm5nPZFLTgcTsjl4ixa-j7XitgtyJyou3q0pTfMr4i2E_avIA'
  lat: 40.118013
  level: 6
  lon: -88.243445
  name:  'Clock at Neil and Main'
- ap: 5348
  img:  'http://lh3.ggpht.com/LunaMtSKD9yiLQClolDY-Iqh0ENm9AgJdL4D1QxGs0j6TXPgqxDZea35x5ilAfeI5_0TGh5x1q1EqRsJsLFi'
  lat: 40.114111
  level: 7
  lon: -88.243697
  name:  'Champaign Surplus'
- ap: 5348
  img:  'http://lh5.ggpht.com/BPYtoLzDqibtj79fwGYxizNqHsBoJp5OzVO4Z-75rudKppazgw7D0eoXHOpH20iQd2Uc9MHXs72-r7fOJDNzpz3KRHIpZwzmXBope3LI8GA4SfsY'
  lat: 40.117754
  level: 6
  lon: -88.241676
  name:  'Jos. Kuhn and Co. Building'
- ap: 5348
  img:  'http://lh5.ggpht.com/AsiP7X99phJsAWWLusxVx9jztxrqq-wjSe7AQS2KrK6muMt4sB3UIjlshPNUA13BR-o8cX70DxvhbxODvrY'
  lat: 40.087526
  level: 5
  lon: -88.253714
  name:  'Plotner Memorial'
- ap: 5348
  img:  'http://lh5.ggpht.com/FeahTnHcc-Tb0sWOd6cQiYz5QrczzT5-Behz0KlyeiGyzYhvAlNlhPI72BVkREal1tU_4g4r2UklF7lcQgKr'
  lat: 40.087292
  level: 5
  lon: -88.253528
  name:  'Agnes Sweikar Memorial'
- ap: 5348
  img:  'http://lh6.ggpht.com/Sz4BABPqyoIyZVGpSBEM1QNIxPngQLl7hopqjyVJi_fak1xgpFAX_X7TbK6tICEaYnLrvC1hV2jv-AwPofQX'
  lat: 40.090038
  level: 5
  lon: -88.249379
  name:  'Three Hierarchs Orthodox Church'
- ap: 5348
  img: http://i.imgur.com/5j1qaiT.png
  lat: 40.202918
  level: '?'
  lon: -88.394249
  name:  'c47c86e036934462bff379850cb47aca.16'
- ap: 5161
  img:  'http://lh4.ggpht.com/B_I1b0Jy3vW41RX8jjCNPP68AULplU0Pf8ddolyKmpEWCfBVShQkmjF1HfTPzDjmBBQGgOs0jHW-rUR0mv8BkA'
  lat: 40.098789
  level: 8
  lon: -88.251685
  name:  'Curtis William McKinney Memorial'
- ap: 4972
  img:  'http://lh5.ggpht.com/KuDVZqnpBQnne0a_UqpN4wpsQFlw3nVXAWtRKP_AdZ3CjQ0MHUBgU_2hE8hb71h31FTQbduYmB6DNuVKA0s'
  lat: 40.116822
  level: 4
  lon: -88.243445
  name:  'Remembering Horeb'
- ap: 4785
  img: http://i.imgur.com/5j1qaiT.png
  lat: 41.478486
  level: '?'
  lon: -87.673962
  name:  'ea0361748bb74dd9990667738d169ee6.16'
- ap: 4785
  img:  'http://lh3.googleusercontent.com/hJZWoErzM-MuXulq4FlhlZwMbJX1Isd81GBUBVKayd57jVIVxUle3itd-1DRKo2VaNXznWr1X639fa44Etk'
  lat: 40.141919
  level: 7
  lon: -88.244611
  name:  'Marketplace Mall Carousel'
- ap: 4785
  img:  'http://lh5.ggpht.com/UTu16bRRNKyJj2cFsU4mRCMkGJbH7YCAm0gQdiJKjnnZtB00kMEb_-Lhf6AnAXRia4MH6FBrWQGkBCrMUz8'
  lat: 40.120135
  level: 6
  lon: -88.253121
  name:  'Rain Garden'
- ap: 4785
  img:  'http://lh4.ggpht.com/mrFIlt7StuloTop3ci5DRg10i06ivamSn69PgqYPZfkV23dOzf-DhDdDUjeOOzy1ILR9xOOdLX_NBsMOH9FO'
  lat: 40.124377
  level: 6
  lon: -88.25297
  name:  'Spalding Park'
- ap: 4785
  img:  'http://lh3.ggpht.com/R9_j6Ix3G4wIobXVuK6nhjPbwc4K59mAiAEYBNzlpbhK11ILWcjzXIpL90el567VJkxLA0oHXb244mi3pMUk'
  lat: 40.106459
  level: 5
  lon: -88.262082
  name:  'Everette Rock Garden'
- ap: 4785
  img:  'http://lh5.ggpht.com/k_9eqZVvGcr3ZNyeeSNDM1-Y7od35KmnQQptB9usrdpTdpGW2c_5-12rYy9hGazdx7qhlYrEXxaJ_ZIVFywlcA'
  lat: 40.106706
  level: 6
  lon: -88.232116
  name:  'Illini Tower'
- ap: 4785
  img:  'http://lh6.ggpht.com/BzDhCANV_iNTHhKFBGLuaUqOvChRZtPWnJ2Xk4h7NsKJHmTGgCWtFHWv2PpDA2fCsHHKSCRTrUNK8AKrLRnS'
  lat: 40.108066
  level: 6
  lon: -88.230687
  name:  'Community United Church of Christ'
- ap: 4598
  img:  'http://lh6.ggpht.com/yoGdHEqpRRqOE5pA5wHdi_ismU_TrB-kTiqVV63EO630KsU608TIfjLijcqJ38At7MyyrE2urWFMPY1Sops'
  lat: 40.118121
  level: 6
  lon: -88.258039
  name:  'Mini Park V'
- ap: 4598
  img:  'http://lh6.ggpht.com/o-Si4_DCq7Qwa_fFJhaTZ0-zCScbl7wDS4PHIFGMbnP9TuPVe9ZauXV3lAreyYvxN7B7n8mlrOR2SsPzXmU'
  lat: 40.115703
  level: 5
  lon: -88.239504
  name:  'Chester Street Bar'
- ap: 4598
  img:  'http://lh3.ggpht.com/Vcus4uEIgRrZOTuMTz10IGc3qhU5MdpmGnEzN_IiBQrVm1M6Q26geFSgc4VIbgx12Utl9V52J1Y4g35V3MneDg'
  lat: 40.117215
  level: 8
  lon: -88.245551
  name:  'The Virginia Theater'
- ap: 4598
  img:  'http://lh4.ggpht.com/9dqmZPc9OI1ON-iEnfXAxSAMX2M07pEgKUsb47vLrTrW2BW61siFLquk1fXbldWXGPg69XGdSG4wKPGS5rI'
  lat: 40.113521
  level: 7
  lon: -88.244122
  name:  'Artistic Graffiti at MCS'
- ap: 4598
  img:  'http://lh4.ggpht.com/eoFw5gx9tcBj51FvuWLBsaFZ7TdxW0i1ez8HiVWtHsPE262Fcf5-fE7MAIzvgDr2tLCZzG79np6cdQDZzWou'
  lat: 40.112029
  level: 6
  lon: -88.23655
  name:  'Scott Park Bridge'
- ap: 4598
  img:  'http://www.panoramio.com/photos/small/52867363.jpg'
  lat: 40.101676
  level: 7
  lon: -88.231098
  name:  'Sculpture, Krannert Art Museum'
- ap: 4598
  img:  'http://lh5.ggpht.com/4eagHlnlpVbtFi_knZN73PIs2A--Ipj6SOlkQADePlfnzfOnJn-cAv0IoNNv4qR8WrbUFImUKHBknyaoAewO'
  lat: 40.111383
  level: 6
  lon: -88.225675
  name:  'Only Rain Down The Drain'
- ap: 4411
  img: http://i.imgur.com/5j1qaiT.png
  lat: 41.142655
  level: '?'
  lon: -89.061055
  name:  'a2354e42fbdc412ea2a39ab379ed041a.16'
- ap: 4411
  img:  'http://lh6.ggpht.com/gSkiCCAxYwrqFAngG83B_LFqd6Nhlw0xIRsGwVPkAD2N-u-qOYoHAUbgxP6laZhFqbIoQevsE0daWcUAMtbW'
  lat: 40.085688
  level: 4
  lon: -88.330182
  name:  'Metal Mesh '
- ap: 4411
  img:  'http://lh6.ggpht.com/prg5Oedqi1_YJMN9GAesf7bmbUwbMGc9v7E3SYkm-TYdudfpX9SwuC1J4D4zkb1K4yrvF2ZPNWDoUniixORu'
  lat: 40.086493
  level: 4
  lon: -88.330828
  name:  'Environmental Plaque - Prairie '
- ap: 4411
  img:  'http://lh6.ggpht.com/5R8z1wwducaGMkvLFryu9HzC91eX02E3KDY04s9Il7Qrdw8efQiRGZ_vbgqW0Fuvp4-I_d9ugFC6lPc7lxia'
  lat: 40.113465
  level: 6
  lon: -88.291684
  name:  'Anna Jean Russell Memorial Tree'
- ap: 4411
  img:  'http://lh5.ggpht.com/WgDPQ47lNn2nlvNDPgwM_c-1MpVvxdVZtjZmFtixtr3rIi91xqYhgtSbyJGqRFnSXCUHy_RjABgEj2LSzOs'
  lat: 40.113343
  level: 6
  lon: -88.290525
  name:  'Fish Chimes at Kaufman Lake'
- ap: 4411
  img:  'http://lh3.ggpht.com/07XrBN-er6Ecleor0n9RJ4DfGO6B2yn-ZxjI-Uy8Ba46Jtb6cXNVmATPiPiGyk-1jZ4wxa7-EeIWbWUqArCG'
  lat: 40.142554
  level: 6
  lon: -88.243468
  name:  'Dog Heart'
- ap: 4411
  img:  'http://lh6.ggpht.com/2lDM_Uj6QcUJmWkmPhNWg-vfkJbBQAo6zb7eXC5qDTaJ5xAsoU7jPPqYmLo7zztC2Za1oH3QVrHQ78-XabqR'
  lat: 40.116398
  level: 6
  lon: -88.242485
  name:  'Champaign Servicemen and Women Memorial'
- ap: 4111
  img:  'http://lh3.googleusercontent.com/SjusdEZ1n6AkcvHdrM3TfGAqP_W5LJRmm4qEdm5xmdvHcBejD6Jg0kXCZaHyUk5WGeE8Zu0RrSSq_1VDXFU'
  lat: 40.117419
  level: 3
  lon: -88.240991
  name:  'Old News Gazette Offices'
- ap: 4411
  img:  'http://lh6.ggpht.com/Jltxi7PZ9OVi8hBCUxdt9oxXQk9zmbrtHpM_jru2WhVYyY0UkNZ8h5SU3CdwMRNzZ1ZKabPR8hDCPz7p3Ms'
  lat: 40.114439
  level: 7
  lon: -88.245013
  name:  'New Covenant Fellowship'
- ap: 4186
  img:  'http://lh4.ggpht.com/3gTAX6rKgNjLmBOYvAVTgSPQej5yRF_38uRllp9H4n5N6pvwWo5kDMDwlIkFVPPl30BXPSGAlZ9pO9B4DMk'
  lat: 40.116218
  level: 4
  lon: -88.242141
  name:  'Live Action Games'
- ap: 4411
  img:  'http://lh5.ggpht.com/KYppjeOoIlb4lbowRrrC5qRdYW7_KU8rzjtDMpvhh-Q_c6VZOTtVmOqmmxChJA2hjlpS5dJ1JnhUQcKUAXDWHA'
  lat: 40.117976
  level: 6
  lon: -88.242642
  name:  'Stevick Building'
- ap: 4411
  img:  'http://lh3.ggpht.com/PKHUaHtGQlwpb8q3mUpPJtjb51_am_ieb_9X0u8g1PI_eg7NxFQU2fqeV8XjnIIDy0rCMtqsfMJLerOBo8M'
  lat: 40.118579
  level: 7
  lon: -88.244588
  name:  'Mural on Art Theatre'
- ap: 4411
  img:  'http://lh5.ggpht.com/CRkkFx_9jq2hCt1HtflqZDqCdmSG5MN88FV0rLXk1PZm7maZWzLTKZhjqlSKUx1Tg0tSB62l75w2VFsyUZI'
  lat: 40.09991
  level: 8
  lon: -88.249899
  name:  'Benjamin Biddle Memorial Plaque'
- ap: 4411
  img:  'http://lh5.ggpht.com/N1cFx79JwZqPlYPDW3HkNwRX8N4Auriii45qzYkAx9l-cKeK81qgZ6nuBpTBEIOyLzy4aIIhQKt2E7ZiysSjkg'
  lat: 40.10036
  level: 8
  lon: -88.250515
  name:  'Mark Foutch Pavilion'
- ap: 4411
  img:  'http://lh4.ggpht.com/HMXgPSuj_Qc06z-u_ElF6pgeWVoxqEAZoT0woVULj2jB8M-G8a4In71YBTnsPrCaJTLx0DFoqB8lQ2847L9M'
  lat: 40.112187
  level: 6
  lon: -88.235913
  name:  'Scott Park Pavilion'
- ap: 4411
  img:  'http://lh6.ggpht.com/j712bbvDknzGlAU87nZA1Bx45Ng-0MGA9Uvuv-3WzIKA3W51mXOZpJ-TzVSbuU3uE2AsJ5wcO7_B6WDpdRr0'
  lat: 40.110684
  level: 7
  lon: -88.226053
  name:  'BCS Superconductivity Theory Plaque'
- ap: 4411
  img:  'http://lh4.ggpht.com/Mr8XeGiDafWk47NSkxDW3WManlpDnqzQWOT1VE2j0f0jFdh3tCvvntj45n1BJEnHylldZRnpPEOJ8OLeFZI'
  lat: 40.114405
  level: 6
  lon: -88.224198
  name:  'Siebel Center for Computer Science'
- ap: 4411
  img:  'http://lh5.ggpht.com/w9vRSV8NBR1gsi8ndeSUNJN2X-ftwCCQ7Jd3dcLVhPw6r1w0x1QE4hNgpCJBKimUeq-HToz_yq9S3rYkzC5bjw'
  lat: 40.114687
  level: 6
  lon: -88.22473
  name:  'Web Browser Plaque'
- ap: 4261
  img:  'http://lh4.ggpht.com/jEbgkWj4jIpuTGF0BsLL3Qhx62u2Xh7IFfVmCspv6e6FjmSfbeTYkwQgAZ75wN8NpO2Lus14Khr5O4f9jvup'
  lat: 40.094517
  level: 1
  lon: -88.217269
  name:  'White Oak'
- ap: 4411
  img:  'http://lh4.ggpht.com/ZIOjKYlH2wMvdRD5A5HKGJPgBUYAaA7xHjGYnoXNzhzPIE6KR05FBciTJcN-AojoLyuwRlp3SF3TR1PXBrUPjw'
  lat: 40.094935
  level: 4
  lon: -88.216986
  name:  'Leroy Hubble Honorary Bench'
- ap: 4411
  img: http://i.imgur.com/5j1qaiT.png
  lat: 40.204153
  level: '?'
  lon: -88.394092
  name:  'c956d501b48c44ec99467b20bfadc850.16'
- ap: 4411
  img: http://i.imgur.com/5j1qaiT.png
  lat: 40.205206
  level: '?'
  lon: -88.393464
  name:  'ffb1c8830f184f8b9886fbf7c7604a37.12'
- ap: 4411
  img: http://i.imgur.com/5j1qaiT.png
  lat: 40.205076
  level: '?'
  lon: -88.39379
  name:  '88b22f723d954699bdb089ff05d12bf6.16'
- ap: 4409
  img:  'http://lh6.ggpht.com/duOeXcOSQLWosdD0JJXg3pWWQp4t5sL0x9qDHoTIBFNOzEW0t53Lt2cnwgV2E_Su0l1ajIQxPtVbbK_sDRaS'
  lat: 40.141775
  level: 5
  lon: -88.242671
  name:  'Marketplace Mall Fountain'
- ap: 3848
  img:  'http://lh4.ggpht.com/fYq8Qzd7VmDjN_GIWRjblwSGoKKIaUFJTgmMNsJrfWO6c5cZu8xnJc4kDm35ITLO2ePeYakXEDKubdwi0x1K'
  lat: 40.105179
  level: 3
  lon: -88.226931
  name:  'Astronomy Department Sundial'
- ap: 3848
  img:  'http://lh3.ggpht.com/hFkwytijOefeZugpAO9nX8xe0Zazpem9zJKa7S-WYlccBZVMWRqZYIj-iWKNXi5TUWEXjk4HQbKAvCW_3WdE'
  lat: 40.104287
  level: 6
  lon: -88.229415
  name:  'The Pioneers'
- ap: 3848
  img:  'http://lh3.googleusercontent.com/hvoLMUc9UoNVVPttxWTc8PzOWdu5MBmPETnBexH7Alyl20WGCrNa0G_j7DwvD3qbhqpTaeThFhGDV2rCtp8'
  lat: 40.107629
  level: 6
  lon: -88.224484
  name:  'Bucky Balls'
- ap: 3773
  img:  'http://lh6.ggpht.com/c2I39IJvSBKmCLonmhP_RN1vLEpYY1recBXFm8xpGHxES4bAN2kvAcda8ZzvT75uq0yWQCv7N_dzP6ce5-Tu'
  lat: 40.108043
  level: 5
  lon: -88.22469
  name:  'Building of Molecular and Cellular Biology Sculpture'
- ap: 3661
  img: http://i.imgur.com/5j1qaiT.png
  lat: 40.152792
  level: '?'
  lon: -88.253532
  name:  'Toalson Park'
- ap: 3661
  img:  'http://lh4.ggpht.com/4_MOw_NKr2wZ2lzAzG2FlLtA3tfOfWqBZpNVP43LfN6ilD6qHRfZ-_wA1Xk8BnCqHKqKdqodC70X09pqtNXXqmNtK-uqo-fC9SZyOjT6ERfJorzg'
  lat: 40.118388
  level: 7
  lon: -88.245358
  name:  'Springer Cultural Center'
- ap: 3586
  img:  'http://lh5.ggpht.com/g7QDa6-HDyxpwueVfcxh6KOOM1S5jAd2MOOL2H5PYpeafOfFl-8hbijtMhWLHWrvlOdKqglGRiiaWMsEWLN4vw'
  lat: 40.116989
  level: 6
  lon: -88.242255
  name:  'Blind Pig'
- ap: 3661
  img:  'http://lh4.ggpht.com/4fOkmPX5YOrfNgs98zKNwIv5kRHJEUoIYouducEDloHlUY2wGAFlCNQxybwM9YRZZEKCxTucl0tqg2eqiW0'
  lat: 40.108017
  level: 5
  lon: -88.262076
  name:  'Clark Park'
- ap: 3661
  img:  'http://lh6.ggpht.com/-I0G2D5ab8mTsL7xqBbC8ncqUMD5VZFPzUxONYaTcbt6ogXQnVlPsaSqnh7NHJyo89tDr3WOfkV90Mdpo9UTfA'
  lat: 40.106457
  level: 5
  lon: -88.26247
  name:  'Clark Park South Entrance'
- ap: 3661
  img:  'http://lh3.googleusercontent.com/ZEt3dzGoBmn_BW1MwPTE7MY4Jcoj66UkwEA7wA7H40hbb-SwJheC1V67Dh89eAbpG6H_SeWDV3E0X5lRAkQ'
  lat: 40.111342
  level: 6
  lon: -88.23557
  name:  'Boneyard Greenway'
- ap: 3661
  img:  'http://lh4.ggpht.com/l4w3T1e27S5zPAMN3Mr-LqJ51cbm26ThR-ubvfUFHpl28dkeRb_CQThuhJ_HSNhdYt_dX9NTAN9hKFsDeWJQ'
  lat: 40.108295
  level: 5
  lon: -88.224083
  name:  'The Landing'
- ap: 3661
  img:  'http://lh3.ggpht.com/mtgiI5TKcuExETpmdSqIFabkYgVZTaXXLJnaIyzxeHPIunWoj_Fj8BqqwZG4nVQwSnngv15YxD-c_m9CHkr3'
  lat: 40.111202
  level: 5
  lon: -88.226447
  name:  'Boneyard Creek Memorial Streamflow Gaging Station'
- ap: 3661
  img:  'http://lh3.ggpht.com/HX3mWBGofQk08Qdp7A6KMK1AnSXlLEPJR-n6oeX69Efiiss29GHsLiDsHhRS5K8DrXh-QXP1T0AMaOsJmx_w'
  lat: 40.106921
  level: 6
  lon: -88.230145
  name:  'University Lutheran Church'
- ap: 3661
  img:  'http://lh5.ggpht.com/wKYFUitSg7xVcF8jazJLFQH2_SWBC3dL7XDv0bR2l0QeNg-_I0tZ9hxB4Bid2mrta8VMy7tHn7fzFyxzaGlu66CnbZdBethBjUm8oTUecqXh2P0P'
  lat: 40.114327
  level: 4
  lon: -88.224492
  name:  'Siebel Courtyard Structure'
- ap: 3661
  img:  'http://lh4.ggpht.com/dfv9WXc8AIG4SQiUR41qrJI0-s2-zl6hcMaPJOetGKZ2R1dknt0mX1ghGf1zcPNzXcOFpjVSvmXELswwTMO8'
  lat: 40.09627
  level: 2
  lon: -88.218588
  name:  'Idea Garden'
- ap: 3474
  img: http://i.imgur.com/5j1qaiT.png
  lat: 41.142716
  level: '?'
  lon: -89.060025
  name:  '15b50cdb06a24dcc94d2074e167c6e4c.12'
- ap: 3474
  img: http://i.imgur.com/5j1qaiT.png
  lat: 41.142471
  level: '?'
  lon: -89.066295
  name:  'ec5b40c6672749e6b738b2f789ea2969.16'
- ap: 3474
  img:  'http://lh5.ggpht.com/Dnxa0uyF4RKoIJbGj2tdvyDNb0rGtuO_uRKbU5rlo_G2o90ZQh1TJPY85qrIuM3pseJmLtXNbo0wS6tvowaz'
  lat: 40.08479
  level: 4
  lon: -88.331095
  name:  'Butterfly Bridge'
- ap: 3474
  img:  'http://lh5.ggpht.com/7MD3uqic9NvHKG2s5NBkAL6kdsBT10BzFJ6jTSaOfZS8mbyTlRDRYtizrxfH8ZvyqpRWXJHgmC5bk9imHqQf'
  lat: 40.114042
  level: 5
  lon: -88.289889
  name:  'Optimist Club Dedication 1991'
- ap: 3474
  img:  'http://lh6.ggpht.com/TtWbekdbsTWA9hOrt2dc1ID1DnRuGoRbAle9mL9aZvc_aJygqJ9jAMjqrWtVr87WnELkFrSVIpO_4VVZQ67P'
  lat: 40.113103
  level: 6
  lon: -88.290672
  name:  'Kaufman Lake'
- ap: 3474
  img:  'http://lh3.ggpht.com/LI2lDP17lvIghR6Sltj6ECmzcCBHl8dTLBG7BVkPOqTkM9h8PGuXRp7mS8x3bxL-pbQzjV2HyP1y8XWbUzi4'
  lat: 40.100762
  level: 6
  lon: -88.282846
  name:  'Sholem Aquatic Center '
- ap: 3474
  img:  'http://lh6.ggpht.com/aHhLEb8O6JqkElC1drnlJBmq8qeC2WzA4W48qkRQwuE9B6opSfHVKARNHu-uAZN-jvPRznVdmobggqRbw9E'
  lat: 40.100674
  level: 6
  lon: -88.281589
  name:  'Catherine Josephine Feinen Memorial'
- ap: 3474
  img:  'http://lh4.ggpht.com/8Yhp3k9rCZps2AgalC_ip3F4DfS_sWuoDsILaXrP4RmZLhthvaiibjiEOn68zQ_QZyQu1Jyj8yb2lmNUNmrR'
  lat: 40.101186
  level: 6
  lon: -88.282524
  name:  'Rotary Shelter'
- ap: 3474
  img:  'http://lh5.ggpht.com/nWEtxuKQdy0teBBue1DYmG7P3SF5-3A6zlB7GwVHBWlolAZYGq6Br78lWcF9ltFy-KeSlozXie2RmU6JfCUX'
  lat: 40.142673
  level: 7
  lon: -88.244603
  name:  'Italian Statue'
- ap: 3474
  img: http://i.imgur.com/5j1qaiT.png
  lat: 40.152192
  level: '?'
  lon: -88.252279
  name:  'Toalson Park South Entrance'
- ap: 3474
  img: http://i.imgur.com/5j1qaiT.png
  lat: 40.152342
  level: '?'
  lon: -88.252345
  name:  'Toalson Park Basketball Hoop'
- ap: 3099
  img:  'http://lh6.ggpht.com/SCYK-XeMmOyfRrTt1-aQNoDA-2Sib4m5Ch26mTwo6XNdVeVnfi7W74Ik6IRLAPSoKzSS97pgwt50Jl9oSgGfP029USxZzQWKNJo3rbs-6YHBPBif'
  lat: 40.116792
  level: 2
  lon: -88.241752
  name:  'WEFT 90.1 FM Community Radio'
- ap: 3099
  img:  'http://lh4.ggpht.com/H1kV6JSczzSbcCblAHg5ZOgITW1mBAz0_oLbqbzxBlijGTBn7TP6KwA6UI0AAGrCN4VF0DAF79Vcj6_2R4dsB8LRTq6tud6v'
  lat: 40.116164
  level: 1
  lon: -88.241661
  name:  'Zipcar-45 E. University Avenue'
- ap: 3474
  img:  'http://lh3.googleusercontent.com/oYQaQpOQ2HICancOs0DcaCqX1KiTJEoAeKp6EUWBs5u-TjTKqJlzTSzA0QMldAg6HLWb3rX4m4_cwKwGCtpV'
  lat: 40.118684
  level: 6
  lon: -88.244894
  name:  'Farren''s Pub and Eatery'
- ap: 3474
  img:  'http://lh3.ggpht.com/0IkSOblVdAgYOJ2Bk2QqvqWjdstWNQgp7g9oSz1Sq70jG6cLusjwYW76irF9h-c7cafatMcyGsjw85xwYgPQyw'
  lat: 40.118353
  level: 6
  lon: -88.246658
  name:  'First United Methodist Church'
- ap: 3324
  img:  'http://lh4.ggpht.com/-MJc8fCVxpxV7prlhkP3sXPWZ7jsr8Behc29zUJqdz_V57jSg7SzyMUUv7B9Frzu36mJhM2PQkr_LJk-zyM'
  lat: 40.117729
  level: 5
  lon: -88.243645
  name:  'Boltini Lounge'
- ap: 3474
  img:  'http://lh4.ggpht.com/mnyMwxXghZOmxdJw2eJk5U9A5sfO_QLi0eKc2knF3RS3bJhiIa0N7N75KIzjEehKD3ChMFgaOHVRltiOVAw'
  lat: 40.125074
  level: 5
  lon: -88.251776
  name:  'Spalding Recreation Center'
- ap: 3474
  img:  'http://lh5.ggpht.com/zk2PoLrNJK2jAfA0HGQo37eMuSz1YwubD7DuFfadgkLsY_DmoY37jprPnm75I212dvrFjl_O2PQbZOLJL4Y'
  lat: 40.107914
  level: 5
  lon: -88.262811
  name:  'Russell and Louetta Reed Memorial in Clark Park'
- ap: 3474
  img:  'http://lh3.ggpht.com/EGYOVzf1FmU6Mz8ck5GAJFFgeuTA6oTO3IOT84oXeO7EDtQ1lVD7VMiAxfWmaaW4Tg0x8IJ3GJnW-66LEgTN'
  lat: 40.107237
  level: 5
  lon: -88.262891
  name:  'Donna & Otis Myers Memorial'
- ap: 3474
  img:  'http://lh3.ggpht.com/Jjm7ZUINFebdUQM0ZQth9oP9Uyw8xFVkOvgyZHQPHJ1pHk0-WPWHpdBULljg6f9GLhbmItzSwpavqyrf1zXwIQ'
  lat: 40.087721
  level: 5
  lon: -88.248276
  name:  'Work And Play'
- ap: 3474
  img:  'http://lh4.ggpht.com/DJiaqGgwCaKSjYczELIcjQOeBtoEqd--7TZYBJWO9_Nd16vjKwlco9tKatJTdAKT1CPoO7Cj39_rZvp8p0Ch'
  lat: 40.087241
  level: 5
  lon: -88.248222
  name:  'NCSA Blue Waters'
- ap: 3474
  img:  'http://lh6.ggpht.com/sASzuKZleVbY8UGdZnFzs0GXiOHosiNDf-GldJNSs-w2k410HzHcqBrjuvNoklKZ0G4mwuhXmvFPOMlrFXRZ'
  lat: 40.085468
  level: 5
  lon: -88.251369
  name:  'Mattis Park'
- ap: 3474
  img:  'http://lh6.ggpht.com/KD5w0ez9F7rd70ylNnKO8m3t3aROeGF5SZIUT23pb6WisqWmVYgW1SBL-jgNAPy1UKJPgoTlgGjEK9P1BCqJ'
  lat: 40.11243
  level: 7
  lon: -88.235749
  name:  'Fountain at Scott Park'
- ap: 3474
  img:  'http://lh5.ggpht.com/wCcijlSKAEnR2XZa5TUmp4yI3-fMdBVwIYiW5cRCwS5-erBmYI2-h4SWvMWRBDxpse_guTPOMWPmzJtENpff'
  lat: 40.104256
  level: 3
  lon: -88.226519
  name:  'The Morrow Plots'
- ap: 3249
  img:  'http://lh4.ggpht.com/tVyfzfM2_0lowNzuGzuyouGzKVa2p8D1Y1LrAjsxhWtHsK6y5mVL71dZLIu8wVv9kfkvsYrXoRNgrDWdmvmX'
  lat: 40.109736
  level: 2
  lon: -88.224983
  name:  'Methodist Symbolism'
- ap: 3474
  img:  'http://lh3.googleusercontent.com/JtDKcaLvXa-az4aUAoga4ikpwAKEsCsSIgnN9eVPp7q2Tiynz0iyg5e2mk0InXRsJclU6axBXOMi3NcfABUd'
  lat: 40.110065
  level: 5
  lon: -88.225155
  name:  'Wesley United Methodist Church'
- ap: 3474
  img:  'http://lh6.ggpht.com/ccBTHN5qNJjNkD0fG_ipEQKtSNVqZu8Rrp_xkW2wZqmKB-oUGkM97IzwRiThXQIQFp4KEsLk8bL06Bx6Z4s'
  lat: 40.109592
  level: 4
  lon: -88.22514
  name:  'Ecclesia Noctus'
- ap: 3474
  img:  'http://lh5.ggpht.com/85X0vnlHzLPww3OziBoMSVfkwq66eKQNZ9Mn6qsjghvteOQZiAVlsY80NVcsErHao0QYd9IyF7PDJyp-jaQ'
  lat: 40.101632
  level: 6
  lon: -88.233133
  name:  'Sunken Cube at Art and Design Building'
- ap: 3474
  img:  'http://lh4.ggpht.com/S734i_6SihPtJW8WdegLb3gEuKeNx8e1qDm6CXjREzYHohw7XqL82m4EF2K5nS2TixHweLn3EuJ4YoQnrsw'
  lat: 40.107751
  level: 6
  lon: -88.231532
  name:  'Graduate School of Library and Information Science'
- ap: 3399
  img:  'http://lh3.ggpht.com/5OA9gBD9HJe7pZRJ6DjHOGIbC9paid10T5gOLcZS91YP3V0eTMGqvFmPtvp6UtWzb1w2sOV5dbYmxDUFnQ0x'
  lat: 40.101862
  level: 6
  lon: -88.231737
  name:  'Krannert Art Museum'
- ap: 3474
  img:  'http://lh4.ggpht.com/bYrhTw8QophdiqDG-upqJ6JX2g2tZYX4N1jC4d_cciIj4ep8oQvIgjJlfge2VCmzSZe9irj-BTpbj9Jcv7U'
  lat: 40.103009
  level: 6
  lon: -88.233215
  name:  'Mac and Diana Garret Memorial Tree'
- ap: 3474
  img:  'http://lh3.ggpht.com/LR76HrJqriPFUoc2XSs7jb2SotnStZv20kI7rgUx8B5HqhmetnTW4MA1tCp1ws4g5gw0sf9g7M3Lwq4VwfpD'
  lat: 40.111687
  level: 6
  lon: -88.225353
  name:  'Transportation Building - University Of Illinois'
- ap: 3474
  img:  'http://lh5.ggpht.com/cHXnlWuRvdsWlYl544dN4Z4dFmU3Wzw1BEovUj84953CC59BdwR-5pDK8MUkpnAECo3RjUVQMAS0elR08dvD'
  lat: 40.115302
  level: 8
  lon: -88.224932
  name:  'National Center for Supercomputing Applications'
- ap: 3474
  img:  'http://lh6.ggpht.com/6yxAmr2FjIBpCnPpjbRv2_ffdjnZXpB2FX2OgDLnFT0Oay8HbNuXBErpWWje-HkjfKlf0OugYI9CAtbUcgPsA0B7aD9He4jy7otGJ1mBkF_9NwAA'
  lat: 40.111099
  level: 4
  lon: -88.209036
  name:  'Ibidem Statue'
- ap: 3474
  img:  'http://lh4.ggpht.com/g8tAznMB64NxNMd4eYtF27DhNprtAqnBEt_llGcKp1qpKQeUvyHBi8p5QuGURqAGieaeJscmQPi6Wosmutg'
  lat: 40.111328
  level: 7
  lon: -88.209207
  name:  'Urbana Free Library'
- ap: 3474
  img:  'http://lh5.ggpht.com/gzRmKQixkcp4cu1yDSKAOq_7_ipKvFWUCHT7BfpjE6VSSAq7Q08JJGg_jt4FCMWU3ie65fwweNlj4n6dg1aQIA'
  lat: 40.111419
  level: 6
  lon: -88.209885
  name:  'Megan''s Garden'
- ap: 3474
  img:  'http://lh3.ggpht.com/O6KWMS3yeRHd2EWk2OjTB00RVhM_Qhb2N2cDdMTObRRym9RV_RKbca6MkCx6JKPdqJgFoetXy0BR1jWxjvZ15g'
  lat: 40.096357
  level: 1
  lon: -88.218009
  name:  'Idea Garden Prairie House '
- ap: 3474
  img:  'http://lh5.ggpht.com/W2upB0MQ9l_1Z1JYjKFslTSSU-oi3b_kOidwTlG4pOCZRHWiD52CzcX2WMquuVEnMpxhtSRQOuAdLgDn8rs'
  lat: 40.096671
  level: 1
  lon: -88.217873
  name:  'Skull And Wagon Wheel'
- ap: 3474
  img:  'http://lh3.ggpht.com/bVNaflT1bCgFsUDizKeHZFExlTyUFdVVpjEqrpacNh843YeRnU98IEQb8a02eE36XmEJXAkBC-FG1_3ezYP7'
  lat: 40.095365
  level: 4
  lon: -88.216784
  name:  '1867 Garden'
- ap: 3399
  img:  'http://lh4.ggpht.com/CB2hO0soeZeH9zJcpUJoWxRBrHBJn5V73yPitFgOhBRdrsU4JiLlzjLCwGfLLqaR94_-TVg14cNjQWV7k6K9'
  lat: 40.095043
  level: 4
  lon: -88.217723
  name:  'Roy And Marguerite Racine Honorary Bench'
- ap: 3474
  img: http://i.imgur.com/5j1qaiT.png
  lat: 40.203973
  level: '?'
  lon: -88.393369
  name:  'Mabery Gelvin Botanical Garden'
- ap: 3474
  img: http://i.imgur.com/5j1qaiT.png
  lat: 40.205583
  level: '?'
  lon: -88.394066
  name:  'Champaign Countys Lincoln'
- ap: 3285
  img:  'http://lh3.ggpht.com/gS3gT_deXzbDvejCL-5ygs31dw9bLQqYr2nDcLPZiv6nQzahJl12awG1a2pwKbFuoTlsHQYxQ2O7HDXL4-8'
  lat: 40.110358
  level: 6
  lon: -88.230181
  name:  'Murphy''s Pub '
- ap: 2911
  img: http://i.imgur.com/5j1qaiT.png
  lat: 41.310367
  level: '?'
  lon: -88.138705
  name:  '5307bb3cd4dc414ea8750a5d0eeaaad6.16'
- ap: 2911
  img: http://i.imgur.com/5j1qaiT.png
  lat: 40.334333
  level: '?'
  lon: -88.766527
  name:  'e080a514718246ae91d93e990746b2a9.16'
- ap: 2911
  img:  'http://lh4.ggpht.com/yi9OPnLGsLTvtOMNuOUfed6edO9tB6h0QmSHJaKKaiMyEXC8Aj2hz9hIvgh8C2DY76mVgNHw4S0gsYpkPpkt'
  lat: 40.148692
  level: 7
  lon: -88.248724
  name:  'Fountain Town Center'
- ap: 2911
  img:  'http://lh5.ggpht.com/Tn5ARN-X6VTc2q6atZ2WYq3c2g3gbSGXu6_vXf1MDwHfLpdTtnQ-CilBAVGvL6R-SHhq3fJ4WZI-yiJKmIId'
  lat: 40.110398
  level: 7
  lon: -88.235143
  name:  'US Post Office, E Green St, Champaign'
- ap: 2911
  img:  'http://lh6.ggpht.com/pxaCt7clhIXc1RVGMMJZsmnbEWNWjFYJiUrQMev_SeOmXBothvOzmfnirQ5_W8CMa7hpigqydQhKMa4XFCAi'
  lat: 40.108173
  level: 6
  lon: -88.230209
  name:  'Mural on South Sixth Street'
- ap: 2724
  img:  'http://lh6.ggpht.com/p2F3xw4xL4UdiMM9aSy628ISSglrvjPexpF3j340tMAP9MX07yh_sJv7kHVkeud8lyFf2ZwDohw3zsRS2PSd'
  lat: 40.093914
  level: 2
  lon: -88.281531
  name:  'Terry M. Warmbier Memorial'
- ap: 2724
  img:  'http://lh4.ggpht.com/pzRTAVFaG9fsbbBGsLcfuuuMTyFMlR-4-9PAscV7k8pq1vigvt85skTSjpMgKCYMvlC8aY-EOqCxuGOEujXLig'
  lat: 40.124906
  level: 3
  lon: -88.260295
  name:  'Willis Park'
- ap: 2424
  img:  'http://lh6.ggpht.com/NH1CnJnblS1bpZxZJ0VxAHy0tYw7BiYdVK5V9KnTw0N1KMf8OFR6FZP01shVet9ha4cEfSYufO9a1bv8Sqyd'
  lat: 40.12142
  level: 3
  lon: -88.243105
  name:  'US Post Office, N Neil St, Champaign'
- ap: 2649
  img:  'http://lh5.ggpht.com/QNdE7Z3gNcz1M-mzDms1aMrHPZpKr43FIfnMxwfwdp6kP1N6fPKwUzIx5qrt3k_KBeBFRmcD-PXCWq7V2Ygo'
  lat: 40.119969
  level: 6
  lon: -88.243775
  name:  'Mural at Bentley''s'
- ap: 2724
  img:  'http://lh6.ggpht.com/71G0y8a-Y6DpLW3DWoGynP_3lfH8iG-Kjdw01gq-YTrrmx0T3udFLdjNDk9k0yQHDgdvvkWUHdZ6xo0EKLarCg'
  lat: 40.118593
  level: 6
  lon: -88.240416
  name:  'Champaign Rail Water Tower'
- ap: 2724
  img:  'http://lh6.ggpht.com/y10QgRCNt0Bsefqp3olKgJp98whQkS0-vWqPskj3421hcSq96BG-b_KROqsO1mBEcNiYtAKhXuXG0EV0eaUW'
  lat: 40.107152
  level: 6
  lon: -88.235244
  name:  'Bromley Hall'
- ap: 2724
  img:  'http://lh3.ggpht.com/2bCNiD7SWsS3uzFLMO2cZh-LpHUEMQGnfTmcNx5vJapXho2TuXke630-7zop2Sq4fuY8nWVqy4VCG23mvnIJ'
  lat: 40.104168
  level: 7
  lon: -88.238808
  name:  'Alpha Gamma Rho'
- ap: 2724
  img:  'http://lh5.ggpht.com/3RfiPeOzF67ubNX-vkwUJ6-EYld6BKuoBernq0_9kOjlIsSPr3saR9FIQzN7uiw7ouF0CpNflOnL0mUj9zbqdQ'
  lat: 40.109452
  level: 7
  lon: -88.229031
  name:  'Illini Hall'
- ap: 2724
  img:  'http://lh3.ggpht.com/wOZOXhKOnhbKEPMQke-zGIG_vheDkHM8q19B1n_is5H7t1whBcQxBIGZI6VIPNw8mdCNXG6EUZeSjd1YLdngdg'
  lat: 40.108965
  level: 5
  lon: -88.227184
  name:  'U of I Mother''s Association Plaque'
- ap: 2724
  img:  'http://lh3.ggpht.com/V-oTVbkji_q7V9k0WGhQyDum7PEtruXdbp6e-PzZq3sFNxGWdA79FLEv8uGaZrcSwWE15UhTtBB0ZMW0Ig3j'
  lat: 40.127466
  level: 5
  lon: -88.216274
  name:  'Lincoln Bindery'
- ap: 2537
  img: http://i.imgur.com/5j1qaiT.png
  lat: 40.879983
  level: '?'
  lon: -88.629483
  name:  '57c69b29a70b453eaff1cdd86d0705a9.12'
- ap: 2537
  img: http://i.imgur.com/5j1qaiT.png
  lat: 40.605627
  level: '?'
  lon: -89.448501
  name:  '8c5387664a8f4e5481f738265860118c.16'
- ap: 2537
  img: http://i.imgur.com/5j1qaiT.png
  lat: 41.054592
  level: '?'
  lon: -89.050254
  name:  '910fc6ef02d04f249d87f9d6a5b602a0.12'
- ap: 2537
  img: http://i.imgur.com/5j1qaiT.png
  lat: 40.880216
  level: '?'
  lon: -88.628816
  name:  '20a6b01e6c314ec48b9ebc733da62d45.12'
- ap: 2537
  img: http://i.imgur.com/5j1qaiT.png
  lat: 41.1425
  level: '?'
  lon: -89.059087
  name:  'ce69bf20fda944a7986193fae0f4514f.16'
- ap: 2537
  img: http://i.imgur.com/5j1qaiT.png
  lat: 40.879996
  level: '?'
  lon: -88.628818
  name:  '24c2c36a85a04ef3888b6b359f2df845.11'
- ap: 2537
  img: http://i.imgur.com/5j1qaiT.png
  lat: 41.141715
  level: '?'
  lon: -89.055571
  name:  '99bd91c3fca34fab8cdaff30a861887b.16'
- ap: 2537
  img: http://i.imgur.com/5j1qaiT.png
  lat: 40.026865
  level: '?'
  lon: -88.535309
  name:  '978bef9392354bf895fe9c00c1cf2a7f.16'
- ap: 2537
  img: http://i.imgur.com/5j1qaiT.png
  lat: 39.714759
  level: '?'
  lon: -88.473589
  name:  '3210233e62ce4931a16fbb519cdac05a.16'
- ap: 2537
  img: http://i.imgur.com/5j1qaiT.png
  lat: 40.312242
  level: '?'
  lon: -88.201368
  name:  '2012 Employee Dedication Bench'
- ap: 2537
  img: http://i.imgur.com/5j1qaiT.png
  lat: 40.408222
  level: '?'
  lon: -89.064026
  name:  '81396132b8b44e45b2e91d2e0c099619.12'
- ap: 2537
  img: http://i.imgur.com/5j1qaiT.png
  lat: 40.311696
  level: '?'
  lon: -89.169242
  name:  '74a2abe956ec428e8662daadb4b010f1.16'
- ap: 2537
  img: http://i.imgur.com/5j1qaiT.png
  lat: 40.359306
  level: '?'
  lon: -89.10966
  name:  '476b5703ef574927bfaa350d68684773.16'
- ap: 2537
  img:  'http://lh4.ggpht.com/ykcBOYTGpoR392b8KhoJ1HeCMQKdls6__qGzmBtOaVho1L5T2KYhV8130wLVGDT_Hr-dhJX4tl1qSQdDtLZj'
  lat: 40.085955
  level: 4
  lon: -88.332754
  name:  'Robert C. Porter Family Park'
- ap: 2537
  img:  'http://lh5.ggpht.com/zdaFJ-aI4Re55DtEiADt-qd1MMBuWZqEByU3BbT-0eYI80maTD-8JB5vJgtwKPFsFk-V75s-itU-cBisa-W9'
  lat: 40.132819
  level: 6
  lon: -88.286151
  name:  'Dodds Park'
- ap: 2537
  img:  'http://lh5.ggpht.com/-aOZyLFNK96FhUdQBYhmRPZrs_PB1oiLRcrPjKwFBANQ42LxLbbHfTZVw_F01meecQXfNQwJYy7qqVh8Q0gR9g'
  lat: 40.133768
  level: 5
  lon: -88.281275
  name:  'Butterfly'
- ap: 2537
  img:  'http://lh5.ggpht.com/auV57ljlnFqueFTLTeFUjp6iIJxsNFs7P_alBDZ2FNvEvUPvRMBhZCrgQOVfMPf7RIyYAHZLElyAiVoJXCFYkw'
  lat: 40.135716
  level: 5
  lon: -88.291946
  name:  'Campus Solar System - Jupiter'
- ap: 2312
  img:  'http://lh4.ggpht.com/0UzQDuaKLiiPhEgEmKghfkzvXj6lROhxPIDJuI4nWLJFvdxJwGNcJZ1va0K_9cy4L2u0Zyeqv_qlIAwch5o'
  lat: 40.133475
  level: 3
  lon: -88.293988
  name:  'Parkhill Applied Technology Center'
- ap: 2537
  img:  'http://lh6.ggpht.com/v2m1E6vVK4ZRaRPhGli7jCsG7xZQZ7I3vV_5AogdEpPU_A1vz9WEkH0vZ-vau2IAdmydYJcXrOA6SMr7vUfT'
  lat: 40.128726
  level: 5
  lon: -88.290287
  name:  'McMillen Ehler Homestead'
- ap: 2537
  img:  'http://lh5.ggpht.com/S_72RqBcpwyaqDotOOM3zyRvzzZXNgZUSEfOLLDYY9tEvWcEksixMnIL7N-7FO1EpE-CXGydpsChqEkBjX_I'
  lat: 40.131279
  level: 5
  lon: -88.290872
  name:  'Stone Hand Sculptures'
- ap: 2537
  img:  'http://lh3.googleusercontent.com/mFMoKbSLtdP7TnaDrMHLxDWN1FGdQeY6BuKqxtEYSN--Sp6L7DgrpNlGARlPutxd0UNQuEW3WwuNl_Hny6_1'
  lat: 40.13183
  level: 5
  lon: -88.288788
  name:  'Student Union Building'
- ap: 2537
  img:  'http://lh4.ggpht.com/IM3Yvrk727rz6f1euz6nTpei6llE4E4oqn_l-WbxZIN3K6dF8pEa7wGKzbjqfr0DBRubxiNFztHBePH9-Iw'
  lat: 40.132147
  level: 6
  lon: -88.291251
  name:  'Staerkel Planetarium '
- ap: 2537
  img:  'http://lh4.ggpht.com/j5qEdm6GsRybxCSX4X-mcXnDS-HO6__skWjWfYJD7KoQdhnmPT8tJH1t28UW1k-1PYH5J6mpdiX9mkOzvM0'
  lat: 40.077923
  level: 3
  lon: -88.288859
  name:  'Joyce A Millage Memorial'
- ap: 2537
  img:  'http://lh5.ggpht.com/0UmOEvpBIgW2PQGXcdi5IwCRj20o_XAvbFid1HDfkNsc-7eI6YTWM43QdZtBrA0b2Ln6mMEF-hF14BQiYfI'
  lat: 40.07833
  level: 3
  lon: -88.290166
  name:  'Millage Park'
- ap: 2537
  img:  'http://lh5.ggpht.com/BK5TjuMzuJgDVPz4C8HRjfZKeaoISnPJ-H7VaYeMNUYmxvvUY7RzIIlR13FjW9HHF_i5-znqs3O6nMxKPfcj'
  lat: 40.102188
  level: 5
  lon: -88.251507
  name:  'Little Free Library Charter 5753'
- ap: 2537
  img:  'http://lh5.ggpht.com/tZ1lEGRzdFJ7k1jwj0PTGd3tWVTGqCHIb1LcRdjc2pF5IJjsuYFFPQgwEWSBaPapa89oOEPXO_g2XWQxQl2h'
  lat: 40.110212
  level: 5
  lon: -88.276899
  name:  'St John Lutheran Church'
- ap: 2537
  img:  'http://lh5.ggpht.com/dnj__uItXDR_xj-g5PNpGYPNjJCPBFpsx3w9sWxvrOlayO6nyG_Qu8MygtuFZm9i4L2Gho0fkOACtzkGR_e2wQ'
  lat: 40.098457
  level: 7
  lon: -88.276763
  name:  'Mini Park IV'
- ap: 2537
  img:  'http://lh6.ggpht.com/Jz3ahY5LQ13wKWLY9SEvexiinJa3GeO1eB_FynplikRpa77swLST6cUAJjPpqKDSq2KU4Dcyui-QBstz_Z3k'
  lat: 40.094624
  level: 2
  lon: -88.282953
  name:  'Greenbelt 2'
- ap: 2537
  img:  'http://lh5.ggpht.com/tuo_ByFTbwLitFP5cBseOibqRxENxbCwOJ30dCnja5ijBI_qBv5vqNP7ZuZXnxhYM6ms_GbExZEwwKVUtwV2'
  lat: 40.093712
  level: 3
  lon: -88.281583
  name:  'Brownfield Dedication'
- ap: 2537
  img:  'http://lh5.ggpht.com/k51dyIcq_VT8S0cGsHhfgbItaWCMpBfJ9wjHrms0zYNSVH5gfV5-gmxjVatlchfenHsCBRl1uE8AzYJTf8dN'
  lat: 40.117449
  level: 5
  lon: -88.23557
  name:  'Park Avenue Seventh Day Adventist Church'
- ap: 2537
  img:  'http://lh6.ggpht.com/wk0l8Qe7j_Ph_LhyPvdNO6g8nwrxpswodrbNuOzLa3K1QNBrIVidi9iztmDXu3HtCWo5TpqDDjPsEbSl2aWUKg'
  lat: 40.144554
  level: 7
  lon: -88.248689
  name:  'Town Center Park Champaign Park District'
- ap: 2537
  img:  'http://lh4.ggpht.com/U2bGo6sB1AGHiDjQ-rH7wSwqqEX_Rgttee-UbdQR48aDKUrWK3zDdefPtL7CTxHDIksKsqP-9K6AlK8Mjlhe'
  lat: 40.125487
  level: 3
  lon: -88.260193
  name:  'New Foundation Missionary Baptist Church'
- ap: 2537
  img:  'http://lh3.ggpht.com/m6U-TO88Q5GMQfUN_VkhxMau1rCnKRk4Cq4wo4AL6VjfkLQYyM81LdKWD18uetEmGbgMRpaIUgSu68ybtTVr5Q'
  lat: 40.124442
  level: 3
  lon: -88.260589
  name:  'C Richard Vogel Memorial'
- ap: 2537
  img:  'http://lh4.ggpht.com/1viU2QjcAXgQcuyp6MBKY1751-1JGn5AfSHPcgvBGNOyXrKvvAXsCUrrW9_0w9LjaeyscKqh8v2rrMp3Gxoaeg'
  lat: 40.117134
  level: 6
  lon: -88.244337
  name:  'Downtown Flower Island'
- ap: 2537
  img:  'http://lh5.ggpht.com/kDVKmp7jSlZ1o-7qOsCnRovJeghgXHZ8aCDs-HOlcHhrSbcYXNYN2IOODVgKVnUMF_i6KDi2h96TMWnnUlUl'
  lat: 40.117287
  level: 6
  lon: -88.242984
  name:  'Dandelion Mural'
- ap: 2537
  img:  'http://lh6.ggpht.com/ZQaguxPyiC-6DeFDFa2niVKJz3ySxwxYaFCv8PRdNuoMYUfP-Xtirg-8pXCTdBCyH1BruprOVmqf3D1kdp7o'
  lat: 40.115225
  level: 6
  lon: -88.248866
  name:  'Holy Cross Catholic Church'
- ap: 2312
  img:  'http://lh5.ggpht.com/D9O580D9hlBOqeMvt2V4nL-eHP62h4vG4YFgk-WTw7GunusU9AOffFuHZ9XYWoB8YrGxpCMu2Y77-LCAgcdT'
  lat: 40.119328
  level: 4
  lon: -88.243755
  name:  'Birthplace of Champaign / Beautiful Beardsley Hotel'
- ap: 2537
  img:  'http://lh5.ggpht.com/6qIQAtIoPbAVQ1O3BoOnGg6gtTa9fd0JIkxt6P1kmSimVswLaPpCRaLEudsNcMfP_kKb4SCE1By1o3lhYevmIA'
  lat: 40.1172
  level: 6
  lon: -88.243745
  name:  'Circle of Friends'
- ap: 2537
  img:  'http://lh3.ggpht.com/qkbAVT5J9ZNQHzzLNSiw9MN3XrDX3B8bj-xJzu8jKrFdykdTZdsEIlzOKXKVfJ5dZNrhJmG8VHZNeF5pR1G6'
  lat: 40.119977
  level: 7
  lon: -88.242247
  name:  'Seed House Historic'
- ap: 2537
  img:  'http://lh4.ggpht.com/wbrbzDCo3C4qFJyHTWOST5o8B7kwZSWePUWOboIlYrdvxjrhWLqVQ1MqUF5-Hy4nt26x_oHQq9f8EbfdEjVK'
  lat: 40.117382
  level: 5
  lon: -88.243748
  name:  'Days of Venus'
- ap: 2537
  img:  'http://lh5.ggpht.com/FSk5On23hkt2tKQwxmnQmTBsfFpI2Fo62zmSDud2TYOwYe4SjDViMIp_ehdmFSJM-i4vLJr7i74gM7L7FXNR'
  lat: 40.107119
  level: 5
  lon: -88.26221
  name:  'Fraker Memorial Fountain   '
- ap: 2537
  img:  'http://lh6.ggpht.com/2Rx43j2Btq5GI7Atdo-QNNLuFVJkY-7DiyLMNbg2kD1wjE77IXmedVtWOjr6wu_mgieNLBnA0GJLZ6zNF3s'
  lat: 40.110735
  level: 5
  lon: -88.236736
  name:  'Park Place Tower'
- ap: 2537
  img:  'http://lh5.ggpht.com/yK94cjys6dDm62pDsBwEKJP8ioxZEFbb2oelmT5ZMmaNZPkqAXW00NHP3_7fvtyG796u2ZhKGfbY7To9Sdtz'
  lat: 40.088063
  level: 5
  lon: -88.248271
  name:  'Still Waters'
- ap: 2237
  img:  'http://lh5.ggpht.com/llyW63Gnxl-lT-L_MhXsl4mdbmv29RvYTWcLt1R7JxibVPORq5Wd_UHIdT-vQ0XaUqZVQiN2mXkV4KJpp5sm'
  lat: 40.1159
  level: 2
  lon: -88.238508
  name:  'Dallas & Co: Costumes and Magic'
- ap: 2537
  img:  'http://lh3.googleusercontent.com/vJ_iyOb44eFzOJUNpRouOPDI8rKgOESn7TWw9U9BR3OcWsb6Oak-SSfVH4iPPmtXJdk30rqet1D0KxVohiBC'
  lat: 40.114712
  level: 5
  lon: -88.238392
  name:  'Mexico Mural'
- ap: 2537
  img:  'http://lh4.ggpht.com/ETgOsKlMmsv5wRT-aM33VVVEgFvp3ZoMxqXmYKxROpFAYnfPqjWhltqYBG7ajEuM8XKf3mVeSaF7r9grm2t8'
  lat: 40.113448
  level: 6
  lon: -88.237188
  name:  'Boneyard Creek Second Street  Basin'
- ap: 2537
  img:  'http://lh3.ggpht.com/_K7sIxE489M-QkUoRrgaLB_XBi9BcOI563VzvhOcmhjwHsLO51ORrhkiWZkqThKNBlPAYzclT_qdR_sGe8g'
  lat: 40.114277
  level: 5
  lon: -88.238879
  name:  'Prow 2'
- ap: 2537
  img:  'http://lh6.ggpht.com/TwC89nGrBzJ04y3Sg9V93v2G1oFzqJ-bZzRxnsFKM-THGVa5DqKX5Wd0kovQtOOSv-KqO5qjLITC9ITAr4O2fw'
  lat: 40.119588
  level: 6
  lon: -88.238445
  name:  'Allen a Rivers Memorial Plaque'
- ap: 2537
  img:  'http://lh3.ggpht.com/ei2Kly4PJYB7wpv5MtMVvHz793oQIWOLbz-mjq2ICitv-6BTGVsfA0kPQXiwg3O2Mi__LvZvuashS63u2rwa'
  lat: 40.117638
  level: 6
  lon: -88.227214
  name:  'Under the Sea Mural at Presence Covenant'
- ap: 2537
  img:  'http://lh3.ggpht.com/gmbd8dsk--9MGBF9b8_huzNpPbjrzDw5R9UjqSiA05cRHUIOQRcR-dODKZ9oGUjBnMfufSVzvCekV_YsoOM_'
  lat: 40.118013
  level: 6
  lon: -88.227532
  name:  'Presence Medical Center Triplet Mural'
- ap: 2537
  img:  'http://lh5.ggpht.com/2PB1u3cNuASfw9D_MIUzI1JvNofebK7zsuGqKoUApr-nUWYZ8y5CzxH6g7CdcY7ShBaVGrBrurkbwrdUPD7JBk55TH0Ouao5b_g2jUI1saBNUE8'
  lat: 40.106744
  level: 3
  lon: -88.225347
  name:  'The Red Herring Vegetarian'
- ap: 2462
  img:  'http://lh5.ggpht.com/gkIcCbfmQWyJ7s9ryhzfOOn1K-oa8huqzZN80X2psVjx_6Iur5egjGncbUIAMLiAJAf9qG1Ac8lX2MomHYY'
  lat: 40.108185
  level: 5
  lon: -88.225203
  name:  'Statue at Medical Sciences'
- ap: 2537
  img:  'http://lh5.ggpht.com/ucFkWovrZBr6wFMicSGD78p44tqzcyfJCvQuAocYo0do3ODoHsOeAMphZZferoOLkGfuJPQVlILRzKG1vAPg'
  lat: 40.109172
  level: 4
  lon: -88.231151
  name:  'Illini Life Christian Fellowship'
- ap: 2312
  img:  'http://lh5.ggpht.com/Zoidr1eUAO2UEM6SyifBpkC3K42Ctl355Krd3S2ZU3BbbIMt1XFKF4C35huJT7a-K1PMF6JCK3ztTnr2Wbc9zw'
  lat: 40.109178
  level: 3
  lon: -88.22945
  name:  'Pineapple Pillar'
- ap: 2462
  img:  'http://lh3.ggpht.com/2wN9MWxEFPbMzRPAzNmaAiCOQJj_EFr94Y1YkQP_wMlyajkajmcw00gqW-EluMvpQmvnGgcQ-WdPxjcYTmr2'
  lat: 40.106519
  level: 5
  lon: -88.223748
  name:  'Thunderbird Theatre Mosaic'
- ap: 2537
  img:  'http://lh6.ggpht.com/MzDfG6eMMwVr56zIpVxRJKU2aoUq-95CLeBhoiEQQKzpC2zulq5jFDLv1IK0JcRy5Q0PhRAreZ1p2ElsdnNu'
  lat: 40.108048
  level: 5
  lon: -88.226279
  name:  'Nuclear Magnetic Resonance II Plaque'
- ap: 2537
  img:  'http://lh5.ggpht.com/dgQfoxxVeHT5ODqLiUYHV45qvkC_BMS0kIFRqvHvE2GO0TduZ0-XzhW8RE80LtPDK0Ay5xwA6PtjM7G3C9U8'
  lat: 40.108947
  level: 5
  lon: -88.232251
  name:  'McKinley Church'
- ap: 2387
  img:  'http://lh4.ggpht.com/mHAXKPtOyg_DWRs5A_0yhGeDsfU4f4o3xJvzziri7o3ksPPKtMAHUkUBOb0JJ78gArdP5Q6O-UiXNDG3RHaIYQ'
  lat: 40.109339
  level: 4
  lon: -88.234149
  name:  'Alpha Delta Phi Fraternity House'
- ap: 2537
  img:  'http://lh4.ggpht.com/pWMrJGcrxdHbkyzK9GJLFBQdvgWtZzdJOIMHr66tCffHpsZd5e8NTrSPkYm0T9i4vtEVhARdLo6tZ7xLadU'
  lat: 40.108294
  level: 4
  lon: -88.224348
  name:  'Bird Of Prey Statue'
- ap: 2537
  img:  'http://lh4.ggpht.com/0j8eeTKJgjnYhHpf4qH_70CZHLbujC5v-XP_ndcqh1xIR-5V2K_CGdjIe1ZfMbwvSyISxxYKoZynw1DaQcj8'
  lat: 40.105874
  level: 6
  lon: -88.230562
  name:  'St. John''s Rectory'
- ap: 2537
  img:  'http://lh6.ggpht.com/vlKOFCgVZb_8XoZHDdzD2X9Xsejb8QVVqEM5U4YfgnKJbQIIHHSK2hSpgycF7vqRkGKRYYnbjVTyKS8dsHF3ChRyF01faLh907jhNd__xiEkGTWx'
  lat: 40.111225
  level: 5
  lon: -88.226537
  name:  'Fire College Plaque'
- ap: 2537
  img:  'http://lh4.ggpht.com/L3_3bdFGcwi5zvNhxvPnMFZZEm1bKFSEVI3DOlF-FaUcX4jDGEwZ8xezrXUq6-71tbPP7kIe9PT1CTTY-ZjJ7A'
  lat: 40.114539
  level: 4
  lon: -88.224663
  name:  'Bench of Opportunity'
- ap: 2537
  img:  'http://lh3.ggpht.com/I8Cra-oBAq7td_84j0G8l8DIMXhxPP-O8A8xPb1WZb8O2s9DBapV_osKefRuzzDGDhcPRA9WT7yaPBvkGE4g'
  lat: 40.112836
  level: 6
  lon: -88.22802
  name:  '1909 Senior Memorial'
- ap: 2537
  img:  'http://lh6.ggpht.com/RR0i4QdfoY8NkTQtssdOtDLhAEaCR7e-R4ipk5NzdKe9lTGDq2nyKI_7sF2BCXrgCZAZ2zEEtIzS7vg6Pu0hzA'
  lat: 40.126458
  level: 6
  lon: -88.218544
  name:  'The Vineyard Church'
- ap: 2537
  img:  'http://lh4.ggpht.com/BL7RVMX7ZBl59uh3qjTqPi1OQTCLnWHiY3GLhCR_f8oAL1PmddwJq3mnTe-UN1IYkQSOR5i2cgpaA6oNdny6'
  lat: 40.12807
  level: 6
  lon: -88.215897
  name:  'Busey Woods Trail Entrance'
- ap: 2237
  img:  'http://lh3.ggpht.com/KWHNT4EiiNGpY2l5u1PUHpwnZQcM-ACjcmsF_Ud469mGwgvKWxlH5LM7vyX0NwuZxEcytY7HhFwRRn9onRocwg'
  lat: 40.112532
  level: 2
  lon: -88.208181
  name:  'Urbana Cinema'
- ap: 2312
  img:  'http://lh4.ggpht.com/vyb3xebaf6kWGvQZV2w4QYPG9Oq_jn5wQvUgg3Hp6yvCen9WsHW58eQR3VNCjHZWFzIM1qJ8oDbzRmhR3LM1'
  lat: 40.11233
  level: 3
  lon: -88.207706
  name:  'Alfred D. Costello Dedication'
- ap: 2537
  img:  'http://lh3.ggpht.com/aiChar0HYKb_3M9or6hd38rkSeuoh1TUUL4LtW726Z-JKNYpIttW_3dFH4DHDYGBAkxkwBiz5Ye8_zqttsgs1A'
  lat: 40.092797
  level: 4
  lon: -88.217182
  name:  'The Ponds at UI Arboretum'
- ap: 2537
  img:  'http://lh6.ggpht.com/tvtZZis6qG1YsnE4ZRp9fdL3-XEu08jw8oYvSOYqkbrIkD71abS7blCPv63VovyNFWlpHvmXTjl3tl-lXII'
  lat: 40.092821
  level: 4
  lon: -88.218095
  name:  'Japan House Tsukubai'
- ap: 2537
  img:  'http://lh6.ggpht.com/ad2h2do8iOTNq50gTAwl3f2bUcZjuEpKP2drKtW_GvedYoW8SgNoguDJXlhw-CtfL55fWxsL1EL0jlpHHXaE8A'
  lat: 40.134027
  level: 5
  lon: -88.190146
  name:  'Canine Commons Urbana Dog Park'
- ap: 2537
  img:  'http://lh4.ggpht.com/KsmRX5P5UbaolWiuVxkfCCEqGC1hzAjUwXW92kI7ONqLlxLxa_7i9IOVyNYisv_wMY8MGmeCVZodfghe5i33'
  lat: 40.127323
  level: 6
  lon: -88.189447
  name:  'Urbana Dog Park'
