- ap: 13218
  img:  'http://lh3.googleusercontent.com/y0rrjoCeaUkyAgUkJRkr2IYQgDQ3K6Vt9sUdR7rpMiOaxHqewda8goYAgVa20Y8L1QHIIodAGPdbDuMZOok1'
  lat: 40.127703
  level: 6
  lon: -88.211526
  name:  'Busey Woods Trail - Wet to Dry'
- ap: 12844
  img: http://i.imgur.com/5j1qaiT.png
  lat: 40.312242
  level: '?'
  lon: -88.201368
  name:  '2012 Employee Dedication Bench'
- ap: 10220
  img:  'http://lh5.ggpht.com/sF7lKjQa6S3nhaNE0eY9h2BozLXUrtnucsZvqAKKD_ZrLPFTVf8thR2l28H7-R4sxheNrwB3hEujhIk1_4E'
  lat: 40.126699
  level: 7
  lon: -88.209995
  name:  'Fly Fishing Sculpture'
- ap: 9283
  img:  'http://lh4.ggpht.com/GsF83mQilY6LIEvSeaGzU2sGjQnFmNgTzi6gPFGKt1K-Yd40nunFYDQs97tOMf-RgMbeGBl2pwi33cd0L11U'
  lat: 40.126708
  level: 6
  lon: -88.208946
  name:  'Busey Friendship Grove'
- ap: 8909
  img:  'http://lh4.ggpht.com/MhW7sdKYdOt__Gmefy7CMOI4_Q8_dqGGb_qolwk4Uf7b_fpr8t5QM5QiCFUOe_ZpsgAfLhPSU_lbVTX5DIEX'
  lat: 40.125951
  level: 7
  lon: -88.209474
  name:  'Give Creeks A Chance Street Art'
- ap: 8720
  img:  'http://lh3.googleusercontent.com/5Te-dafekqHMAY-HjKfNk0CcYyFpxK86OuYWSOTFv8saT6pfl_rqyJMVlnF2ccsu1T2mA6ScXOl5SUPIMypR'
  lat: 40.126769
  level: 6
  lon: -88.215041
  name:  'Busey Woods Swampland Overlook'
- ap: 7409
  img:  'http://lh3.googleusercontent.com/hF5kZFrZGRZkYYPDY8q06SkEPkSLljkbEbCI4gcyZ1QU1-wpfBV_Cma3GT6YE6PTdRBZr-7NuaDvVEm7oQU'
  lat: 40.128105
  level: 4
  lon: -88.210924
  name:  'Busey Woods Trail - A Change of Scenery'
- ap: 7409
  img:  'http://lh3.googleusercontent.com/eTQ9CkXix_kovUmX48krAoSy9iHiLPqf47J3f7AZN6Rk3GFlkf4DJKkCp51iJvzi5Vt3M3wjjMcwOc_4scYq'
  lat: 40.127246
  level: 5
  lon: -88.210084
  name:  'Gateway Trail Information Kiosk'
- ap: 7409
  img:  'http://lh3.googleusercontent.com/IjFn38FDtBJH-mPUV2G-iLjG9eOxcQ0m6Go6BOImGLXhu03Bd5Vs8EtAzPrfKH7uQFYlI_S8eQCZkaZp7kTO'
  lat: 40.125757
  level: 6
  lon: -88.20788
  name:  'Nature Center / Family Aquatic Center'
- ap: 7409
  img:  'http://lh5.ggpht.com/n-WJVk4VFfgCVfLuyItrEjDCHgOd5YN1Z1ts6qT6-RmXvFyDeNKYarXwzwHKyd5B9tGmezRoEzKX4EFKmaY'
  lat: 40.124947
  level: 5
  lon: -88.210509
  name:  'Trail Marker in Busey Woods'
- ap: 6285
  img:  'http://lh6.ggpht.com/RR0i4QdfoY8NkTQtssdOtDLhAEaCR7e-R4ipk5NzdKe9lTGDq2nyKI_7sF2BCXrgCZAZ2zEEtIzS7vg6Pu0hzA'
  lat: 40.126458
  level: 6
  lon: -88.218544
  name:  'The Vineyard Church'
- ap: 6098
  img:  'http://lh6.ggpht.com/dIDmkL7jHZb1am2ptK9LrO6Ht_8jTKb3IOvGamBqIYzLXPgtEoPCV_9dMsqLxrgz8_MSq3UsEy9t49y_pqOd'
  lat: 40.125715
  level: 7
  lon: -88.2091
  name:  'Crystal Lake Park Aquatic Center'
- ap: 6098
  img:  'http://lh4.ggpht.com/KS4k0iDFceOcG_wEnQeqAeJpCkwjbjTItb2FUsyUJGsnhDizNqvrXmfee70SUhCcQ10_m1vv1vtcNRrFhIc'
  lat: 40.126039
  level: 7
  lon: -88.209117
  name:  'Water Sculpture'
- ap: 6098
  img:  'http://lh4.ggpht.com/JVNlRlxb-5k_pDpi5lUduOZu2NO-CKdaVaa4Jj_IHDLIxC31OEc6zpyO8qklRI58_wB2fH1m8LUHOJW_GME'
  lat: 40.125389
  level: 5
  lon: -88.209627
  name:  'Crystal Lake Tree House Club'
- ap: 5535
  img:  'http://lh3.googleusercontent.com/uMbzVioq9unnFDGacYnsGny4JTtrKoGuPJj22cChPVUqowmnw1xksjfIosvYJ09QV75VuGd5-rq60N1a6BxG'
  lat: 40.127017
  level: 5
  lon: -88.209948
  name:  'Busey Woods Gateway Trail'
- ap: 5535
  img:  'http://lh3.googleusercontent.com/3D4iw0KqepF1bbKRNj6ebypAUq7FVTqBJbO7gFD--1oICgz-GwSb12jnN9ELtg61k8V8G_6E4C1pdiMj8qz-Hw'
  lat: 40.128772
  level: 4
  lon: -88.211041
  name:  'Busey Woods Trail Shifting Views'
- ap: 5535
  img:  'http://lh3.googleusercontent.com/3Myf6CnmcDIYbRC1TWtiQ0Q34tm-r8kQZQ8GjoGZ4AI5ome7PHiB7E6Maihk_SvkVJF8LPW5RSjo36Bsa7VM'
  lat: 40.12807
  level: 6
  lon: -88.215897
  name:  'Busey Woods Trail Entrance'
- ap: 5535
  img:  'http://lh3.ggpht.com/V-oTVbkji_q7V9k0WGhQyDum7PEtruXdbp6e-PzZq3sFNxGWdA79FLEv8uGaZrcSwWE15UhTtBB0ZMW0Ig3j'
  lat: 40.127466
  level: 6
  lon: -88.216274
  name:  'Lincoln Bindery'
- ap: 4598
  img:  'http://lh3.googleusercontent.com/hJZWoErzM-MuXulq4FlhlZwMbJX1Isd81GBUBVKayd57jVIVxUle3itd-1DRKo2VaNXznWr1X639fa44Etk'
  lat: 40.141919
  level: 6
  lon: -88.244611
  name:  'Marketplace Mall Carousel'
- ap: 4411
  img:  'http://lh3.ggpht.com/07XrBN-er6Ecleor0n9RJ4DfGO6B2yn-ZxjI-Uy8Ba46Jtb6cXNVmATPiPiGyk-1jZ4wxa7-EeIWbWUqArCG'
  lat: 40.142554
  level: 5
  lon: -88.243468
  name:  'Dog Heart'
- ap: 3661
  img:  'http://lh5.ggpht.com/e0BZy-ClP4miKQ9vYfkRIgxEUrpGMn9VCB-nRa_Kj579pT19ZzPuvvL1MRfd1Xu_pzF1eA-hvVhF6zLxaUTCsA'
  lat: 40.104118
  level: 3
  lon: -88.285677
  name:  'Mike Phillips Memorial Plaque'
- ap: 3661
  img:  'http://lh6.ggpht.com/duOeXcOSQLWosdD0JJXg3pWWQp4t5sL0x9qDHoTIBFNOzEW0t53Lt2cnwgV2E_Su0l1ajIQxPtVbbK_sDRaS'
  lat: 40.141775
  level: 5
  lon: -88.242671
  name:  'Marketplace Mall Fountain'
- ap: 3661
  img:  'http://lh3.ggpht.com/CwgYIhVaivHHg_U6yqu5KSGhSh9ipRBDu7G192KiQfrnXc7C8uh7UOh6MP91vhZJ3LZdiTaFwpvFukvIaj6J'
  lat: 40.117445
  level: 3
  lon: -88.243409
  name:  'From Swords to Plowshares'
- ap: 3661
  img:  'http://lh3.googleusercontent.com/mLqVBFC7xDFMCE6vvQLt7bEwzmAtOWSfPoxCDNPJ0aagTDdQtJZKZTbPDs_QXPyKJ-tqZHYr89xorZ0Aa0M'
  lat: 40.128515
  level: 7
  lon: -88.212038
  name:  'Busey Woods Trail - A Helping Hand'
- ap: 3474
  img: http://i.imgur.com/5j1qaiT.png
  lat: 42.099208
  level: '?'
  lon: -90.124409
  name:  '10ed20c191ba41f2adae711e31eefc91.16'
- ap: 3474
  img: http://i.imgur.com/5j1qaiT.png
  lat: 41.812964
  level: '?'
  lon: -89.960782
  name:  '3c1dbc0d09074f82a2a6e59c61662eb6.16'
- ap: 3474
  img: http://i.imgur.com/5j1qaiT.png
  lat: 41.562534
  level: '?'
  lon: -89.650933
  name:  '3a45fd306eda4e65b42f9e07672cd0cf.12'
- ap: 3474
  img: http://i.imgur.com/5j1qaiT.png
  lat: 40.407552
  level: '?'
  lon: -90.15499
  name:  '3f2d0e4d31d447ffa1a56feea2ef39f1.16'
- ap: 3474
  img: http://i.imgur.com/5j1qaiT.png
  lat: 40.374119
  level: '?'
  lon: -89.547077
  name:  'a5aedbc11874475aaf493785aebc1e7c.12'
- ap: 3474
  img: http://i.imgur.com/5j1qaiT.png
  lat: 40.799199
  level: '?'
  lon: -90.165121
  name:  '9a7e2748618f4613b9fbe346efa65b8d.12'
- ap: 3474
  img: http://i.imgur.com/5j1qaiT.png
  lat: 39.984882
  level: '?'
  lon: -88.258895
  name:  '0532d10ca76f4f4a899fb08a14bf968f.16'
- ap: 3474
  img: http://i.imgur.com/5j1qaiT.png
  lat: 39.914462
  level: '?'
  lon: -88.27434
  name:  'e6d5eb29ead54497b74dab02ff62f147.12'
- ap: 3474
  img: http://i.imgur.com/5j1qaiT.png
  lat: 39.91465
  level: '?'
  lon: -88.273338
  name:  'd7386e06127b49d6b843c5d81d79fe83.16'
- ap: 3474
  img:  'http://lh5.ggpht.com/8M0cUsd4eq3jg7zuefsRRnxKhwn5q8xipPHTaf8z-o4xdGPYl0NgpiXIMDSknrQjcvRUOzyzWYsXHRqlfOY'
  lat: 40.102064
  level: 3
  lon: -88.284067
  name:  'Lindsey New American Gardens '
- ap: 3474
  img:  'http://lh5.ggpht.com/uICg1AgxErKugaXSVrAGclLigtqDUyOsaOIldV_S086SuGvckMN90PIxdZehZMktOsdxW3Ok9k7Hcx5UJSd9ZA'
  lat: 40.102217
  level: 3
  lon: -88.283855
  name:  'Lisa Dodds Memorial'
- ap: 3474
  img:  'http://lh5.ggpht.com/tuo_ByFTbwLitFP5cBseOibqRxENxbCwOJ30dCnja5ijBI_qBv5vqNP7ZuZXnxhYM6ms_GbExZEwwKVUtwV2'
  lat: 40.093712
  level: 5
  lon: -88.281583
  name:  'Brownfield Dedication'
- ap: 3474
  img:  'http://lh6.ggpht.com/p2F3xw4xL4UdiMM9aSy628ISSglrvjPexpF3j340tMAP9MX07yh_sJv7kHVkeud8lyFf2ZwDohw3zsRS2PSd'
  lat: 40.093914
  level: 5
  lon: -88.281531
  name:  'Terry M. Warmbier Memorial'
- ap: 3474
  img:  'http://lh6.ggpht.com/Jz3ahY5LQ13wKWLY9SEvexiinJa3GeO1eB_FynplikRpa77swLST6cUAJjPpqKDSq2KU4Dcyui-QBstz_Z3k'
  lat: 40.094624
  level: 5
  lon: -88.282953
  name:  'Greenbelt 2'
- ap: 3474
  img:  'http://lh5.ggpht.com/nWEtxuKQdy0teBBue1DYmG7P3SF5-3A6zlB7GwVHBWlolAZYGq6Br78lWcF9ltFy-KeSlozXie2RmU6JfCUX'
  lat: 40.142673
  level: 5
  lon: -88.244603
  name:  'Italian Statue'
- ap: 3474
  img:  'http://lh5.ggpht.com/6qIQAtIoPbAVQ1O3BoOnGg6gtTa9fd0JIkxt6P1kmSimVswLaPpCRaLEudsNcMfP_kKb4SCE1By1o3lhYevmIA'
  lat: 40.1172
  level: 5
  lon: -88.243745
  name:  'Circle of Friends'
- ap: 3474
  img:  'http://lh4.ggpht.com/wbrbzDCo3C4qFJyHTWOST5o8B7kwZSWePUWOboIlYrdvxjrhWLqVQ1MqUF5-Hy4nt26x_oHQq9f8EbfdEjVK'
  lat: 40.117382
  level: 2
  lon: -88.243748
  name:  'Days of Venus'
- ap: 2911
  img: http://i.imgur.com/5j1qaiT.png
  lat: 40.272743
  level: '?'
  lon: -88.675349
  name:  'Adams Leaning Wheel Grader'
- ap: 2724
  img:  'http://lh3.ggpht.com/5awYU9vtQhrJgqVWTgorW3FfOKgjEZtgRjWYRBTLqZxOOiuKje_aALtsSDOrslkMHWZqO4ZLwael60DZWxY'
  lat: 40.111807
  level: 4
  lon: -88.295361
  name:  'Unity Baptist Church'
- ap: 2724
  img:  'http://lh5.ggpht.com/0m1i3CJSj3bKhLj5BgXi8SFpgoihNsBoN6fpccgDU2tjtPcA5BqB1IxvR0yAX9FWkgt3_Q8gbAyGfdJDliGP'
  lat: 40.115142
  level: 5
  lon: -88.238658
  name:  'First Street Antiques'
- ap: 2537
  img: http://i.imgur.com/5j1qaiT.png
  lat: 40.457257
  level: '?'
  lon: -88.372597
  name:  'ebaa4a5573f7449399263066d9248473.16'
- ap: 2537
  img: http://i.imgur.com/5j1qaiT.png
  lat: 40.441099
  level: '?'
  lon: -89.313489
  name:  'fa303e162e1349c7ac2d93cf3df18bf0.16'
- ap: 2537
  img: http://i.imgur.com/5j1qaiT.png
  lat: 39.80624
  level: '?'
  lon: -87.673321
  name:  '5e0bde2eecea47feb72244027e8346ba.16'
- ap: 2537
  img: http://i.imgur.com/5j1qaiT.png
  lat: 41.987551
  level: '?'
  lon: -87.656591
  name:  '34faacb0dd1843819f1e222a0a7f7c74.16'
- ap: 2537
  img: http://i.imgur.com/5j1qaiT.png
  lat: 42.766003
  level: '?'
  lon: -86.203201
  name:  '06552943807d42e19f2afc7f16a94b7a.16'
- ap: 2537
  img: http://i.imgur.com/5j1qaiT.png
  lat: 40.743666
  level: '?'
  lon: -88.504875
  name:  '2d719dd62f7e491b860a85095e05d959.16'
- ap: 2537
  img: http://i.imgur.com/5j1qaiT.png
  lat: 40.392777
  level: '?'
  lon: -88.872222
  name:  '457d173f728846fbaf0e7d83f3625cba.11'
- ap: 2537
  img:  'http://lh3.ggpht.com/4b6ZQuP0tb_xLUTbymIlLrHiMm8NTxgLY021uO-WQ4Z42V3CMXR_2S_aEZOb929B0D30IddZrRKGigpHQqP2'
  lat: 40.113738
  level: 5
  lon: -88.296023
  name:  'Turtle Rock Sculpture'
- ap: 2537
  img:  'http://lh5.ggpht.com/8EXhrgcMBH0nDBQWTAlAwNIhxzaY7maIjYjg3fJnzGIp6_FNs98dPrYY4mtl4vhkPI5WQ1Xp8_V4vj2hAb9a'
  lat: 40.112026
  level: 5
  lon: -88.295327
  name:  'Carpenter''s Union Hall'
- ap: 2537
  img:  'http://lh4.ggpht.com/T6VoVDge6344GK3Vri5Uf2d902pq2ZBJE7UnLB2cPfRhZSqnnlleRRy2IlO70H7UHzhoxXcmSVEtTJnl6iHiKg'
  lat: 40.108256
  level: 3
  lon: -88.285924
  name:  'Bresnan Meeting Center'
- ap: 2537
  img:  'http://lh3.ggpht.com/waYCvQnciDHIQoBYQqAoe2ioBs3DAhMQQsBboKyfNVNSWibmmRTf0SLvaoU5EwCFyWydn7rCCfrLXtLqQfA8'
  lat: 40.135683
  level: 4
  lon: -88.27634
  name:  'Champaign Fire Department'
- ap: 2537
  img:  'http://lh5.ggpht.com/ulBje3DZHcOGkPDTXihNL1tamRAm_GO1CREW8fA5fV0Znq1eF2J1hnbSZh35emEA1h9cL1qTj9FqGtb8VywgXQ'
  lat: 40.13765
  level: 4
  lon: -88.273074
  name:  'Garden Hills Park'
- ap: 2537
  img:  'http://lh4.ggpht.com/-MJc8fCVxpxV7prlhkP3sXPWZ7jsr8Behc29zUJqdz_V57jSg7SzyMUUv7B9Frzu36mJhM2PQkr_LJk-zyM'
  lat: 40.117729
  level: 6
  lon: -88.243645
  name:  'Watson''s'
- ap: 2537
  img:  'http://lh4.ggpht.com/W2chhQwPqSJEkl57NVoIL-OE4KFvJfp7Bsrrxza1apCYltcT3npz95LJxqHxvT9ZZu7wxF2gQy-5bpKal2p2'
  lat: 40.115838
  level: 6
  lon: -88.241338
  name:  'Illinois Terminal'
- ap: 2537
  img:  'http://lh6.ggpht.com/uaO1clC1eOzxRVRPPU6mVM4lEPV2U6uxh64a8kJNRglHSObClWlHGEcfJTknzwB_7Wli3doxQJbZKiBHIXI'
  lat: 40.102834
  level: 5
  lon: -88.241672
  name:  'Rehabilitation Education Center'
- ap: 2537
  img:  'http://lh3.googleusercontent.com/enpZZ8JRREFPTvYd3jbeUlpS-mmcwKe5fsvoWRPkfMUj6PijyI-5tbR55UItBoNJAFSl9fAAOvXb6BpWCJT4'
  lat: 40.102495
  level: 7
  lon: -88.242132
  name:  'Nuclear Physics Lab'
- ap: 2537
  img:  'http://lh4.ggpht.com/ETgOsKlMmsv5wRT-aM33VVVEgFvp3ZoMxqXmYKxROpFAYnfPqjWhltqYBG7ajEuM8XKf3mVeSaF7r9grm2t8'
  lat: 40.113448
  level: 4
  lon: -88.237188
  name:  'Boneyard Creek Second Street  Basin'
- ap: 2537
  img:  'http://lh6.ggpht.com/Qfyp6BK43B93Oo5kazv7b-62q_5cx5GKxXPyw6Juss-A6AgPx81B0lyWhzW7Ava9ztLzedt07gEh3ia2PPFDwQ'
  lat: 40.113636
  level: 4
  lon: -88.208146
  name:  'Jolly Roger'
- ap: 2537
  img:  'http://lh6.ggpht.com/FsUBggh0M3sjncoth6JaamkCglQtDsuiR89k30B2sMp7srgh0Hz6trgv7BhNRSJA6qI7OvipV8B3XEhzHmaNxA'
  lat: 40.113513
  level: 4
  lon: -88.207559
  name:  'Black Dog Smoke & Ale House'
