- ap: 11346
  img:  'http://lh5.ggpht.com/-UWK84I78Sftf7yg-E2pg6xEAWTvyiThgJBJlxbqOZPYKNmzQ8uGgEEMetzplrG1HpXG5kQqNItUeXKxOHDsGA'
  lat: 40.100286
  level: 8
  lon: -88.251747
  name:  'Tennis Anyone'
- ap: 9472
  img:  'http://lh5.ggpht.com/C6wRSaEWO1NYGY5luyYZKHG3Z3aib4aflaPdV7B9G6N6adE890g3QuPRSvCUhsdFHqjoVUjo27mfz9WsjXyuhQ'
  lat: 40.100521
  level: 8
  lon: -88.250864
  name:  'Gabriel Patrick Maxeiner Memorial'
- ap: 8909
  img:  'http://lh6.ggpht.com/yjfa0jJLjsfLRf9Zn9iafMp3MuIhgCi0WiOCF8GqTGiGvzEnsPGrFa0H1n-uzWhVehLbt44ShthsA32VzHd5iQ'
  lat: 40.099737
  level: 8
  lon: -88.251157
  name:  'Tyler Van Atkins Memorial'
- ap: 8909
  img:  'http://lh3.ggpht.com/rUgM7jkTqL0VHxvsSW0yWuNJF5UrU62ITflghfn4PfKjn6L4WGz0ALkv98fc_q9dmK9SSpU1PXIawGvcRwE'
  lat: 40.098246
  level: 8
  lon: -88.251974
  name:  'Hessel Park'
- ap: 7972
  img:  'http://lh6.ggpht.com/qSCp5fQMlyCQ-GOAgiSFy5gaHJei705Pa3eOlJiYO5wGjZTYtjA8q7QWWfAWcLKjxZSaFiMfXOPR8SO7rWU'
  lat: 40.099353
  level: 8
  lon: -88.251876
  name:  'Raymond B. Cattell Memorial'
- ap: 7972
  img:  'http://lh3.ggpht.com/lzCSS0_tjwUV7JQ2fgLI0e05IrzPxlVUs-6aEPOwUv67IanQJSTi71gkw0SGm8asmoE_r3Xoh048Fd9xRpE'
  lat: 40.099169
  level: 8
  lon: -88.251419
  name:  'Lyman Larson Memorial'
- ap: 7972
  img:  'http://lh6.ggpht.com/5CDidk0pqfUtSW_Yqouuf3diX8drdMu9DoT728QpSz8q6A-WxNhT0yLcgM_7gGpyIAeXrHiTkIzzaVJFgnN9WA'
  lat: 40.099852
  level: 8
  lon: -88.251947
  name:  'Our Friend Tim Palmer'
- ap: 7035
  img:  'http://lh4.ggpht.com/vKgqIecJshMQxrhO-ZhMjcIyARuJdyU63wKfzAG0wouZex6LVzO46Qi5zM1N3Jx8xyantDFk9sQGsSEBhb-y'
  lat: 40.101327
  level: 8
  lon: -88.251412
  name:  'Zeus Memorial'
- ap: 7035
  img:  'http://lh4.ggpht.com/B_I1b0Jy3vW41RX8jjCNPP68AULplU0Pf8ddolyKmpEWCfBVShQkmjF1HfTPzDjmBBQGgOs0jHW-rUR0mv8BkA'
  lat: 40.098789
  level: 8
  lon: -88.251685
  name:  'Curtis William McKinney Memorial'
- ap: 7035
  img:  'http://lh3.ggpht.com/G1CvGhpethi5UmprDWxZN9rTblHa3anSsQz1UPgJtkREkfN7lDFoxFObst0609Cg5mofuZxJKr0ddNKhY4VL'
  lat: 40.098464
  level: 8
  lon: -88.251426
  name:  'Ruth Haasis Memorial'
- ap: 6848
  img:  'http://lh6.ggpht.com/S7Utf4_59vQkAP5JhC3mdbzVLKBTt-0zoJ2UjfxUnN10VBbixO-_VwvssWd1LbFSx_yafaijd_U0wTGo870'
  lat: 40.100941
  level: 8
  lon: -88.251314
  name:  'Gabriel Patrick Maxeiner Memorial Plaque'
- ap: 6285
  img:  'http://lh5.ggpht.com/4DJAFPeZ_w65Km7VDnsbOqouQaeBuPuxA0KHPQToT_B6o1hBxzdu3kn89UhHgv22Ygj52Fx9QqcbzOytuw'
  lat: 40.100078
  level: 8
  lon: -88.250683
  name:  'Brian Clark Memorial Plaque'
- ap: 6285
  img:  'http://lh4.ggpht.com/PHV-1ZpFzCAl_ViCKwBY_x2pIDbVyaT7wJH1sTvFJCxrSdRrO1x7NaXq9OdRGwz_Mls4iwk6wuGHMBArfV54'
  lat: 40.098688
  level: 8
  lon: -88.25063
  name:  '"New Holland Yellow Dinosaurs" at Hessel Park'
- ap: 6098
  img:  'http://lh4.ggpht.com/4LxsGZZMk3DnpJXUvqzrL54CHSP5TDXjUnDJyHmCCTtCJIjGEI7kxT9g4uxfSPh0X6yGLgQo1jfqbu7B8VEr'
  lat: 40.099084
  level: 8
  lon: -88.251826
  name:  'Irina P. Stewart Memorial Plaque'
- ap: 5348
  img: http://i.imgur.com/5j1qaiT.png
  lat: 41.891773
  level: '?'
  lon: -87.599428
  name:  '85317c714b4b4c458622f377c8ce6c60.12'
- ap: 5161
  img:  'http://lh3.ggpht.com/8FqlniFErK7cq59awiT84u8KyV4FIRd5krZzfYa58zJToFps7whdBnriPqvO_kFKeLUE3SWbJhCOPuvUQzaGFA'
  lat: 40.100691
  level: 8
  lon: -88.251337
  name:  'In Loving Memory of Zeus'
- ap: 4785
  img: http://i.imgur.com/5j1qaiT.png
  lat: 41.634356
  level: '?'
  lon: -87.178294
  name:  'd45d47f7d3a34245812bec73013df8d1.16'
- ap: 4411
  img: http://i.imgur.com/5j1qaiT.png
  lat: 42.781053
  level: '?'
  lon: -87.757742
  name:  '9a047756efef4b0b809bdb07c058c4b5.16'
- ap: 4411
  img: http://i.imgur.com/5j1qaiT.png
  lat: 42.78105
  level: '?'
  lon: -87.757843
  name:  'bba574d550f94b1f93b0c8faeb1ac86b.16'
- ap: 4411
  img:  'http://lh5.ggpht.com/HhVreJipNvxPRVFpmsh2BPo9PcpPO2Q2l3jCpDjIKgfKGycoTNPXR4DKiYccBXW4X-4dJf_vV0ESsWAWHcChsg'
  lat: 40.100936
  level: 8
  lon: -88.250855
  name:  'Donald F. Bresnan Memorial'
- ap: 4411
  img:  'http://lh3.ggpht.com/VrbXGwlUosNLEkVdshWUFoVa3KtlJQoEU4yLYygvftYbPCmxo644Uvar_v8Kb9RS53hB0tXgvV44GotrxZyu'
  lat: 40.098592
  level: 8
  lon: -88.251676
  name:  'Ruth and Fred Steigmann Plaque'
- ap: 4411
  img:  'http://lh5.ggpht.com/tfAfnmo6mSMc6U0P533NMFJRGwn6lasmx-MLR2JJg1QOizMKkghFU8E7hb2zgYgdQEbgnCJUlvZIMdrrJe4'
  lat: 40.100822
  level: 8
  lon: -88.25193
  name:  'Seeds of Kindness Bench'
- ap: 4411
  img:  'http://lh5.ggpht.com/ENeQgqydWbi9-Oyf7vizunoRqJdsZV4o0RA_956wjGI8hqpTCHBPyWMpbTrrkwYpj5tgzDRvevGmvH4eFRU'
  lat: 40.099593
  level: 8
  lon: -88.251724
  name:  'Blessings from Devon Elaine Cattell'
- ap: 3474
  img: http://i.imgur.com/5j1qaiT.png
  lat: 40.396282
  level: '?'
  lon: -88.87253
  name:  '983118fdef6b4b20b7d5188ad0f89af8.16'
- ap: 3474
  img: http://i.imgur.com/5j1qaiT.png
  lat: 40.39473
  level: '?'
  lon: -88.872321
  name:  'c89035b00e8f49cd9942782aefaa86de.16'
- ap: 3474
  img: http://i.imgur.com/5j1qaiT.png
  lat: 40.450351
  level: '?'
  lon: -88.716596
  name:  '9e6f98a9f04a40eaba1bcf5d67e804bf.12'
- ap: 3474
  img: http://i.imgur.com/5j1qaiT.png
  lat: 40.439829
  level: '?'
  lon: -86.968009
  name:  '540c6cf72279400698cb4f1a1d1f3ee2.16'
- ap: 3474
  img: http://i.imgur.com/5j1qaiT.png
  lat: 41.156259
  level: '?'
  lon: -87.657985
  name:  'd8beb8f8277845a9b61f2f4176f70a00.16'
- ap: 3474
  img: http://i.imgur.com/5j1qaiT.png
  lat: 40.475531
  level: '?'
  lon: -87.029299
  name:  'fcca4672b9594e55bfd4f6ad4de949c7.16'
- ap: 3474
  img: http://i.imgur.com/5j1qaiT.png
  lat: 44.61588
  level: '?'
  lon: -87.428349
  name:  'a27975b1a2bc49ca9b4dd063497fde96.16'
- ap: 3474
  img: http://i.imgur.com/5j1qaiT.png
  lat: 42.116085
  level: '?'
  lon: -86.493446
  name:  'e22b2e266ed6451190cc8295d5438c83.16'
- ap: 3474
  img: http://i.imgur.com/5j1qaiT.png
  lat: 40.51766
  level: '?'
  lon: -88.070336
  name:  '250c208763b7499a83ba1257a22011c2.16'
- ap: 3474
  img: http://i.imgur.com/5j1qaiT.png
  lat: 40.517758
  level: '?'
  lon: -88.070712
  name:  '6223016ce96e4292aed4a7e32d42e535.12'
- ap: 3474
  img: http://i.imgur.com/5j1qaiT.png
  lat: 40.172593
  level: '?'
  lon: -88.239993
  name:  'Faith Baptist Church'
- ap: 3474
  img: http://i.imgur.com/5j1qaiT.png
  lat: 42.588123
  level: '?'
  lon: -87.807579
  name:  'c106cbaedc2348069ff32d60674e1d91.16'
- ap: 2536
  img:  'http://lh3.googleusercontent.com/SjusdEZ1n6AkcvHdrM3TfGAqP_W5LJRmm4qEdm5xmdvHcBejD6Jg0kXCZaHyUk5WGeE8Zu0RrSSq_1VDXFU'
  lat: 40.117419
  level: 2
  lon: -88.240991
  name:  'Old News Gazette Offices'
- ap: 2724
  img: http://i.imgur.com/5j1qaiT.png
  lat: 42.781389
  level: '?'
  lon: -87.757824
  name:  'f1b338e3321c46a3b934d916b9212aa6.16'
- ap: 2724
  img:  'http://lh6.ggpht.com/rGhR45ZFbHtxmrZSSy9V19eFoyHIDB42c6MK188isPJFWpUsW9ywNHayKt3acNvKNC8DAV6mDkUloj3aiS4'
  lat: 40.118422
  level: 4
  lon: -88.24346
  name:  'Entrance'
- ap: 2724
  img:  'http://lh5.ggpht.com/ZAQQMo0g8dPiNKbmyCGqg9AkmfoW8FzqAcUNP-9buWZIQhHPeijk0LUaIvIY2yZTCOy0nd-9jGV_uR7-XY8J'
  lat: 40.117334
  level: 4
  lon: -88.240517
  name:  'Glory Pipes 2.0'
- ap: 2499
  img:  'http://lh6.ggpht.com/BANSBFfuZ3_0ya-JodV7jEB1a-DwSOyegBwPKAODSUFHLmvI7b8zwSiLUAvvqIAYjpU6S_Lm8XRBJ30KDGCIEg'
  lat: 40.116917
  level: 4
  lon: -88.24078
  name:  'North Star Sculpture'
- ap: 2537
  img: http://i.imgur.com/5j1qaiT.png
  lat: 44.606863
  level: '?'
  lon: -87.429622
  name:  '2c03da974c67483b983aa4e1524fd2ee.16'
- ap: 2537
  img: http://i.imgur.com/5j1qaiT.png
  lat: 44.607633
  level: '?'
  lon: -87.43205
  name:  '8e6a8255e7c342e8806313a728bf9918.12'
- ap: 2537
  img: http://i.imgur.com/5j1qaiT.png
  lat: 42.781211
  level: '?'
  lon: -87.758414
  name:  '5548d5f0313047378de4a346d86327df.12'
- ap: 2537
  img: http://i.imgur.com/5j1qaiT.png
  lat: 40.105244
  level: '?'
  lon: -88.56115
  name:  'Lodge Church of God'
- ap: 2537
  img: http://i.imgur.com/5j1qaiT.png
  lat: 40.149594
  level: '?'
  lon: -88.959115
  name:  'e09def41decd44c890c714769e5d1830.16'
- ap: 2537
  img: http://i.imgur.com/5j1qaiT.png
  lat: 41.540577
  level: '?'
  lon: -88.179178
  name:  'bc9cde3add364ebe87107f2297bf1f09.16'
- ap: 2537
  img: http://i.imgur.com/5j1qaiT.png
  lat: 40.991918
  level: '?'
  lon: -88.73085
  name:  'af323ee517fb4a8a9ac1dfe5d39ac2d9.16'
- ap: 2537
  img:  'http://lh4.ggpht.com/vKkSwERLa3zQO2UUIiYl1AEruAx1QTPcP4jSmPt89PG4AviJ1WhlVVH8qmqJ0aY2gqJmHcqdZFcM2pQconc'
  lat: 40.139375
  level: 5
  lon: -88.272793
  name:  'Salt And Light Ministries'
- ap: 2537
  img:  'http://lh5.ggpht.com/QruW49d2dc1uhQlK1BaZIeo6ruDNkqQfmvZz83eQ-1aC9ytGUcpFaHnKRTnXRc70F2EZ0-pVKGr9Slo0_9RfxA'
  lat: 40.139749
  level: 5
  lon: -88.273955
  name:  'Northside Church of Christ'
- ap: 2537
  img:  'http://lh6.ggpht.com/duOeXcOSQLWosdD0JJXg3pWWQp4t5sL0x9qDHoTIBFNOzEW0t53Lt2cnwgV2E_Su0l1ajIQxPtVbbK_sDRaS'
  lat: 40.141775
  level: 5
  lon: -88.242671
  name:  'Marketplace Mall Fountain'
- ap: 2537
  img:  'http://lh3.ggpht.com/07XrBN-er6Ecleor0n9RJ4DfGO6B2yn-ZxjI-Uy8Ba46Jtb6cXNVmATPiPiGyk-1jZ4wxa7-EeIWbWUqArCG'
  lat: 40.142554
  level: 6
  lon: -88.243468
  name:  'Dog Heart'
- ap: 2162
  img:  'http://lh6.ggpht.com/XsUl74M1oxj6ptAvGEBOMH2wivRhxBNns62UJSGcPiQkuJIgPrmUYxMpSZZUfXRMMjrwoxlFK_DbAM78UrOh'
  lat: 40.113499
  level: 2
  lon: -88.244374
  name:  'Shatterglass Studios Mural'
- ap: 2537
  img:  'http://lh3.googleusercontent.com/ZyXHLNlediISMVLqM9sUeZ0FEft3El4ni5P7GPOy5UF2YYBkTywnN5g1lkaer_lDNSvBUvg7bQ5yA_4Wd9qRWg'
  lat: 40.113521
  level: 5
  lon: -88.244122
  name:  'Artistic Graffiti at MCS'
- ap: 2537
  img:  'http://lh5.ggpht.com/nirQKdy3s9r8TSV7cB7_B0l-0EsFXBkg1aitH05R0ttPhOEewGxlq1GRnlDvYFT2V8Z91hWnB9YD3WjxBvyZ'
  lat: 40.11868
  level: 4
  lon: -88.243426
  name:  '"Pointless"'
- ap: 2237
  img:  'http://lh5.ggpht.com/KadNuhjGK6FUXezGHW1W1kfPOQV5l7gJP594EQm5nPZFLTgcTsjl4ixa-j7XitgtyJyou3q0pTfMr4i2E_avIA'
  lat: 40.118013
  level: 3
  lon: -88.243445
  name:  'Clock at Neil and Main'
- ap: 2537
  img:  'http://lh3.ggpht.com/eIZLSi2oHXQIznnki3LOUvKrTTcJ6a2d9xmuW9B9IjzRMAyaWG19Qw6gTUGWsC5V7R3LlRVD-ySQPp_6uK_aZw'
  lat: 40.117519
  level: 4
  lon: -88.240577
  name:  'Spiral Flight'
- ap: 2387
  img:  'http://lh3.ggpht.com/WDQ55kRMYCIrw9Pm69IuV6cBTI2nx7Z1gU9yxX2oE2oH9EdPnO1ltxSROAjUmHmBu84SEtHmLKregkDqlLYzUg'
  lat: 40.117126
  level: 4
  lon: -88.240623
  name:  'Depot Barber Shop'
- ap: 2237
  img:  'http://lh4.ggpht.com/nWSZEVnpEj78GBs58tujBturUcAqKjsgYU_9v_qXRS_K_ROKLNgBwnqKopJse169VJqqWtn6oo3h_qABlaw'
  lat: 40.117571
  level: 3
  lon: -88.240851
  name:  'The Accord'
- ap: 2312
  img:  'http://lh6.ggpht.com/PXc3YHSOsx0c_WrfpzvHHiHEl1FSv5RvbgXj7Ji3-xS7oBwJIkFCD8eQySiUega_iQvX8FiUBuDhXdK9l9QWIA'
  lat: 40.116623
  level: 4
  lon: -88.240844
  name:  'R. Forrest Colwell Memorial'
- ap: 2462
  img:  'http://lh6.ggpht.com/4lSW4EwRiN3ZMZYjxrHWvIT7z6LDW-K6E686ImBYJg9AY_QNi-hZrn6ok63-XHe6Ls0E5tiQUt_QiGwGXvsqnA'
  lat: 40.116613
  level: 4
  lon: -88.240555
  name:  'Mural at the Station'
- ap: 2537
  img:  'http://lh6.ggpht.com/hPutcAvS7zQN-tagfEY-fvkvdlgj7j5sZwUSLY883Twc7tHyslIAp7lzWYciJmCytDfsbFQtavAlzqGwCgFZkw'
  lat: 40.105562
  level: 5
  lon: -88.234991
  name:  'Acacia House'
- ap: 2237
  img:  'http://lh5.ggpht.com/OF0rdXnVnZe6syFsa4G9CE6iyvhfoYQN3QH9RESyB78MTKDC2NXYJuVd0TAnACMccmsKXhNcBH6qzWy9DPQ'
  lat: 40.105073
  level: 3
  lon: -88.231952
  name:  'University of Illinois Armory'
- ap: 2387
  img:  'http://lh6.ggpht.com/jEub4RTtKqfEcjYNQDMtrj2tUL_R6e1kqZRi-xU7lZ00Gkn309unaXkzNzft6a67crWBUzDCb21a5HTTuCc'
  lat: 40.113065
  level: 4
  lon: -88.207546
  name:  'American Legion Post 71'
- ap: 2537
  img:  'http://lh6.ggpht.com/FsUBggh0M3sjncoth6JaamkCglQtDsuiR89k30B2sMp7srgh0Hz6trgv7BhNRSJA6qI7OvipV8B3XEhzHmaNxA'
  lat: 40.113513
  level: 5
  lon: -88.207559
  name:  'Black Dog Smoke & Ale House'
- ap: 2537
  img:  'http://lh6.ggpht.com/tvtZZis6qG1YsnE4ZRp9fdL3-XEu08jw8oYvSOYqkbrIkD71abS7blCPv63VovyNFWlpHvmXTjl3tl-lXII'
  lat: 40.092821
  level: 5
  lon: -88.218095
  name:  'Japan House Tsukubai'
- ap: 2537
  img:  'http://lh3.googleusercontent.com/sT7DTIyEUTt0xRUwXrJLi2NnzjG5Jt_We4i4zQVcwDLCqiBxYzzBUi-mgg6aU7bpCp52puLCHCga_JuAmQMb'
  lat: 40.092682
  level: 4
  lon: -88.217865
  name:  'Japan House'
