- ap: 10409
  img:  'http://lh3.ggpht.com/sisvfsphxy7AK_2qrrqb7lNJk3_7ciHSVJyodINYITBc-UqugyNOooCxKupgJKEg5m_x95eZwouSO2WCmN60ew'
  lat: 40.098579
  level: 8
  lon: -88.249603
  name:  'Chef Ra Memorial Plaque'
- ap: 9659
  img:  'http://lh5.ggpht.com/HhVreJipNvxPRVFpmsh2BPo9PcpPO2Q2l3jCpDjIKgfKGycoTNPXR4DKiYccBXW4X-4dJf_vV0ESsWAWHcChsg'
  lat: 40.100936
  level: 8
  lon: -88.250855
  name:  'Donald F. Bresnan Memorial'
- ap: 9472
  img:  'http://lh3.ggpht.com/8FqlniFErK7cq59awiT84u8KyV4FIRd5krZzfYa58zJToFps7whdBnriPqvO_kFKeLUE3SWbJhCOPuvUQzaGFA'
  lat: 40.100691
  level: 7
  lon: -88.251337
  name:  'In Loving Memory of Zeus'
- ap: 8909
  img:  'http://lh6.ggpht.com/tEtHQ3gjXHp940OLn9txVBSOCdT8UfYUs3C29Cgx6HiCLrS3KBboU3Wms2rEVMQWEf7lf67xfK7MIUmimDw'
  lat: 40.116631
  level: 5
  lon: -88.247334
  name:  'Jack C. Richmond Lion''s Club Bench'
- ap: 7972
  img:  'http://lh5.ggpht.com/v26lJtVx6k_bS8UIv0cuwFV2H-bR_kPwjkydaZjqk7BOG1VyLpoQFvuFB7ZmKZpWB_uCHi70HLzZoI4xZgo1'
  lat: 40.116491
  level: 5
  lon: -88.246701
  name:  'Emmanuel Memorial Episcopal Church'
- ap: 7596
  img:  'http://lh4.ggpht.com/7jfpHo9VtrONulGtzUfsP3lI3AsKBnUxCQaLU9xAMpVCQbWD24db4z9Otn0Sfz_OnEXSbdwKUGm3MZBV6QZrhQ'
  lat: 40.117194
  level: 5
  lon: -88.247472
  name:  'Rebecca Mabry Memorial Tree'
- ap: 7596
  img:  'http://lh3.googleusercontent.com/L3lfMswaooWEA3nJNFGES354rtENCzxYkoWuVLXEXaTiXbqTNnsl34TRd8tbMwnGQHkAnr37-HLMutIe3_Uz'
  lat: 40.117254
  level: 5
  lon: -88.247074
  name:  'Westside Park Double Dutch-A Jump For Joy'
- ap: 7035
  img:  'http://lh6.ggpht.com/cnBQN3RYcZFSdxYB52bvMYRD2aTSlDG0_cqBQ8coo0ueKTtGxldE0xGjNPF6xlYJtnba8oUyEKwBeYbO8CY5'
  lat: 40.116631
  level: 5
  lon: -88.246951
  name:  'Lyle Blue Memorial'
- ap: 7035
  img:  'http://lh6.ggpht.com/5CDidk0pqfUtSW_Yqouuf3diX8drdMu9DoT728QpSz8q6A-WxNhT0yLcgM_7gGpyIAeXrHiTkIzzaVJFgnN9WA'
  lat: 40.099852
  level: 6
  lon: -88.251947
  name:  'Our Friend Tim Palmer'
- ap: 7035
  img:  'http://lh5.ggpht.com/q-mJ2EvrjGn2PfbBh3Pl3XIGUyzTqxGjZmTMhn3k9_2Qi0S2hs3k2ZvpKb4kvt60AXHiyQdxqft5ZecPcg7x'
  lat: 40.098959
  level: 8
  lon: -88.250141
  name:  'Bob and Wilma Tinkham'
- ap: 7035
  img:  'http://lh6.ggpht.com/YVbqGVTjJuDMDdj71CP2mWvnUIdgO25PgoDdJwEGnEE_M9I1aDgKyjSr9JOZVU6UQTZQtfUo9RAWyz92n3jtCQ'
  lat: 40.098475
  level: 8
  lon: -88.249208
  name:  'In Fond Memory of William Moore Jr'
- ap: 6285
  img:  'http://lh4.ggpht.com/4rZUtsKLzttseF-bliT_X7wEGP_joarKKLt8DNtp99fViYcqD4TAWTfZ_Ur6oEdBJdT-1JeZl4tnk_sTtgN0'
  lat: 40.116361
  level: 4
  lon: -88.247369
  name:  'Gerry Schriefer Plaque'
- ap: 6285
  img:  'http://lh5.ggpht.com/ONr7OWgjlaWwJELaKTJEC1ZVpkIkuN-2c01D2AligYZC9Zbt8lH0SMkirhrWfHdjmVDmCtzhJWoVxoZM-NM'
  lat: 40.116766
  level: 5
  lon: -88.247614
  name:  'Mary Shaw Memorial Tree'
- ap: 6285
  img:  'http://lh6.ggpht.com/YdeB0EKlsopL39a9YXWj4JBZgXNNLWHgfe4PQzdpWCNWc0fR1YTj8WjARDHnmrusvKWTqKLcGg8U9frhtsw'
  lat: 40.09821
  level: 8
  lon: -88.249879
  name:  'Hessel Park'
- ap: 6285
  img:  'http://lh3.googleusercontent.com/E2FfrLzJb3mHfXBany5NUYpw8tvRpjHxGQ7W0BTKFPVcMupabCQ2fXgQfa0jajRZbLswWOYbEkCO3hUGbIGD'
  lat: 40.099056
  level: 8
  lon: -88.249136
  name:  '"Cricket" and Bob Barger Memorial'
- ap: 6098
  img:  'http://lh3.ggpht.com/XUcV2LF_XKVfRYKLrnubIeaLniLx97X1-q_QbId6nLk55xKp9axvre_97coBT_kZQNIVfkeseaCxJHtHj6iA'
  lat: 40.113924
  level: 5
  lon: -88.245568
  name:  'September 11th Memorial Plaque'
- ap: 6098
  img:  'http://lh4.ggpht.com/vKgqIecJshMQxrhO-ZhMjcIyARuJdyU63wKfzAG0wouZex6LVzO46Qi5zM1N3Jx8xyantDFk9sQGsSEBhb-y'
  lat: 40.101327
  level: 8
  lon: -88.251412
  name:  'Zeus Memorial'
- ap: 6098
  img:  'http://lh5.ggpht.com/tfAfnmo6mSMc6U0P533NMFJRGwn6lasmx-MLR2JJg1QOizMKkghFU8E7hb2zgYgdQEbgnCJUlvZIMdrrJe4'
  lat: 40.100822
  level: 6
  lon: -88.25193
  name:  'Seeds of Kindness Bench'
- ap: 6098
  img:  'http://lh6.ggpht.com/yjfa0jJLjsfLRf9Zn9iafMp3MuIhgCi0WiOCF8GqTGiGvzEnsPGrFa0H1n-uzWhVehLbt44ShthsA32VzHd5iQ'
  lat: 40.099737
  level: 8
  lon: -88.251157
  name:  'Tyler Van Atkins Memorial'
- ap: 6098
  img:  'http://lh5.ggpht.com/8zq5tMevCiipZK8N9-8SZw3vdsA2HwH0E02ormQshGxHVZrB2WPK7OPC8zt6pjLlgpXVuEYHVA_08_Q8fPw-'
  lat: 40.099647
  level: 8
  lon: -88.249648
  name:  'Max Overmyer Memorial Playground'
- ap: 5722
  img:  'http://lh6.ggpht.com/rjO65LTfxlehqnFITx_AAA2JKpsmpj8hWVQifyHaji2E1suLvQntKGeHtT8TjDg7CZ94W3wDKW2MrfGY45k'
  lat: 40.11699
  level: 4
  lon: -88.247796
  name:  'Feathergill Honorary Plaque'
- ap: 5535
  img:  'http://lh3.googleusercontent.com/ZyXHLNlediISMVLqM9sUeZ0FEft3El4ni5P7GPOy5UF2YYBkTywnN5g1lkaer_lDNSvBUvg7bQ5yA_4Wd9qRWg'
  lat: 40.113521
  level: 5
  lon: -88.244122
  name:  'Artistic Graffiti at MCS'
- ap: 5348
  img:  'http://lh6.ggpht.com/Jltxi7PZ9OVi8hBCUxdt9oxXQk9zmbrtHpM_jru2WhVYyY0UkNZ8h5SU3CdwMRNzZ1ZKabPR8hDCPz7p3Ms'
  lat: 40.114439
  level: 5
  lon: -88.245013
  name:  'New Covenant Fellowship'
- ap: 5161
  img:  'http://lh6.ggpht.com/S7Utf4_59vQkAP5JhC3mdbzVLKBTt-0zoJ2UjfxUnN10VBbixO-_VwvssWd1LbFSx_yafaijd_U0wTGo870'
  lat: 40.100941
  level: 8
  lon: -88.251314
  name:  'Gabriel Patrick Maxeiner Memorial Plaque'
- ap: 5161
  img:  'http://lh5.ggpht.com/-UWK84I78Sftf7yg-E2pg6xEAWTvyiThgJBJlxbqOZPYKNmzQ8uGgEEMetzplrG1HpXG5kQqNItUeXKxOHDsGA'
  lat: 40.100286
  level: 6
  lon: -88.251747
  name:  'Tennis Anyone'
- ap: 5161
  img:  'http://lh5.ggpht.com/C6wRSaEWO1NYGY5luyYZKHG3Z3aib4aflaPdV7B9G6N6adE890g3QuPRSvCUhsdFHqjoVUjo27mfz9WsjXyuhQ'
  lat: 40.100521
  level: 6
  lon: -88.250864
  name:  'Gabriel Patrick Maxeiner Memorial'
- ap: 5161
  img:  'http://lh5.ggpht.com/4DJAFPeZ_w65Km7VDnsbOqouQaeBuPuxA0KHPQToT_B6o1hBxzdu3kn89UhHgv22Ygj52Fx9QqcbzOytuw'
  lat: 40.100078
  level: 7
  lon: -88.250683
  name:  'Brian Clark Memorial Plaque'
- ap: 5161
  img:  'http://lh5.ggpht.com/3t7XZHqwxLZ8Lc9YomR8FInm74U2PAA-DBk8kmdxXIrcXbKa1CoBDTlgdDJeO-_yVT3qNKRnNLzbdil1eH41iA'
  lat: 40.09935
  level: 8
  lon: -88.249766
  name:  'Jim Bickel Honorary Plaque'
- ap: 4598
  img:  'http://lh5.ggpht.com/77v6DfPMOKjAUzTfAuqZzYtMmpFMJV7lPr7FgQb_Fa46w1xmepHb0h-0CpG5WZy1b9vd5_DZ0uLxxZw9-DhJ'
  lat: 40.117163
  level: 4
  lon: -88.246602
  name:  'Garden for the Gardener Plaque'
- ap: 4598
  img:  'http://lh4.ggpht.com/ULEhKlvERD4aidwSKPhLFujl0N0mZWcHPxtcJ7hNJkyDjYek9yrB4UD_G8bU-O9-12L1LYpDkM068BiYmpm9weZeGJsz-K5whCvUYTfmDqaIp1Fp'
  lat: 40.117
  level: 5
  lon: -88.247111
  name:  'Wesley Robert Weedman Memorial'
- ap: 4411
  img:  'http://lh3.ggpht.com/hBux3yLZOMWBK1dtc47OrhISfV3SPojGgtZOxqqf7-yoc82f280WMG1r2mi43iZQsqfwzmN53VJHHHEFVs0'
  lat: 40.116458
  level: 5
  lon: -88.247065
  name:  'West Side Park Entrance'
- ap: 4411
  img:  'http://lh5.ggpht.com/2jocF-ooKfacyT7HSwrwNcZTSN02yFkcmXBkPx777CYuD5O6sHPHwyUabblNOl_37YOxba1Gjid-TOwLVBlJ8g'
  lat: 40.116448
  level: 5
  lon: -88.248459
  name:  'Uppercutted Sculpture'
- ap: 4411
  img:  'http://lh4.ggpht.com/ZEK-DXu7TJqsrt7cbLRjXyr3JbENJCn1FaKxH4Oi6kEvo4K0Yzm5qzMddhRLNlXvokAwQoeG4EKaNkXnJDA'
  lat: 40.114015
  level: 4
  lon: -88.245256
  name:  'Firefighters Park'
- ap: 4411
  img:  'http://lh3.googleusercontent.com/Tixp17uCaP682s77UzvCwWCOE6vg7iB2qEFLjACq7xtVJdHE0K3yKYsl3_SwKbiUfQWwgTQRbvfka3U0NvNc'
  lat: 40.098819
  level: 8
  lon: -88.249214
  name:  'Bette McKown Honorary'
- ap: 4411
  img:  'http://lh5.ggpht.com/aeGh3iXJqJ7skg-2JHEpngMSfcp1qDIEPoLMxzQNqbS5Y7HcxN7oE789bXiVFoFIcdCn7-3AhLPtxT_WE2E'
  lat: 40.0985
  level: 8
  lon: -88.248681
  name:  'Siti Sculpture'
- ap: 3286
  img:  'http://lh5.ggpht.com/5bCoRsqGBM0hx50ymfbZ8NhvyAyQDJWMnSg6qaDe-zxvwzVZW6O5IZWCDefH-pIsFZzvUaCcBBK9kqNDwXW3'
  lat: 40.128048
  level: 2
  lon: -88.290536
  name:  'In Memory of David Foster Wallace'
- ap: 3661
  img:  'http://lh3.ggpht.com/07XrBN-er6Ecleor0n9RJ4DfGO6B2yn-ZxjI-Uy8Ba46Jtb6cXNVmATPiPiGyk-1jZ4wxa7-EeIWbWUqArCG'
  lat: 40.142554
  level: 6
  lon: -88.243468
  name:  'Dog Heart'
- ap: 3661
  img:  'http://lh6.ggpht.com/SCYK-XeMmOyfRrTt1-aQNoDA-2Sib4m5Ch26mTwo6XNdVeVnfi7W74Ik6IRLAPSoKzSS97pgwt50Jl9oSgGfP029USxZzQWKNJo3rbs-6YHBPBif'
  lat: 40.116792
  level: 6
  lon: -88.241752
  name:  'WEFT 90.1 FM Community Radio'
- ap: 3474
  img: http://i.imgur.com/5j1qaiT.png
  lat: 41.717132
  level: '?'
  lon: -89.923897
  name:  '2ba17a5e950e4863929d91cf67f68873.12'
- ap: 3474
  img: http://i.imgur.com/5j1qaiT.png
  lat: 41.546105
  level: '?'
  lon: -89.123601
  name:  '3cd1f98b928c41e5beb0e666b4686fc7.16'
- ap: 3474
  img: http://i.imgur.com/5j1qaiT.png
  lat: 41.54743
  level: '?'
  lon: -89.126762
  name:  '4501f776f08d45a084cb064a242ab1e7.16'
- ap: 3174
  img:  'http://lh3.ggpht.com/uMCsrCj0b8EWJ6Hinp58rZ4hjaPm9kBAK5q0aDNtkP3e1Zk6Gh_0COjtW2YYBNzPxGDjJLB4DIXmiyvmrCJkRA'
  lat: 40.128083
  level: 2
  lon: -88.290812
  name:  'In Memory Of James D. Pruitt'
- ap: 3474
  img:  'http://lh4.ggpht.com/gDYX09ZFI6Jya_d8cBX7Kg8OgMkVexBWJLWt1ceC8s0aizrm_ehDYtMwFiwAqpetr9_VsiAJZLFkAYWm_oMt4Q'
  lat: 40.128229
  level: 4
  lon: -88.290607
  name:  'In Memory of Lou Henson Jr.'
- ap: 3474
  img:  'http://lh5.ggpht.com/nWEtxuKQdy0teBBue1DYmG7P3SF5-3A6zlB7GwVHBWlolAZYGq6Br78lWcF9ltFy-KeSlozXie2RmU6JfCUX'
  lat: 40.142673
  level: 6
  lon: -88.244603
  name:  'Italian Statue'
- ap: 3474
  img:  'http://lh4.ggpht.com/CYtXDlK6MB-Yl-FmKw6yaRt-LGUdQqAdRp3LsWV1JUYwC8qrVWWJaGEaqMtMtRpANFpNeD4z82iGL54nIARL'
  lat: 40.141919
  level: 6
  lon: -88.244611
  name:  'Marketplace Mall Carousel'
- ap: 3474
  img:  'http://lh4.ggpht.com/9jXAzAxn0JZrLkU9VK9p-mNzjw3x_6QqwMAn4CAEBAHp_lo2iDZeV_y-hoUzP5CYwm8kOMyrTToZQOWJBRnw'
  lat: 40.115095
  level: 6
  lon: -88.249052
  name:  'Bayne & Schumacher Fountain'
- ap: 3474
  img:  'http://lh6.ggpht.com/ZQaguxPyiC-6DeFDFa2niVKJz3ySxwxYaFCv8PRdNuoMYUfP-Xtirg-8pXCTdBCyH1BruprOVmqf3D1kdp7o'
  lat: 40.115225
  level: 6
  lon: -88.248866
  name:  'Holy Cross Catholic Church'
- ap: 3474
  img:  'http://lh4.ggpht.com/IAi2A1ukQunZaoCY1OUJnvZC_MAEjnYzlg7vcsIuPQyLIB710_5ueVQ3El8Pok0aNvlB18-Tdo1euhYbaf0'
  lat: 40.115224
  level: 7
  lon: -88.24957
  name:  'Linda M. Wesolowski Memorial Sign'
- ap: 3474
  img:  'http://lh3.ggpht.com/8Nxm7sw1mIfTkxKb-GsE_e5DuPgup8SmX1SJRLGZmvopdsQsPx8E9eDzuISKXBjwveamwn6H26EmIJZzVwkr'
  lat: 40.117449
  level: 4
  lon: -88.246902
  name:  'Champaign Park District Flower Island'
- ap: 3474
  img:  'http://lh4.ggpht.com/ryDcZUJK2aQ_fI0-hY850_t4ZmG2hNmtCx7cxbX83w3cnUWdI-ywpTuQrUVQNxGl3_DcxxNr6bupfDTsagRa'
  lat: 40.117107
  level: 6
  lon: -88.242467
  name:  'Radio Maria'
- ap: 3474
  img:  'http://lh5.ggpht.com/AX1hc0zh7ZtN2MoSsNXTKwRtGJWb8EgeHffmjJfZvCLL7wvvjMZ8d0BwESKKrdNM--UUKA09PrLQ9qmTrMw'
  lat: 40.117186
  level: 7
  lon: -88.241556
  name:  'Champaign Limestone Sidewalk'
- ap: 3474
  img:  'http://lh3.googleusercontent.com/vJ_iyOb44eFzOJUNpRouOPDI8rKgOESn7TWw9U9BR3OcWsb6Oak-SSfVH4iPPmtXJdk30rqet1D0KxVohiBC'
  lat: 40.114712
  level: 5
  lon: -88.238392
  name:  'Mexico Mural'
- ap: 3474
  img:  'http://lh3.googleusercontent.com/vMuPZQrBjsuqibkb-FCbuVrZzyuUSOhjlXxxxRc9hq0Y7prkP-Fpk1Hh6o5Eq8BhT6s7GRP5S5z2KFUL7hJY'
  lat: 40.113606
  level: 4
  lon: -88.243766
  name:  'Mural on South Neil St.'
- ap: 3474
  img:  'http://lh6.ggpht.com/ytlRYKlqnchcFvl3QEN1XknYcwYKIjohz4qzWW8SmhDi5mypBmgPbf9e4ghZWMZY5gpD9HIyalemSKsIzyA'
  lat: 40.11408
  level: 5
  lon: -88.245852
  name:  'Champaign Fire Department'
- ap: 3474
  img:  'http://lh5.ggpht.com/fDRifvVcFT_dKhPuNBN4rR9lNHL0Q6NvbMnGr2-ZdiirR2rJrBcWRi4vyM3-DYNHymUs7bWchaWRaUtBpg'
  lat: 40.098541
  level: 8
  lon: -88.250389
  name:  'Dennis Robert Costello Memorial'
- ap: 3474
  img:  'http://lh5.ggpht.com/1FFq1l5byXiUE1FTO1Ki4CnurAyDTSJ7tatUNPN2PTAm6auSif6bq49bEe3gkQdpk6ixuhsUd-6KYXSi9NV9'
  lat: 40.113425
  level: 6
  lon: -88.238014
  name:  'Champaign Waterfall'
- ap: 3474
  img:  'http://lh4.ggpht.com/ETgOsKlMmsv5wRT-aM33VVVEgFvp3ZoMxqXmYKxROpFAYnfPqjWhltqYBG7ajEuM8XKf3mVeSaF7r9grm2t8'
  lat: 40.113448
  level: 7
  lon: -88.237188
  name:  'Boneyard Creek Second Street  Basin'
- ap: 3474
  img:  'http://lh3.ggpht.com/tXDyz6XRrR2AKSg9Rrj1z6jBG4dz7uR9qFmSUO1bWljMEw67ncNiq-2Hx3O9Fs029iRtvCV1gdlGN7pG69L0'
  lat: 40.114104
  level: 7
  lon: -88.237694
  name:  'Lo Park Fountain'
- ap: 2724
  img:  'http://lh3.ggpht.com/jW-2Ce-dZ1Q0ljxUo3Cv-jckhBnpc4tF_LgZS1keMALkHV6RdWqDFJ2IDEj9bbeUrZbHubk7zNmzoHoLXmA'
  lat: 40.121037
  level: 5
  lon: -88.21093
  name:  'A Fountain in the Forest'
- ap: 2537
  img: http://i.imgur.com/5j1qaiT.png
  lat: 43.026996
  level: '?'
  lon: -87.881903
  name:  '8909f317a6294b2b9ef0c2a136f4cc24.12'
- ap: 2537
  img: http://i.imgur.com/5j1qaiT.png
  lat: 45.948654
  level: '?'
  lon: -86.241444
  name:  '444b76ac69e14903ae3148dc5876bb3c.16'
- ap: 2537
  img: http://i.imgur.com/5j1qaiT.png
  lat: 41.533156
  level: '?'
  lon: -88.580355
  name:  '53ba227dbfbe4c2a9547c1e3b9b53aca.16'
- ap: 2537
  img: http://i.imgur.com/5j1qaiT.png
  lat: 41.052357
  level: '?'
  lon: -89.050056
  name:  'c103c527782d4408a26e5c2b28a037bf.16'
- ap: 2537
  img: http://i.imgur.com/5j1qaiT.png
  lat: 40.457257
  level: '?'
  lon: -88.372597
  name:  'ebaa4a5573f7449399263066d9248473.16'
- ap: 2537
  img: http://i.imgur.com/5j1qaiT.png
  lat: 40.106513
  level: '?'
  lon: -88.5585
  name:  'Lodge Christian Church'
- ap: 2537
  img: http://i.imgur.com/5j1qaiT.png
  lat: 41.976298
  level: '?'
  lon: -87.651926
  name:  '4ce340b6c5c3481b96c89dca1ef29c52.16'
- ap: 2537
  img: http://i.imgur.com/5j1qaiT.png
  lat: 42.772529
  level: '?'
  lon: -86.215837
  name:  '64f91a4e227149ce937f5fb293786cd9.16'
- ap: 2537
  img:  'http://lh3.ggpht.com/-mMz5f80ITpPoby5jxbF9QtmyShskFPdt3J1DYxUUOJnPDobi-B33A_7DJQ8N-kfYBjPJR09_PYzGhzSHm0'
  lat: 40.064501
  level: 5
  lon: -88.293621
  name:  'Curtis Orchard Harvest Indian Statue'
- ap: 2537
  img: http://i.imgur.com/5j1qaiT.png
  lat: 40.04101
  level: '?'
  lon: -88.384378
  name:  'St Boniface Cemetary'
- ap: 2237
  img:  'http://lh5.ggpht.com/uym8nSsevMrrg8UM6iXqTAyUjRlW1TdnBVLbaPVy4PxonceIo1yyp71x4TChEETc7UVpRVdg6-Gy0WfbV2c7'
  lat: 40.128024
  level: 2
  lon: -88.290239
  name:  'In Memory Of Craig Kieffer'
- ap: 2537
  img:  'http://lh3.ggpht.com/5awYU9vtQhrJgqVWTgorW3FfOKgjEZtgRjWYRBTLqZxOOiuKje_aALtsSDOrslkMHWZqO4ZLwael60DZWxY'
  lat: 40.111807
  level: 3
  lon: -88.295361
  name:  'Unity Baptist Church'
- ap: 2537
  img:  'http://lh5.ggpht.com/8EXhrgcMBH0nDBQWTAlAwNIhxzaY7maIjYjg3fJnzGIp6_FNs98dPrYY4mtl4vhkPI5WQ1Xp8_V4vj2hAb9a'
  lat: 40.112026
  level: 4
  lon: -88.295327
  name:  'Carpenter''s Union Hall'
- ap: 2537
  img:  'http://lh4.ggpht.com/dIZMnnUykBHkwUGA_tGi7tq4m0qCooVejZqueoqq9NjBXvZgz1QUEqS-vJhsYu3v7pW_0xejLfH9QeziW28I'
  lat: 40.097472
  level: 5
  lon: -88.259842
  name:  'Indian Acres Swim Club'
- ap: 2537
  img:  'http://lh5.ggpht.com/BK5TjuMzuJgDVPz4C8HRjfZKeaoISnPJ-H7VaYeMNUYmxvvUY7RzIIlR13FjW9HHF_i5-znqs3O6nMxKPfcj'
  lat: 40.102188
  level: 5
  lon: -88.251507
  name:  'Little Free Library Charter 5753'
- ap: 2537
  img:  'http://lh4.ggpht.com/BEyFLhgqk0ySf2zElnARv5eyaQggj_zbHSagW3_DGt9BieScmU4jGPvJCjezTjbiCP-DOJPLPfJ3HhnYAiQLEQ'
  lat: 40.119288
  level: 5
  lon: -88.248086
  name:  'The Hartford'
- ap: 2537
  img:  'http://lh6.ggpht.com/yoGdHEqpRRqOE5pA5wHdi_ismU_TrB-kTiqVV63EO630KsU608TIfjLijcqJ38At7MyyrE2urWFMPY1Sops'
  lat: 40.118121
  level: 5
  lon: -88.258039
  name:  'Mini Park V'
- ap: 2537
  img:  'http://lh6.ggpht.com/duOeXcOSQLWosdD0JJXg3pWWQp4t5sL0x9qDHoTIBFNOzEW0t53Lt2cnwgV2E_Su0l1ajIQxPtVbbK_sDRaS'
  lat: 40.141775
  level: 6
  lon: -88.242671
  name:  'Marketplace Mall Fountain'
- ap: 2537
  img:  'http://lh5.ggpht.com/EoSf8hHJu8u_sZNBmm3S1GHAWAxUzBsmXEWMMBkHb0fpzxtjz5RHwnclV42-DDwyDr2BION1zqJ4sLIkaiw'
  lat: 40.121818
  level: 2
  lon: -88.222608
  name:  'King Park Tennis Courts'
- ap: 2162
  img:  'http://lh4.ggpht.com/MvwoDsxwfyNLHzfGkFJl-4VFeX7OvqB0hsMCrZ2D9Olh8GSghAJDfFfDh7a7cOtMIGwEDMyesZoKvKCXAGj4'
  lat: 40.116553
  level: 2
  lon: -88.242268
  name:  'Esquire Lounge'
- ap: 2537
  img:  'http://lh3.ggpht.com/161K1avC8teYs8PtJMANd0cBrff72XYRYh2Gjg2_KhkEh6_F6MLd3cfHIXwK8zegd65ISEVxmEoD5THpeY-Q'
  lat: 40.112553
  level: 7
  lon: -88.236253
  name:  'Scott Park North Entrance'
- ap: 2537
  img:  'http://lh3.googleusercontent.com/0hydzoUNO41CcF2qZhlhMbaEgMVFjql3_RSDgrJLVIToqRsqh2aBcAoXsrxAlwXqgTcB1R71HZiHrjq1KdnXgA'
  lat: 40.11243
  level: 7
  lon: -88.235749
  name:  'Fountain at Scott Park'
- ap: 2537
  img:  'http://lh6.ggpht.com/BsXdEO7HLxNLSdztPo_4GNNcbxZCxswiDT4pmmcfDQ8YO2SFVW-VnwyEZBvkuhf1rxKAtoKNLvV4rDJ-YVCYUK1qiX-dId_R8P-JskyFYAK9ruM-'
  lat: 40.110234
  level: 5
  lon: -88.224055
  name:  'The Etc'
- ap: 2537
  img:  'http://lh3.googleusercontent.com/EwXPPCiuVPRkECPKlJtyqReSySoJKEdwrx1MkNVUy6EM9xWU_fet1Z-sLfx_P2_c54DeJcApxdl-hKg9vGVEtw'
  lat: 40.108224
  level: 5
  lon: -88.223549
  name:  'Colwell Playhouse'
- ap: 2537
  img:  'http://lh6.ggpht.com/0WV0zgKIo2AbnMTwJXYSM-C6nik92XvxsPKcZps2SdFzIWJ2bY4k2dHAqdImb1hTCK910NMvQYoKlwWprt6c'
  lat: 40.12034
  level: 4
  lon: -88.211743
  name:  'Alice Mimi Muller Dedication Plaque'
