- ap: 13966
  img:  'http://lh5.ggpht.com/AmsS7GEfFX-_Icem2DP6mjQahV1jeut1CGdeqLqfpyzx0m5SqhVY4eoAohizF0xsevPQufmLRMoVj2rW7Fe8'
  lat: 40.111689
  level: 7
  lon: -88.231193
  name:  'Koi Building Art'
- ap: 11907
  img:  'http://lh6.ggpht.com/SboHv2_AWJ6ll559fK1A5a1UIAKf04oIHrgidra_E6L8gDK_mQ-DaM7hKYkv7MT6ZAA8pzgPxv_Vy-eNN7g'
  lat: 40.110608
  level: 7
  lon: -88.231957
  name:  '217 Tattoo Co.'
- ap: 9657
  img:  'http://lh3.ggpht.com/gS3gT_deXzbDvejCL-5ygs31dw9bLQqYr2nDcLPZiv6nQzahJl12awG1a2pwKbFuoTlsHQYxQ2O7HDXL4-8'
  lat: 40.110358
  level: 6
  lon: -88.230181
  name:  'Murphy''s Pub '
- ap: 8533
  img:  'http://lh3.ggpht.com/tXDyz6XRrR2AKSg9Rrj1z6jBG4dz7uR9qFmSUO1bWljMEw67ncNiq-2Hx3O9Fs029iRtvCV1gdlGN7pG69L0'
  lat: 40.114104
  level: 7
  lon: -88.237694
  name:  'Lo Park Fountain'
- ap: 8533
  img:  'http://lh5.ggpht.com/Z2EWM4D6YQHuqnLwtuPBawyQBZxTzVe9E17MKc8jOZkO0ZzkuD5zSQslY2iuXkkUnztPteUeOSHrSTz3voHC'
  lat: 40.111166
  level: 7
  lon: -88.228747
  name:  'Boneyard Creek Mural'
- ap: 8533
  img:  'http://lh3.googleusercontent.com/hvoLMUc9UoNVVPttxWTc8PzOWdu5MBmPETnBexH7Alyl20WGCrNa0G_j7DwvD3qbhqpTaeThFhGDV2rCtp8'
  lat: 40.107629
  level: 7
  lon: -88.224484
  name:  'Bucky Balls'
- ap: 8531
  img:  'http://lh5.ggpht.com/BUGNnLReyCBJJj9_zpqgwv5_CAyiW8fWBpyVs0ip1hT5NEE6YKCYzlc8ahldKzk_xv-4uckNJNb6NrJd6r33qg'
  lat: 40.116989
  level: 7
  lon: -88.242255
  name:  'Blind Pig'
- ap: 8346
  img:  'http://lh4.ggpht.com/OKjZe5DNbqsjBvhTWI2C_GTSbIMUanllb49pzoadj3izBmngp5kFNgLokw6jbL1Y3BnreLD-LmzLdNEx-eRI'
  lat: 40.105694
  level: 5
  lon: -88.225345
  name:  '1981 Iota Chapter White Anchor'
- ap: 8346
  img:  'http://lh3.ggpht.com/whmQSPmix2tEoKcWwrVrV0H0JzNf1tzyuohI3ykSa-Qx4rUcLTf4686WcnJjygsMY2QPUWhvVVzlmMMHof94'
  lat: 40.105907
  level: 5
  lon: -88.22564
  name:  'Andrew De Grado Memorial'
- ap: 7785
  img:  'http://lh5.ggpht.com/J4IbsPUjPF6cIlktTr1tOGHi61krS9o1eXeuAlPRBrSYUQrwdyShfNzuzxD0epa_cBMPF1xJ9YhoBA5VOQtYRw'
  lat: 40.105467
  level: 5
  lon: -88.225644
  name:  'Smith Music Hall'
- ap: 7596
  img:  'http://lh4.ggpht.com/DTGKMEvXrKSLJVBZP6bN7EF-DMHt5l_x3o-C-Ln0FjrGCQcTdcLNaZDI2_OCwEzuqgh8HyyqJwyQkc4-0H8g'
  lat: 40.106037
  level: 5
  lon: -88.226237
  name:  'Triplets'
- ap: 7409
  img:  'http://lh5.ggpht.com/fGRHfMAqdWrUnPE8GStKSdMkgQmu9qvuxAC4VzcU1v2KyxQu2BeuJKhvhefSeFNTkgFh6YdR-F4P6plMbh0'
  lat: 40.110194
  level: 7
  lon: -88.231488
  name:  'Fighting Illini Memorial'
- ap: 7409
  img:  'http://lh5.ggpht.com/f710C9AvOEB7ieCI4f382wWUP4OgDxiqPzbxqxct6Ugf2PWBfyXyDpG_JcRQ6PaZ_jS0jpXXBhNSt_u9rFA'
  lat: 40.113864
  level: 6
  lon: -88.224839
  name:  'Plato: A Social Networking Revolution Begins'
- ap: 7222
  img:  'http://lh3.googleusercontent.com/v44Gf5oEZGcwkQcA2wWz-uAeDFESHj7sEloxdCJd316RPH3w_ln8_9mBEMbAqGyI_2Y2qaYp525PnRip9Rg'
  lat: 40.105315
  level: 5
  lon: -88.226125
  name:  'U of I Observatory'
- ap: 7222
  img:  'http://lh5.ggpht.com/dgQfoxxVeHT5ODqLiUYHV45qvkC_BMS0kIFRqvHvE2GO0TduZ0-XzhW8RE80LtPDK0Ay5xwA6PtjM7G3C9U8'
  lat: 40.108947
  level: 6
  lon: -88.232251
  name:  'McKinley Church'
- ap: 6846
  img:  'http://lh5.ggpht.com/dEeT4acpLu-WQFlZWd3psap5qAqqPTSVzm8Qt1QtpqtwZ0j1V9eKFcmpgN9K_x1PL4XVchuevw25rxHekz3tvQ'
  lat: 40.111968
  level: 6
  lon: -88.226793
  name:  'Bardeen Quad Structure'
- ap: 6472
  img:  'http://lh4.ggpht.com/oknWvsn3j_8LLqgIevkEiU6a-r9RO-ylFPYVgOPQ6wBXGmnyvWFCGC4eG8qo7Z28JPMEoBE4DUFq2FPfFdXR9Q'
  lat: 40.112908
  level: 7
  lon: -88.237287
  name:  'Stone Arch Bridge'
- ap: 6472
  img:  'http://lh3.ggpht.com/1JgqaWx4DIU04ms-XmufSumQ5BDP07SB97-kBjzxDePlLQR9HagCTfqdviW9ErxCqpvXgynqeosQhERhCat6'
  lat: 40.108781
  level: 6
  lon: -88.226388
  name:  'Illinois State Water Survey Plaque'
- ap: 6472
  img:  'http://lh6.ggpht.com/rnWumKyBYpVW5hCfQDlvRaT_666UPI5lo3k6HGdxWuLVsDbD8c7l-BU1HwhBqiGeCW28iEghSQtvZFzqK4w'
  lat: 40.109013
  level: 4
  lon: -88.22587
  name:  'Understanding Photosynthesis Plaque'
- ap: 6285
  img:  'http://lh4.ggpht.com/mHAXKPtOyg_DWRs5A_0yhGeDsfU4f4o3xJvzziri7o3ksPPKtMAHUkUBOb0JJ78gArdP5Q6O-UiXNDG3RHaIYQ'
  lat: 40.109339
  level: 7
  lon: -88.234149
  name:  'Alpha Delta Phi Fraternity House'
- ap: 6285
  img:  'http://lh4.ggpht.com/hJDi8J7CZU-933hT0Culp2nhslv6p8rDRPdTFz6FwNaAjB5CmfkaQzj9sM--E-QBvI8yvIJn1F2jxy7ZKWlh'
  lat: 40.10816
  level: 6
  lon: -88.234245
  name:  'Stratford House'
- ap: 6098
  img:  'http://lh5.ggpht.com/2PB1u3cNuASfw9D_MIUzI1JvNofebK7zsuGqKoUApr-nUWYZ8y5CzxH6g7CdcY7ShBaVGrBrurkbwrdUPD7JBk55TH0Ouao5b_g2jUI1saBNUE8'
  lat: 40.106744
  level: 6
  lon: -88.225347
  name:  'The Red Herring Vegetarian'
- ap: 6096
  img:  'http://lh3.googleusercontent.com/vJ_iyOb44eFzOJUNpRouOPDI8rKgOESn7TWw9U9BR3OcWsb6Oak-SSfVH4iPPmtXJdk30rqet1D0KxVohiBC'
  lat: 40.114712
  level: 6
  lon: -88.238392
  name:  'Mexico Mural'
- ap: 5909
  img:  'http://lh4.ggpht.com/IZUCSooIdo5qUAG278Al-JEKCRv842M0uDMusE78yaL4p-QCYu2A4UXE6X2jTFemr_w8ZfD6g_lQqjwbdg'
  lat: 40.109702
  level: 4
  lon: -88.227571
  name:  'The Ray Bulinski Room'
- ap: 5722
  img:  'http://lh6.ggpht.com/C7ThuP5fwrDTu5cMDpoeGmRjotNh6eUnPf3ksvSsUj5NkHZ0yKbIUnF8cSikhX-I_7O42CTwqjhLq9z3jkIL'
  lat: 40.111844
  level: 6
  lon: -88.228609
  name:  'Talbot Labs '
- ap: 5722
  img:  'http://lh6.ggpht.com/POBAhJlStu1uLv82RPSkd8lKQyojPByrKqAwgiZPyXTHQcNTCN7rkJM376YcVpMmZZVMgiXz9J1BXanexyA643e-FR9M70tksLdb1akPUe2Ra_xCyw'
  lat: 40.112411
  level: 6
  lon: -88.226875
  name:  'Grainger Engineering Library - William W. Grainger Medallion'
- ap: 5535
  img:  'http://lh4.ggpht.com/ETgOsKlMmsv5wRT-aM33VVVEgFvp3ZoMxqXmYKxROpFAYnfPqjWhltqYBG7ajEuM8XKf3mVeSaF7r9grm2t8'
  lat: 40.113448
  level: 7
  lon: -88.237188
  name:  'Boneyard Creek Second Street  Basin'
- ap: 5535
  img:  'http://lh3.ggpht.com/KxQsev6i7POmNh1IadCWwWQSMdCuLIYpPwIdenSlVtzum523D1R-1kfeTbuOGTkt_jDwn4jswCu1edkumm2-'
  lat: 40.110037
  level: 4
  lon: -88.23549
  name:  'Red Lion'
- ap: 5460
  img:  'http://lh3.ggpht.com/lGjbP2iz0XvlEWLhgCBNqkWukvjrBowKmX-1_O44U1A3_4b3-vuXzkfp7rasqU81TcPBoQO82gAzEGtBBYcR'
  lat: 40.106058
  level: 3
  lon: -88.223672
  name:  'Music Building'
- ap: 5346
  img:  'http://lh6.ggpht.com/cYQLNtCsiRGXd_y7-ZdI4jGlNRpC4oiy2Z7UT7etDH3FBvBRQDtOW_rY0NBvKLJMnTw_EXH75NDGMcI6UkeV'
  lat: 40.105618
  level: 4
  lon: -88.229005
  name:  'The Chapel of St. John the Divine'
- ap: 4785
  img:  'http://lh4.ggpht.com/YkAjLbUQwdId1pIn7-0sv7p3fU5sUakSrInODEYBL40IL2O6a6iP0KdmXupzcZMPqJ3arf7sss9irQ7NDzzF'
  lat: 40.110882
  level: 6
  lon: -88.231138
  name:  'Boneyard Greenway'
- ap: 4785
  img:  'http://lh6.ggpht.com/LVoGz75uEbzBIHab_ek4_2onuT-7Ow81Pj41mGU3rfgYArGKILIbviOC6pY-ZijVs4KcHd-ZD_WmLcCaImyC'
  lat: 40.119406
  level: 4
  lon: -88.213173
  name:  'The Betty J. Schroeder Grove'
- ap: 4785
  img:  'http://lh5.ggpht.com/Rbncx1cCR848JJRHJEZP1LBPjeBES8v3loG6KcPp_EZibzeb9m2nHSS7tN8FkCjMCfjJavG5jZd3NgYEuKE'
  lat: 40.119468
  level: 3
  lon: -88.214013
  name:  'Vicki J. Mayes Honorary'
- ap: 4598
  img: http://i.imgur.com/5j1qaiT.png
  lat: 40.8192
  level: '?'
  lon: -89.617104
  name:  'f6e126af27604cf696609b7b20fb90fc.16'
- ap: 4598
  img:  'http://lh3.ggpht.com/bltQwmnzp2vSKYhLpzNLqB4iddy6ie0kWk9G7Wce4U9qmW3CABxbXAhF7v0oG9QLFD2q57UZuVqZCMgN3MHZfA'
  lat: 40.118335
  level: 1
  lon: -88.243408
  name:  'Downtown Fountain'
- ap: 4373
  img:  'http://lh6.ggpht.com/cZVUlNaHjfsB6Lu5hnj8JjUk4lvsgOV7DFz4Nl47-RaQObW1VPRpos6hTDD6WgYrNxCh9UKfn5DFU-K7lRe9pQ'
  lat: 40.1164
  level: 4
  lon: -88.242747
  name:  'Sidewalk Art'
- ap: 4523
  img:  'http://lh5.ggpht.com/Tn5ARN-X6VTc2q6atZ2WYq3c2g3gbSGXu6_vXf1MDwHfLpdTtnQ-CilBAVGvL6R-SHhq3fJ4WZI-yiJKmIId'
  lat: 40.110398
  level: 5
  lon: -88.235143
  name:  'US Post Office, E Green St, Champaign'
- ap: 4598
  img:  'http://lh4.ggpht.com/1n-hHkU1cTz6dykw37WBVQqctZlzyl9gYgy7IMi1zcMf1t0ry6F1JPnwlvUjq_6YNdolofY_rLbuL_uLQwg'
  lat: 40.112913
  level: 7
  lon: -88.237848
  name:  '2nd St. Basin Ampitheater '
- ap: 4598
  img:  'http://lh4.ggpht.com/9hzMj8KV-HraIucojjHAEgyMZsJAR9TWvNS-QSBB5LTYBOTwwqfTQySJ_Sz88eP3eyFWFYhx5qDVY93t8fk'
  lat: 40.108032
  level: 5
  lon: -88.225702
  name:  'Centennial Court'
- ap: 4598
  img:  'http://lh3.googleusercontent.com/OuV-xkKMYekdQdkQ7ADOaDN6edPO8xYZvaEbWyHP6JyqwkHzp9R8_ahyUbfwy94AY0LtAPJet4eGG9iAsKY4'
  lat: 40.108965
  level: 4
  lon: -88.226465
  name:  'Harker Hall Fountain'
- ap: 4598
  img:  'http://lh5.ggpht.com/ucFkWovrZBr6wFMicSGD78p44tqzcyfJCvQuAocYo0do3ODoHsOeAMphZZferoOLkGfuJPQVlILRzKG1vAPg'
  lat: 40.109172
  level: 6
  lon: -88.231151
  name:  'Illini Life Christian Fellowship'
- ap: 4598
  img:  'http://lh4.ggpht.com/l4w3T1e27S5zPAMN3Mr-LqJ51cbm26ThR-ubvfUFHpl28dkeRb_CQThuhJ_HSNhdYt_dX9NTAN9hKFsDeWJQ'
  lat: 40.108295
  level: 5
  lon: -88.224083
  name:  'The Landing'
- ap: 4598
  img:  'http://lh3.ggpht.com/2WMtYMnBjTlw-gPK9quwjMde6Heie7SQHCZT41kPiIpOwxXEIQWbB_euK-R5rZhqUcmGuZJ0tIBh_801KGyVsw'
  lat: 40.11453
  level: 6
  lon: -88.227324
  name:  'Beckman Institute - Upwells Fountain'
- ap: 4411
  img: http://i.imgur.com/5j1qaiT.png
  lat: 41.556343
  level: '?'
  lon: -89.461309
  name:  'fd2af0e93c084aa19be07f93e4a11add.16'
- ap: 4411
  img:  'http://lh4.ggpht.com/N-xxTzGXK34K-VdTOWaWrFJeP9_SLZ7ZBluxK2mjP51yZx_5HOMi_mb4Nu2rWgo3gOqUb19_cPb662sI7td_'
  lat: 40.105687
  level: 5
  lon: -88.225714
  name:  'Smith Memorial Hall'
- ap: 4411
  img:  'http://lh4.ggpht.com/OFVPvdgB3GVpaQknHdnt2okgP3xcQksAH3wvOGYVuP85MMlxo3bQ2SRpBb0hzNfjQoC_5LlRqaE6jLB-h9Gr'
  lat: 40.108092
  level: 6
  lon: -88.234589
  name:  'Koinonia Plaque'
- ap: 3848
  img:  'http://lh4.ggpht.com/ryDcZUJK2aQ_fI0-hY850_t4ZmG2hNmtCx7cxbX83w3cnUWdI-ywpTuQrUVQNxGl3_DcxxNr6bupfDTsagRa'
  lat: 40.117107
  level: 7
  lon: -88.242467
  name:  'Radio Maria'
- ap: 3848
  img:  'http://lh3.ggpht.com/x5fBw8MRogV8dm3kPO5zKNkUrQxn0dM7d1PIoASdX1_Rc8H5Duex4iZdOoIlqazCGll25TmptsWIRq1JFmj6'
  lat: 40.112135
  level: 4
  lon: -88.225762
  name:  'Computer Based Education Plaque'
- ap: 3661
  img:  'http://lh3.googleusercontent.com/FMrsRGg4e1AuMu6m4uCIpM5nawtelx8reIfMtog4nuxXU9C7--UKQnUEAm9s4Vc7OfMjfIDX5loNOw4Agz2HAw'
  lat: 40.118715
  level: 6
  lon: -88.242373
  name:  'Richard D James Mural'
- ap: 3661
  img:  'http://lh3.ggpht.com/-xag7tp3BReTAhfRmVAvpMw1Af15prESg4rve7QnsiIC5IKmKjBszxDIj8F212BmRU1apH_2u_9wAmq58_91'
  lat: 40.114157
  level: 6
  lon: -88.238621
  name:  'Bombay Indian Grill'
- ap: 3661
  img:  'http://lh6.ggpht.com/0IsQORyEW-bPA7sEbGspygtoI7ixEshm_2fUw5oeh9AeXg6JN5w0ypYIshpuKm-C0nG4Vm2XmpLvtWTZzWzd'
  lat: 40.111607
  level: 7
  lon: -88.233753
  name:  'Chabad Menorah'
- ap: 3661
  img:  'http://lh3.ggpht.com/1Z3mCRroEUysinW4hlDhAFNnfog3gwBM_aM8wYT6tQPiXMMmaRE9CrO5XM6QMe3UPHzMQSoxFmvWlkwOTRAv'
  lat: 40.111111
  level: 6
  lon: -88.230176
  name:  'U of I Mural'
- ap: 3661
  img:  'http://lh5.ggpht.com/ZDv0mHiZcEfLxGVibvfnMCu7reJceCVnxa4GeBjK2DO4Y4a0x-M7C2M0rEam-_bPlr2e2476RXe15pRY48s'
  lat: 40.114351
  level: 5
  lon: -88.227096
  name:  'Chi Epsilon Civil Engineering'
- ap: 3661
  img:  'http://lh4.ggpht.com/ezHSw_hRdts3U3bzkEEn46LneS1miDpbSGoxg0v1TqG_W82bvfR2uSTZeDFfhG0kmPJAkOblWP_ZilA6TP8'
  lat: 40.112523
  level: 4
  lon: -88.227765
  name:  'Bardeen Quadrangle - North Side'
- ap: 3661
  img:  'http://lh5.ggpht.com/hyt1tgr8r9kkFsN0rOP1Hs4-eQkadvsRFAGCd7uSKtvgbFc9ThHgjAfizSArYfLvgYhYFD7nh-_Qm-TqcmBE'
  lat: 40.11894
  level: 3
  lon: -88.214035
  name:  'Crystal Lake Labyrinth'
- ap: 3474
  img: http://i.imgur.com/5j1qaiT.png
  lat: 41.556686
  level: '?'
  lon: -89.462712
  name:  'b478d0bbcead4c41ae485c4cef07807b.16'
- ap: 3474
  img: http://i.imgur.com/5j1qaiT.png
  lat: 41.812283
  level: '?'
  lon: -89.686219
  name:  '2c47cde8fd624412b83048dc716c978b.16'
- ap: 3474
  img: http://i.imgur.com/5j1qaiT.png
  lat: 42.356918
  level: '?'
  lon: -90.002898
  name:  '4b2b62e3565247ada71f7778b3670cf1.16'
- ap: 3474
  img: http://i.imgur.com/5j1qaiT.png
  lat: 41.816052
  level: '?'
  lon: -89.694085
  name:  'c604d1508e9c497bb0473a6aaface8c9.16'
- ap: 3474
  img: http://i.imgur.com/5j1qaiT.png
  lat: 41.556376
  level: '?'
  lon: -89.460081
  name:  '6c12dc3974dc45158c01b41e37791b4b.16'
- ap: 3474
  img:  'http://lh5.ggpht.com/tuo_ByFTbwLitFP5cBseOibqRxENxbCwOJ30dCnja5ijBI_qBv5vqNP7ZuZXnxhYM6ms_GbExZEwwKVUtwV2'
  lat: 40.093712
  level: 6
  lon: -88.281583
  name:  'Brownfield Dedication'
- ap: 3474
  img:  'http://lh6.ggpht.com/p2F3xw4xL4UdiMM9aSy628ISSglrvjPexpF3j340tMAP9MX07yh_sJv7kHVkeud8lyFf2ZwDohw3zsRS2PSd'
  lat: 40.093914
  level: 5
  lon: -88.281531
  name:  'Terry M. Warmbier Memorial'
- ap: 3474
  img:  'http://lh6.ggpht.com/Jz3ahY5LQ13wKWLY9SEvexiinJa3GeO1eB_FynplikRpa77swLST6cUAJjPpqKDSq2KU4Dcyui-QBstz_Z3k'
  lat: 40.094624
  level: 6
  lon: -88.282953
  name:  'Greenbelt 2'
- ap: 3474
  img:  'http://lh5.ggpht.com/nWEtxuKQdy0teBBue1DYmG7P3SF5-3A6zlB7GwVHBWlolAZYGq6Br78lWcF9ltFy-KeSlozXie2RmU6JfCUX'
  lat: 40.142673
  level: 5
  lon: -88.244603
  name:  'Italian Statue'
- ap: 3474
  img:  'http://lh6.ggpht.com/duOeXcOSQLWosdD0JJXg3pWWQp4t5sL0x9qDHoTIBFNOzEW0t53Lt2cnwgV2E_Su0l1ajIQxPtVbbK_sDRaS'
  lat: 40.141775
  level: 5
  lon: -88.242671
  name:  'Marketplace Mall Fountain'
- ap: 3474
  img:  'http://lh3.ggpht.com/07XrBN-er6Ecleor0n9RJ4DfGO6B2yn-ZxjI-Uy8Ba46Jtb6cXNVmATPiPiGyk-1jZ4wxa7-EeIWbWUqArCG'
  lat: 40.142554
  level: 5
  lon: -88.243468
  name:  'Dog Heart'
- ap: 3474
  img:  'http://lh6.ggpht.com/nbUJivBo0zF8f8aBbk1GwakUpPbLUVOoEovTTETYwJvfNIHXwG9XUbwoV0x-ly4ZO5Hsyv5KPo3c9cE6Nh8'
  lat: 40.118832
  level: 2
  lon: -88.243643
  name:  'Tesla Ball'
- ap: 3474
  img:  'http://lh3.ggpht.com/1G0o5RjtXyfAjbI-E2honhhelnuiq4lIkpHmB44e-AwSBuIxVOdLPVYjImbTMS8kyBdZuKuiMQHciUIdAWg'
  lat: 40.118368
  level: 1
  lon: -88.243737
  name:  'Frank Robeson Memorial'
- ap: 3174
  img:  'http://lh5.ggpht.com/AX1hc0zh7ZtN2MoSsNXTKwRtGJWb8EgeHffmjJfZvCLL7wvvjMZ8d0BwESKKrdNM--UUKA09PrLQ9qmTrMw'
  lat: 40.117186
  level: 2
  lon: -88.241556
  name:  'Champaign Limestone Sidewalk'
- ap: 3474
  img:  'http://lh6.ggpht.com/SCYK-XeMmOyfRrTt1-aQNoDA-2Sib4m5Ch26mTwo6XNdVeVnfi7W74Ik6IRLAPSoKzSS97pgwt50Jl9oSgGfP029USxZzQWKNJo3rbs-6YHBPBif'
  lat: 40.116792
  level: 6
  lon: -88.241752
  name:  'WEFT 90.1 FM Community Radio'
- ap: 3474
  img:  'http://lh5.ggpht.com/1FFq1l5byXiUE1FTO1Ki4CnurAyDTSJ7tatUNPN2PTAm6auSif6bq49bEe3gkQdpk6ixuhsUd-6KYXSi9NV9'
  lat: 40.113425
  level: 7
  lon: -88.238014
  name:  'Champaign Waterfall'
- ap: 3474
  img:  'http://lh4.ggpht.com/PmGpygZ2fBs43twk2Y44XZbgGcHWv0YimAq7Fp3vlIRRqUyLpSmDmFwcn1ucfmJarcQrAAXJjYAXAhNyxSrz'
  lat: 40.110049
  level: 7
  lon: -88.231968
  name:  'Potbelly Mural'
- ap: 3474
  img:  'http://lh4.ggpht.com/d3UqrcK5M1wuOe19dIaBUOkrXF4C9IxhOWfxqzM4zIHkGsUIRb1mckNapOMRkkCtVIe0rzJumb1OVDVc1_Y'
  lat: 40.108055
  level: 6
  lon: -88.233688
  name:  'University Baptist Church'
- ap: 3474
  img:  'http://lh6.ggpht.com/T15jgBwdGgKfY5ZEkmL6_eEeGWALRclzodBAIpqOXMAO4sP9g1Mt8CwDQCh5tDr_sZan-95c8YRI6F-W63_-'
  lat: 40.105692
  level: 4
  lon: -88.227097
  name:  'A Son of Deucalion'
- ap: 3474
  img:  'http://lh3.ggpht.com/rT55OoX-8s-w_ikrqOgpC7QkK-Iqp4ylicElGoWFagKRQ8LX3Uvv8TZ5Xc8BlId1btzo5FTbgddPN72kYwA'
  lat: 40.114327
  level: 4
  lon: -88.224492
  name:  'Siebel Courtyard Structure'
- ap: 3474
  img:  'http://lh5.ggpht.com/jro9CwZhnrQeIG1U5FFQiyWx5FXuXAVEZWNnEZT1JcpDh0V4B9uRUbAgrEUbr-ZFp9wWgNALG-uKlJUOi2AHwA'
  lat: 40.122838
  level: 4
  lon: -88.214851
  name:  'Champaign County Fairgrounds'
- ap: 3098
  img:  'http://lh3.googleusercontent.com/EwXPPCiuVPRkECPKlJtyqReSySoJKEdwrx1MkNVUy6EM9xWU_fet1Z-sLfx_P2_c54DeJcApxdl-hKg9vGVEtw'
  lat: 40.108224
  level: 5
  lon: -88.223549
  name:  'Colwell Playhouse'
- ap: 2724
  img: http://i.imgur.com/5j1qaiT.png
  lat: 42.11635
  level: '?'
  lon: -86.494605
  name:  'b14006f6283943feb0976cc5c909a006.16'
- ap: 2724
  img:  'http://lh4.ggpht.com/j8nn4oxG37YIXPvQKVP6CBbVkveyhoHNg8O8QFxZKgbKVegaP5OdjJl8L8HTjzdBoVKPJIFHmwN26NfE9n4'
  lat: 40.111897
  level: 4
  lon: -88.222485
  name:  'Engineering Student Project Laboratory'
- ap: 2724
  img:  'http://lh4.ggpht.com/1LUozaukItxu6cHk_7wORzYYNvskCHi_wUxbNOAcIXNbgLuYn7VElFG0tzY02e6pY-AEL8nNHAL6ewLCaLMH'
  lat: 40.10567
  level: 4
  lon: -88.228634
  name:  'Public Broadcasting Plaque'
- ap: 2724
  img:  'http://lh3.ggpht.com/HX3mWBGofQk08Qdp7A6KMK1AnSXlLEPJR-n6oeX69Efiiss29GHsLiDsHhRS5K8DrXh-QXP1T0AMaOsJmx_w'
  lat: 40.106921
  level: 5
  lon: -88.230145
  name:  'University Lutheran Church'
- ap: 2724
  img:  'http://lh3.ggpht.com/jW-2Ce-dZ1Q0ljxUo3Cv-jckhBnpc4tF_LgZS1keMALkHV6RdWqDFJ2IDEj9bbeUrZbHubk7zNmzoHoLXmA'
  lat: 40.121037
  level: 3
  lon: -88.21093
  name:  'A Fountain in the Forest'
- ap: 2724
  img:  'http://lh4.ggpht.com/8AjeZD8uLKBGqzwnDcp2t-wWRFmqZ03RVBIV2jccyPae0uVMwvjHgEmRfdS_lvnxJTIwosCM3Xlfpw-vIwZOdw'
  lat: 40.118549
  level: 4
  lon: -88.212935
  name:  'Francis and Hermenia Kruidenier Memorial'
- ap: 2537
  img: http://i.imgur.com/5j1qaiT.png
  lat: 42.487405
  level: '?'
  lon: -87.802521
  name:  'dec2db54b23e4943876240c2ef90b39b.16'
- ap: 2537
  img: http://i.imgur.com/5j1qaiT.png
  lat: 43.220098
  level: '?'
  lon: -86.3314
  name:  'bdfe213652fb4fbc9f5d1418f8b7af6c.16'
- ap: 2537
  img: http://i.imgur.com/5j1qaiT.png
  lat: 41.894743
  level: '?'
  lon: -87.615747
  name:  '069b4a9b0faf4ba78fd1f66dc1566d2b.16'
- ap: 2537
  img: http://i.imgur.com/5j1qaiT.png
  lat: 41.801253
  level: '?'
  lon: -86.748358
  name:  '3b941a2b26eb4760affe66cba6a4ba33.16'
- ap: 2537
  img: http://i.imgur.com/5j1qaiT.png
  lat: 41.895544
  level: '?'
  lon: -87.609918
  name:  '69b5b12452284cfe80ee2aa3f5052d16.16'
- ap: 2537
  img: http://i.imgur.com/5j1qaiT.png
  lat: 39.862554
  level: '?'
  lon: -88.161613
  name:  '8f80e19fe18c4e13a06ca5d36e66d5c2.12'
- ap: 2537
  img: http://i.imgur.com/5j1qaiT.png
  lat: 39.986869
  level: '?'
  lon: -88.266876
  name:  'c0c561eb8ffb4ac380cc6b9b8cdafde8.16'
- ap: 2537
  img: http://i.imgur.com/5j1qaiT.png
  lat: 41.894687
  level: '?'
  lon: -87.609994
  name:  '71d41d0e027641a9a8ce927698097c51.12'
- ap: 2537
  img: http://i.imgur.com/5j1qaiT.png
  lat: 42.116085
  level: '?'
  lon: -86.493446
  name:  'e22b2e266ed6451190cc8295d5438c83.16'
- ap: 2537
  img: http://i.imgur.com/5j1qaiT.png
  lat: 41.896156
  level: '?'
  lon: -87.610071
  name:  'ac0239c3ac404385984dd819cebf734a.16'
- ap: 2537
  img: http://i.imgur.com/5j1qaiT.png
  lat: 41.214048
  level: '?'
  lon: -90.331066
  name:  'bfeed7c9ddab4d91b4e8bfd6798d3e52.16'
- ap: 2537
  img: http://i.imgur.com/5j1qaiT.png
  lat: 41.968986
  level: '?'
  lon: -87.65413
  name:  'e534b44a5a5942ff94bf4aa58ac38b14.11'
- ap: 2537
  img: http://i.imgur.com/5j1qaiT.png
  lat: 42.161049
  level: '?'
  lon: -86.435539
  name:  '2d8b6287ab974aa2afb6fc8b20a2b2fb.16'
- ap: 2537
  img:  'http://lh5.ggpht.com/dRrlHXlT2nMNgZNHiYo52ha9L-Xay9DyOJR2Cpqs74hgAJ09abn9OTAtMzRVedt1_R9ObZllLO98vRhNMfgTgVsJCk1S-HJwX_XgiGpG4lz3a328'
  lat: 40.11671
  level: 7
  lon: -88.24263
  name:  'Cafe Kopi'
- ap: 2537
  img:  'http://lh4.ggpht.com/BEyFLhgqk0ySf2zElnARv5eyaQggj_zbHSagW3_DGt9BieScmU4jGPvJCjezTjbiCP-DOJPLPfJ3HhnYAiQLEQ'
  lat: 40.119288
  level: 6
  lon: -88.248086
  name:  'The Hartford'
- ap: 2537
  img:  'http://lh3.ggpht.com/psgrRGIt786cUSq8EV7SBSDsS-aptrUKjaCXWv864H7OaJL2K71qJpxU9Iw-acwFMi52ZN2qpEmicGmlmhJq'
  lat: 40.121061
  level: 6
  lon: -88.250227
  name:  'Curtis F. Columbia Legacy Plaque'
- ap: 2537
  img:  'http://lh4.ggpht.com/MvwoDsxwfyNLHzfGkFJl-4VFeX7OvqB0hsMCrZ2D9Olh8GSghAJDfFfDh7a7cOtMIGwEDMyesZoKvKCXAGj4'
  lat: 40.116553
  level: 6
  lon: -88.242268
  name:  'Esquire Lounge'
- ap: 2537
  img:  'http://lh3.ggpht.com/xAJIzhGMpnqEYisIgB5-btiULPi6cL4uLys9fqf8_smF-6qAXP9rUsCbWIgPVIIHfGINQNF2Ypx58YvDo1hh'
  lat: 40.127093
  level: 4
  lon: -88.23927
  name:  'Bridgewater Park'
- ap: 2537
  img:  'http://lh3.ggpht.com/oSQ_YOHo2mfYjOa8bPK9ellznKK29UluW-SeXoGYra9VFg8dJp6YQRdHbHHaTExqXs1qUMBNmpI2hUPcC4GI'
  lat: 40.106789
  level: 4
  lon: -88.222992
  name:  'Beginnings of Computer Music Plaque'
- ap: 2537
  img:  'http://lh4.ggpht.com/q2L_InMJy4JZq79dX9LLf9XauoaXGOLl7SWvVyD9F_jIgyqpn7SsqHfY9EMYq1SLteTpj0cQDZN4f9x0IuvV5w'
  lat: 40.107273
  level: 5
  lon: -88.222942
  name:  'Tryon Festival Theater'
- ap: 2387
  img:  'http://lh5.ggpht.com/NocB62Pnsk9rCOS8TWT0vfucrEDjwhiqaxl6SHRJjjHpHjSlG4IuSzbQb1B-SqYZVjQXekDUD0IZwmpMDycw'
  lat: 40.11108
  level: 3
  lon: -88.227392
  name:  'Stanley H. Pierce Memorial'
- ap: 2312
  img:  'http://lh5.ggpht.com/28al1CSkHNCrM9Sb57TYmawr1uFh6r5raWMJKD4QjLCj6N5YHEYIIizONs_hHF3pHuIppLjqxbTFcvrI9Dq9'
  lat: 40.111205
  level: 2
  lon: -88.227583
  name:  'Theory of Superconductivity Plaque'
- ap: 2537
  img:  'http://lh3.ggpht.com/wOZOXhKOnhbKEPMQke-zGIG_vheDkHM8q19B1n_is5H7t1whBcQxBIGZI6VIPNw8mdCNXG6EUZeSjd1YLdngdg'
  lat: 40.108965
  level: 5
  lon: -88.227184
  name:  'U of I Mother''s Association Plaque'
- ap: 2462
  img:  'http://lh4.ggpht.com/RF7EbCh1YRbFHfis_PEc88NF1v4Ndhj-Rm7rrlY7F8s-Mrv1EMEFnajFbYiNffZ_3kMNL80Zv-_jtaMYMtLA'
  lat: 40.110655
  level: 3
  lon: -88.22725
  name:  'Gothic Brass'
- ap: 2312
  img:  'http://lh5.ggpht.com/LLVKvcsTaSPmGBzaGFrvYIV4RhGzb6LqC_npAarehd2aLZSaVhjGzQV6T63Ke07reCQzO-GoZXmEfwZMOcM'
  lat: 40.110569
  level: 2
  lon: -88.226784
  name:  'Cubist Art at MSEB'
- ap: 2537
  img:  'http://lh6.ggpht.com/hPutcAvS7zQN-tagfEY-fvkvdlgj7j5sZwUSLY883Twc7tHyslIAp7lzWYciJmCytDfsbFQtavAlzqGwCgFZkw'
  lat: 40.105562
  level: 6
  lon: -88.234991
  name:  'Acacia House'
- ap: 2537
  img:  'http://lh4.ggpht.com/S734i_6SihPtJW8WdegLb3gEuKeNx8e1qDm6CXjREzYHohw7XqL82m4EF2K5nS2TixHweLn3EuJ4YoQnrsw'
  lat: 40.107751
  level: 6
  lon: -88.231532
  name:  'Graduate School of Library and Information Science'
- ap: 2537
  img:  'http://lh5.ggpht.com/lagLH-yy6la5yqn0YoNwS7uxRSPXDfSP2QwvgnDmG-ZcaxqMNKYlASfYjw50kzq9GOOJ-0nmAa-3IlmGe-A'
  lat: 40.105777
  level: 3
  lon: -88.222002
  name:  'Preschool Learning Plaque'
- ap: 2537
  img:  'http://lh5.ggpht.com/4eagHlnlpVbtFi_knZN73PIs2A--Ipj6SOlkQADePlfnzfOnJn-cAv0IoNNv4qR8WrbUFImUKHBknyaoAewO'
  lat: 40.111383
  level: 4
  lon: -88.225675
  name:  'Only Rain Down The Drain'
- ap: 2537
  img:  'http://lh4.ggpht.com/cXzBVEYwsBuU4BX2Fkwi_8TwqSW6ExF6m7IyyHAOrdCMru_sr74MrtK8iGVa0zj3YFt--pdhmI5xwUIeJw'
  lat: 40.120191
  level: 3
  lon: -88.215485
  name:  'Champaign County Fairgrounds'
