- ap: 11720
  img:  'http://lh5.ggpht.com/HhVreJipNvxPRVFpmsh2BPo9PcpPO2Q2l3jCpDjIKgfKGycoTNPXR4DKiYccBXW4X-4dJf_vV0ESsWAWHcChsg'
  lat: 40.100936
  level: 8
  lon: -88.250855
  name:  'Donald F. Bresnan Memorial'
- ap: 9846
  img:  'http://lh3.ggpht.com/lzCSS0_tjwUV7JQ2fgLI0e05IrzPxlVUs-6aEPOwUv67IanQJSTi71gkw0SGm8asmoE_r3Xoh048Fd9xRpE'
  lat: 40.099169
  level: 8
  lon: -88.251419
  name:  'Lyman Larson Memorial'
- ap: 9657
  img:  'http://lh4.ggpht.com/PmGpygZ2fBs43twk2Y44XZbgGcHWv0YimAq7Fp3vlIRRqUyLpSmDmFwcn1ucfmJarcQrAAXJjYAXAhNyxSrz'
  lat: 40.110049
  level: 6
  lon: -88.231968
  name:  'Potbelly Mural'
- ap: 8909
  img:  'http://lh6.ggpht.com/qSCp5fQMlyCQ-GOAgiSFy5gaHJei705Pa3eOlJiYO5wGjZTYtjA8q7QWWfAWcLKjxZSaFiMfXOPR8SO7rWU'
  lat: 40.099353
  level: 8
  lon: -88.251876
  name:  'Raymond B. Cattell Memorial'
- ap: 8159
  img:  'http://lh3.ggpht.com/rUgM7jkTqL0VHxvsSW0yWuNJF5UrU62ITflghfn4PfKjn6L4WGz0ALkv98fc_q9dmK9SSpU1PXIawGvcRwE'
  lat: 40.098246
  level: 8
  lon: -88.251974
  name:  'Hessel Park'
- ap: 7970
  img:  'http://lh5.ggpht.com/TwKxvDv1ImbH5RTs7GHqqK_rPohVtqtgToH7YuDkkwa5BRFiMEcY1vWcFrJLkhaXW6cd2YVL0_Vro2JaA3K1'
  lat: 40.131575
  level: 3
  lon: -88.314062
  name:  'Mark L. Rambow Memorial'
- ap: 7785
  img:  'http://lh6.ggpht.com/yjfa0jJLjsfLRf9Zn9iafMp3MuIhgCi0WiOCF8GqTGiGvzEnsPGrFa0H1n-uzWhVehLbt44ShthsA32VzHd5iQ'
  lat: 40.099737
  level: 8
  lon: -88.251157
  name:  'Tyler Van Atkins Memorial'
- ap: 7409
  img:  'http://lh5.ggpht.com/dRrlHXlT2nMNgZNHiYo52ha9L-Xay9DyOJR2Cpqs74hgAJ09abn9OTAtMzRVedt1_R9ObZllLO98vRhNMfgTgVsJCk1S-HJwX_XgiGpG4lz3a328'
  lat: 40.11671
  level: 5
  lon: -88.24263
  name:  'Cafe Kopi'
- ap: 7222
  img:  'http://lh6.ggpht.com/5CDidk0pqfUtSW_Yqouuf3diX8drdMu9DoT728QpSz8q6A-WxNhT0yLcgM_7gGpyIAeXrHiTkIzzaVJFgnN9WA'
  lat: 40.099852
  level: 8
  lon: -88.251947
  name:  'Our Friend Tim Palmer'
- ap: 6659
  img:  'http://lh3.ggpht.com/xSCQSCRT6pHyQi9LDI3OamMdZnhLQ06OSlHRHnJC0FkDo93VgOcr3gyAV0aPAKagwq9V5iViSSCgIr6_fWCB'
  lat: 40.134441
  level: 3
  lon: -88.314067
  name:  'Seasons Within the Wetland Environmental Sign'
- ap: 6659
  img:  'http://lh5.ggpht.com/6W_b3aoHNnxViA4TkycmE5hhV5q_VHfypLNlgG4sAyw2eJ5Meyzi2-vwTA8miyKA5pZApxbfpAa7uc0zlCM'
  lat: 40.134758
  level: 3
  lon: -88.313172
  name:  'Sunset Ridge Prairie '
- ap: 6659
  img:  'http://lh3.ggpht.com/rT55OoX-8s-w_ikrqOgpC7QkK-Iqp4ylicElGoWFagKRQ8LX3Uvv8TZ5Xc8BlId1btzo5FTbgddPN72kYwA'
  lat: 40.114327
  level: 7
  lon: -88.224492
  name:  'Siebel Courtyard Structure'
- ap: 6659
  img:  'http://lh5.ggpht.com/dEeT4acpLu-WQFlZWd3psap5qAqqPTSVzm8Qt1QtpqtwZ0j1V9eKFcmpgN9K_x1PL4XVchuevw25rxHekz3tvQ'
  lat: 40.111968
  level: 6
  lon: -88.226793
  name:  'Bardeen Quad Structure'
- ap: 6659
  img:  'http://lh3.ggpht.com/x5fBw8MRogV8dm3kPO5zKNkUrQxn0dM7d1PIoASdX1_Rc8H5Duex4iZdOoIlqazCGll25TmptsWIRq1JFmj6'
  lat: 40.112135
  level: 5
  lon: -88.225762
  name:  'Computer Based Education Plaque'
- ap: 6472
  img:  'http://lh3.ggpht.com/j0Yx7yuvUTJbnHtY38VFaty8xpyZMMDS_bSmvbHQx_2nQBiLqF4PGpLNdTGXkRgA3-OANQgASvn1mPGcuJi6HA'
  lat: 40.131715
  level: 3
  lon: -88.31369
  name:  'Mark L. Rambow Tree'
- ap: 6472
  img:  'http://lh4.ggpht.com/ryDcZUJK2aQ_fI0-hY850_t4ZmG2hNmtCx7cxbX83w3cnUWdI-ywpTuQrUVQNxGl3_DcxxNr6bupfDTsagRa'
  lat: 40.117107
  level: 7
  lon: -88.242467
  name:  'Radio Maria'
- ap: 6472
  img:  'http://lh6.ggpht.com/SboHv2_AWJ6ll559fK1A5a1UIAKf04oIHrgidra_E6L8gDK_mQ-DaM7hKYkv7MT6ZAA8pzgPxv_Vy-eNN7g'
  lat: 40.110608
  level: 4
  lon: -88.231957
  name:  '217 Tattoo Co.'
- ap: 6285
  img: http://i.imgur.com/5j1qaiT.png
  lat: 41.634356
  level: '?'
  lon: -87.178294
  name:  'd45d47f7d3a34245812bec73013df8d1.16'
- ap: 6285
  img: http://i.imgur.com/5j1qaiT.png
  lat: 42.781053
  level: '?'
  lon: -87.757742
  name:  '9a047756efef4b0b809bdb07c058c4b5.16'
- ap: 6285
  img:  'http://lh6.ggpht.com/gSkiCCAxYwrqFAngG83B_LFqd6Nhlw0xIRsGwVPkAD2N-u-qOYoHAUbgxP6laZhFqbIoQevsE0daWcUAMtbW'
  lat: 40.085688
  level: 2
  lon: -88.330182
  name:  'Metal Mesh '
- ap: 6285
  img:  'http://lh5.ggpht.com/tfAfnmo6mSMc6U0P533NMFJRGwn6lasmx-MLR2JJg1QOizMKkghFU8E7hb2zgYgdQEbgnCJUlvZIMdrrJe4'
  lat: 40.100822
  level: 8
  lon: -88.25193
  name:  'Seeds of Kindness Bench'
- ap: 6285
  img:  'http://lh5.ggpht.com/4DJAFPeZ_w65Km7VDnsbOqouQaeBuPuxA0KHPQToT_B6o1hBxzdu3kn89UhHgv22Ygj52Fx9QqcbzOytuw'
  lat: 40.100078
  level: 8
  lon: -88.250683
  name:  'Brian Clark Memorial Plaque'
- ap: 6098
  img:  'http://lh6.ggpht.com/S7Utf4_59vQkAP5JhC3mdbzVLKBTt-0zoJ2UjfxUnN10VBbixO-_VwvssWd1LbFSx_yafaijd_U0wTGo870'
  lat: 40.100941
  level: 8
  lon: -88.251314
  name:  'Gabriel Patrick Maxeiner Memorial Plaque'
- ap: 6098
  img:  'http://lh5.ggpht.com/-UWK84I78Sftf7yg-E2pg6xEAWTvyiThgJBJlxbqOZPYKNmzQ8uGgEEMetzplrG1HpXG5kQqNItUeXKxOHDsGA'
  lat: 40.100286
  level: 8
  lon: -88.251747
  name:  'Tennis Anyone'
- ap: 6098
  img:  'http://lh4.ggpht.com/B_I1b0Jy3vW41RX8jjCNPP68AULplU0Pf8ddolyKmpEWCfBVShQkmjF1HfTPzDjmBBQGgOs0jHW-rUR0mv8BkA'
  lat: 40.098789
  level: 8
  lon: -88.251685
  name:  'Curtis William McKinney Memorial'
- ap: 6098
  img:  'http://lh4.ggpht.com/4LxsGZZMk3DnpJXUvqzrL54CHSP5TDXjUnDJyHmCCTtCJIjGEI7kxT9g4uxfSPh0X6yGLgQo1jfqbu7B8VEr'
  lat: 40.099084
  level: 8
  lon: -88.251826
  name:  'Irina P. Stewart Memorial Plaque'
- ap: 6098
  img:  'http://lh3.ggpht.com/G1CvGhpethi5UmprDWxZN9rTblHa3anSsQz1UPgJtkREkfN7lDFoxFObst0609Cg5mofuZxJKr0ddNKhY4VL'
  lat: 40.098464
  level: 8
  lon: -88.251426
  name:  'Ruth Haasis Memorial'
- ap: 6098
  img:  'http://lh3.ggpht.com/VrbXGwlUosNLEkVdshWUFoVa3KtlJQoEU4yLYygvftYbPCmxo644Uvar_v8Kb9RS53hB0tXgvV44GotrxZyu'
  lat: 40.098592
  level: 8
  lon: -88.251676
  name:  'Ruth and Fred Steigmann Plaque'
- ap: 6098
  img:  'http://lh3.ggpht.com/8FqlniFErK7cq59awiT84u8KyV4FIRd5krZzfYa58zJToFps7whdBnriPqvO_kFKeLUE3SWbJhCOPuvUQzaGFA'
  lat: 40.100691
  level: 8
  lon: -88.251337
  name:  'In Loving Memory of Zeus'
- ap: 5909
  img:  'http://lh6.ggpht.com/0IsQORyEW-bPA7sEbGspygtoI7ixEshm_2fUw5oeh9AeXg6JN5w0ypYIshpuKm-C0nG4Vm2XmpLvtWTZzWzd'
  lat: 40.111607
  level: 5
  lon: -88.233753
  name:  'Chabad Menorah'
- ap: 5909
  img:  'http://lh3.googleusercontent.com/erdNDM4HaNMn_EeFz0IoM_0LQWykLGJ1Y7-URXSvEithPHs8Rnwf7oWZyxVKu7qOpPdKjeeCy3dkywZ7n6KrsA'
  lat: 40.111615
  level: 4
  lon: -88.235593
  name:  'Fred B Lamb Trail'
- ap: 5909
  img:  'http://lh3.googleusercontent.com/ZEt3dzGoBmn_BW1MwPTE7MY4Jcoj66UkwEA7wA7H40hbb-SwJheC1V67Dh89eAbpG6H_SeWDV3E0X5lRAkQ'
  lat: 40.111342
  level: 4
  lon: -88.23557
  name:  'Boneyard Greenway'
- ap: 5722
  img:  'http://lh5.ggpht.com/ek0AuIkZd5CWKmIdjFjq5gOvptOzC8VJUnyatNG8ZyUoT8-mvkd4seW8Gpbl4kkgiatIbr57h5kK_5z6NSGD'
  lat: 40.131581
  level: 3
  lon: -88.312816
  name:  'Sunset Ridge Park'
- ap: 5535
  img:  'http://lh5.ggpht.com/f710C9AvOEB7ieCI4f382wWUP4OgDxiqPzbxqxct6Ugf2PWBfyXyDpG_JcRQ6PaZ_jS0jpXXBhNSt_u9rFA'
  lat: 40.113864
  level: 7
  lon: -88.224839
  name:  'Plato: A Social Networking Revolution Begins'
- ap: 5348
  img:  'http://lh4.ggpht.com/PHV-1ZpFzCAl_ViCKwBY_x2pIDbVyaT7wJH1sTvFJCxrSdRrO1x7NaXq9OdRGwz_Mls4iwk6wuGHMBArfV54'
  lat: 40.098688
  level: 8
  lon: -88.25063
  name:  '"New Holland Yellow Dinosaurs" at Hessel Park'
- ap: 5161
  img:  'http://lh4.ggpht.com/ykcBOYTGpoR392b8KhoJ1HeCMQKdls6__qGzmBtOaVho1L5T2KYhV8130wLVGDT_Hr-dhJX4tl1qSQdDtLZj'
  lat: 40.085955
  level: 1
  lon: -88.332754
  name:  'Robert C. Porter Family Park'
- ap: 5161
  img:  'http://lh4.ggpht.com/1LzO6yLZvWb6_g3FLduNKYb6d5TVljqsdNnQggC6Idh7XbUSLf4TOcuWChcYsVve_pt7N5f77mEJLTqUmA'
  lat: 40.085878
  level: 3
  lon: -88.331166
  name:  'Porter Family Park Dedication'
- ap: 5161
  img:  'http://lh6.ggpht.com/prg5Oedqi1_YJMN9GAesf7bmbUwbMGc9v7E3SYkm-TYdudfpX9SwuC1J4D4zkb1K4yrvF2ZPNWDoUniixORu'
  lat: 40.086493
  level: 3
  lon: -88.330828
  name:  'Environmental Plaque - Prairie '
- ap: 4972
  img:  'http://lh4.ggpht.com/YMDDyyJpIhe7xeYVGH048CFQDr7lX1SIPXzk4kXWr6zVgpUv6D1YGTLKwyg3DrhDoCuv-knBgF2gKZTylVRQ'
  lat: 40.132912
  level: 3
  lon: -88.314568
  name:  'Sunset Ridge Park'
- ap: 4972
  img:  'http://lh3.ggpht.com/psgrRGIt786cUSq8EV7SBSDsS-aptrUKjaCXWv864H7OaJL2K71qJpxU9Iw-acwFMi52ZN2qpEmicGmlmhJq'
  lat: 40.121061
  level: 6
  lon: -88.250227
  name:  'Curtis F. Columbia Legacy Plaque'
- ap: 4972
  img:  'http://lh5.ggpht.com/AmsS7GEfFX-_Icem2DP6mjQahV1jeut1CGdeqLqfpyzx0m5SqhVY4eoAohizF0xsevPQufmLRMoVj2rW7Fe8'
  lat: 40.111689
  level: 7
  lon: -88.231193
  name:  'Koi Building Art'
- ap: 4785
  img:  'http://lh4.ggpht.com/A15Qc2ImqJFORKlDItFStr3pkJ1pX5dRyG8VO6RoziKIqMOMMTQdJa-fUInsxL4o7Yxg1XNHfexBZuNAyLG0yw'
  lat: 40.132021
  level: 4
  lon: -88.31285
  name:  'Sunset Ridge Park Dedication'
- ap: 4785
  img:  'http://lh3.googleusercontent.com/0hydzoUNO41CcF2qZhlhMbaEgMVFjql3_RSDgrJLVIToqRsqh2aBcAoXsrxAlwXqgTcB1R71HZiHrjq1KdnXgA'
  lat: 40.11243
  level: 4
  lon: -88.235749
  name:  'Fountain at Scott Park'
- ap: 4598
  img:  'http://lh6.ggpht.com/ocpQF23CdY7CXPOYMbPL3wLLV7Rc0VayvSyooA07il2lG0oiiQDbDCnsKqO1ysXJAVlzGikCKS-kVOLb6rog'
  lat: 40.135079
  level: 3
  lon: -88.314559
  name:  'Sunset Ridge Decorative Gate'
- ap: 4598
  img:  'http://lh5.ggpht.com/fGRHfMAqdWrUnPE8GStKSdMkgQmu9qvuxAC4VzcU1v2KyxQu2BeuJKhvhefSeFNTkgFh6YdR-F4P6plMbh0'
  lat: 40.110194
  level: 4
  lon: -88.231488
  name:  'Fighting Illini Memorial'
- ap: 4411
  img:  'http://lh5.ggpht.com/BUGNnLReyCBJJj9_zpqgwv5_CAyiW8fWBpyVs0ip1hT5NEE6YKCYzlc8ahldKzk_xv-4uckNJNb6NrJd6r33qg'
  lat: 40.116989
  level: 4
  lon: -88.242255
  name:  'Blind Pig'
- ap: 4411
  img:  'http://lh6.ggpht.com/SCYK-XeMmOyfRrTt1-aQNoDA-2Sib4m5Ch26mTwo6XNdVeVnfi7W74Ik6IRLAPSoKzSS97pgwt50Jl9oSgGfP029USxZzQWKNJo3rbs-6YHBPBif'
  lat: 40.116792
  level: 7
  lon: -88.241752
  name:  'WEFT 90.1 FM Community Radio'
- ap: 4411
  img:  'http://lh4.ggpht.com/vKgqIecJshMQxrhO-ZhMjcIyARuJdyU63wKfzAG0wouZex6LVzO46Qi5zM1N3Jx8xyantDFk9sQGsSEBhb-y'
  lat: 40.101327
  level: 8
  lon: -88.251412
  name:  'Zeus Memorial'
- ap: 4411
  img:  'http://lh5.ggpht.com/ENeQgqydWbi9-Oyf7vizunoRqJdsZV4o0RA_956wjGI8hqpTCHBPyWMpbTrrkwYpj5tgzDRvevGmvH4eFRU'
  lat: 40.099593
  level: 8
  lon: -88.251724
  name:  'Blessings from Devon Elaine Cattell'
- ap: 4411
  img:  'http://lh5.ggpht.com/C6wRSaEWO1NYGY5luyYZKHG3Z3aib4aflaPdV7B9G6N6adE890g3QuPRSvCUhsdFHqjoVUjo27mfz9WsjXyuhQ'
  lat: 40.100521
  level: 8
  lon: -88.250864
  name:  'Gabriel Patrick Maxeiner Memorial'
- ap: 4411
  img:  'http://lh5.ggpht.com/Tn5ARN-X6VTc2q6atZ2WYq3c2g3gbSGXu6_vXf1MDwHfLpdTtnQ-CilBAVGvL6R-SHhq3fJ4WZI-yiJKmIId'
  lat: 40.110398
  level: 4
  lon: -88.235143
  name:  'US Post Office, E Green St, Champaign'
- ap: 4035
  img:  'http://lh6.ggpht.com/WVVbmiu2GGTnPTszcnYYILHKlkZDoxB-QY6Yv7YPoUfdVn92jYnKjpVKNkfWdFrPjq-BaFeKGJWLZlE-bbA'
  lat: 40.120467
  level: 5
  lon: -88.2577
  name:  'Salvation Army Church'
- ap: 3660
  img:  'http://lh4.ggpht.com/BakPypxJUdTOMFo4cSzlewsmPlHw3DyQp4kVY2zAFfJvhvj9CnaQm6cqvB22BqjknBbUYxEb_eYnIZ2skgfO'
  lat: 40.11586
  level: 2
  lon: -88.227238
  name:  'Flow'
- ap: 3848
  img:  'http://lh4.ggpht.com/FAqopsayR2vfoblDs12USLGHxH0S1lfng6IlvgMPO2k4a1fKXYQnDWf0Lbf3zAqLfMU0aGaHpSZxycRqft9pmQ'
  lat: 40.119381
  level: 6
  lon: -88.24555
  name:  'The Lodge on Hill'
- ap: 3661
  img: http://i.imgur.com/5j1qaiT.png
  lat: 40.360306
  level: '?'
  lon: -88.431268
  name:  '26ffbb1778974e99a93bb874fcb6c57c.12'
- ap: 3661
  img:  'http://lh5.ggpht.com/quR7Kzalr2uxeV70VwLSj7LDpe5ywDhO4LlSp1eTAhoVOCsyWIga42hKlmcrjiGlI3hZd24DWvtOfYe21RM9yA'
  lat: 40.11721
  level: 5
  lon: -88.236627
  name:  'Don Moyer Boys and Girls Club'
- ap: 3661
  img:  'http://lh3.googleusercontent.com/DJEd6b3-MwXXA5oX_rKCuAtk2dlQ1yS2p9nG8oDmc86DmbzFvhKsP-KR9nKAzn84UUf_K5LjjTMgrt7AjCoU'
  lat: 40.110853
  level: 5
  lon: -88.238339
  name:  'Boneyard Greenway'
- ap: 3474
  img: http://i.imgur.com/5j1qaiT.png
  lat: 41.891332
  level: '?'
  lon: -87.609518
  name:  '2a27b73115c940dc9f084b8938c973c1.16'
- ap: 3474
  img: http://i.imgur.com/5j1qaiT.png
  lat: 41.891383
  level: '?'
  lon: -87.610138
  name:  '8490a15bbc6d40e68d80c7d9626f193c.16'
- ap: 3474
  img: http://i.imgur.com/5j1qaiT.png
  lat: 41.891136
  level: '?'
  lon: -87.610875
  name:  '8d1b60a768e948e0aff2ac0a285a3e03.12'
- ap: 3474
  img: http://i.imgur.com/5j1qaiT.png
  lat: 41.896156
  level: '?'
  lon: -87.610071
  name:  'ac0239c3ac404385984dd819cebf734a.16'
- ap: 3474
  img: http://i.imgur.com/5j1qaiT.png
  lat: 40.273821
  level: '?'
  lon: -88.676394
  name:  'Blue Star Highway Memorial'
- ap: 3474
  img: http://i.imgur.com/5j1qaiT.png
  lat: 40.272743
  level: '?'
  lon: -88.675349
  name:  'Adams Leaning Wheel Grader'
- ap: 3474
  img:  'http://lh5.ggpht.com/vYay8RKsCV_BP_MkeFm7se0VZoYthm-1pThiATAADleBlTsPowobgZyUoU7DUto6p5cpg9adpCcTgNR6iop0Jw'
  lat: 40.120121
  level: 7
  lon: -88.251967
  name:  'Sesquicentennial Neighborhood Sign'
- ap: 3474
  img:  'http://lh5.ggpht.com/UTu16bRRNKyJj2cFsU4mRCMkGJbH7YCAm0gQdiJKjnnZtB00kMEb_-Lhf6AnAXRia4MH6FBrWQGkBCrMUz8'
  lat: 40.120135
  level: 7
  lon: -88.253121
  name:  'Rain Garden'
- ap: 3474
  img:  'http://lh3.ggpht.com/5iH9kzVECg-dsKRPYTzLzAT5eoYnDhGrcJB1N-hLShal9eEun1_Ml0oFX2c42cGNjKj8-yvsEnUn2j4C_90'
  lat: 40.11792
  level: 2
  lon: -88.249845
  name:  'Thomas R. Sandrock'
- ap: 3474
  img:  'http://lh3.ggpht.com/KxQsev6i7POmNh1IadCWwWQSMdCuLIYpPwIdenSlVtzum523D1R-1kfeTbuOGTkt_jDwn4jswCu1edkumm2-'
  lat: 40.110037
  level: 4
  lon: -88.23549
  name:  'Red Lion'
- ap: 3474
  img:  'http://lh3.ggpht.com/LR76HrJqriPFUoc2XSs7jb2SotnStZv20kI7rgUx8B5HqhmetnTW4MA1tCp1ws4g5gw0sf9g7M3Lwq4VwfpD'
  lat: 40.111687
  level: 4
  lon: -88.225353
  name:  'Transportation Building - University Of Illinois'
- ap: 3474
  img:  'http://lh5.ggpht.com/4eagHlnlpVbtFi_knZN73PIs2A--Ipj6SOlkQADePlfnzfOnJn-cAv0IoNNv4qR8WrbUFImUKHBknyaoAewO'
  lat: 40.111383
  level: 4
  lon: -88.225675
  name:  'Only Rain Down The Drain'
- ap: 3098
  img:  'http://lh6.ggpht.com/ZQaguxPyiC-6DeFDFa2niVKJz3ySxwxYaFCv8PRdNuoMYUfP-Xtirg-8pXCTdBCyH1BruprOVmqf3D1kdp7o'
  lat: 40.115225
  level: 3
  lon: -88.248866
  name:  'Holy Cross Catholic Church'
- ap: 2911
  img:  'http://lh6.ggpht.com/j712bbvDknzGlAU87nZA1Bx45Ng-0MGA9Uvuv-3WzIKA3W51mXOZpJ-TzVSbuU3uE2AsJ5wcO7_B6WDpdRr0'
  lat: 40.110684
  level: 4
  lon: -88.226053
  name:  'BCS Superconductivity Theory Plaque'
- ap: 2724
  img: http://i.imgur.com/5j1qaiT.png
  lat: 40.451766
  level: '?'
  lon: -88.117878
  name:  'd6cfe09ebcf44ee09b8cbc7b26c3a6c5.16'
- ap: 2724
  img: http://i.imgur.com/5j1qaiT.png
  lat: 40.33555
  level: '?'
  lon: -88.998923
  name:  '4c96398791b2462a8252b7bdba0ab9a2.16'
- ap: 2724
  img:  'http://lh3.ggpht.com/g1H1SJintXK5Zb7ng6DN7wix1q5otnzMK5JCJDnecwuIiohJmhXLJs1XzItxaTSYEuPPOqd4x-dGqd0WK5YU'
  lat: 40.13349
  level: 3
  lon: -88.313072
  name:  'Sunset Skate Park'
- ap: 2724
  img:  'http://lh5.ggpht.com/_9uqsDQROIwqIhKx_URY4DdZAapoZBEWK6Eaclt5mM5vPsjwQAD-v8Bv-4b-Smq2F8X4zOgzLx2KwySkFWc'
  lat: 40.118448
  level: 5
  lon: -88.25211
  name:  'First Church of Christ, Scientist'
- ap: 2724
  img:  'http://lh6.ggpht.com/IaC06rT1aNxUg_4UOc0RHOio2PUjl5w1cZcGYE56zHNZN9ZeRuAGzoAPG4XB6eJURfP8M5v7bDcq_AdB1E5A'
  lat: 40.119861
  level: 5
  lon: -88.238491
  name:  'Skelton Park'
- ap: 2724
  img:  'http://lh4.ggpht.com/9jXAzAxn0JZrLkU9VK9p-mNzjw3x_6QqwMAn4CAEBAHp_lo2iDZeV_y-hoUzP5CYwm8kOMyrTToZQOWJBRnw'
  lat: 40.115095
  level: 3
  lon: -88.249052
  name:  'Bayne & Schumacher Fountain'
- ap: 2724
  img:  'http://lh6.ggpht.com/RW34ntixvJkg7fD71TPYo_4KIsBzA0-a-6yXO0jKPbpGxX5gIGC7kBI-pXEF9OHhuolcAGW2fxyK3Pt42Iev'
  lat: 40.110489
  level: 4
  lon: -88.227412
  name:  'Bus Stop - Illini Union, Westbound'
- ap: 2724
  img:  'http://lh5.ggpht.com/LLVKvcsTaSPmGBzaGFrvYIV4RhGzb6LqC_npAarehd2aLZSaVhjGzQV6T63Ke07reCQzO-GoZXmEfwZMOcM'
  lat: 40.110569
  level: 4
  lon: -88.226784
  name:  'Cubist Art at MSEB'
- ap: 2724
  img:  'http://lh4.ggpht.com/CZA6uXTYgSkrccw1vqf6XFlfkzl6I7Rj79GOKIYGvd1Zem8O1u-opoJu65ma2eHnKdfysF0mOVGzc_am2Ns'
  lat: 40.110623
  level: 4
  lon: -88.22799
  name:  'Eta Kappa Nu Plaque'
- ap: 2649
  img:  'http://lh5.ggpht.com/szWXjFVU67N6nJHeZbrcsC2b8J7kXF7nBh_RooZZ5-ezcJsxWUvA7NZrGjJxfwTzVkc2HYMYLwh19UaYEbm3-Vmu4ZAG8959ZOG44cpeeyoUHtkD'
  lat: 40.108422
  level: 1
  lon: -88.227811
  name:  'Henry Administration Building'
- ap: 2724
  img:  'http://lh5.ggpht.com/KQ7QYG8rWnVxSme_uq3cOu8IreZRbztWWKHTNPBy_6GvCqP3ywy-HEoSUxqloLDeUggEVV0UhKLy8Ja0v0yPdQ'
  lat: 40.110844
  level: 3
  lon: -88.224091
  name:  'Institute of Aviation'
- ap: 2724
  img:  'http://lh4.ggpht.com/j8nn4oxG37YIXPvQKVP6CBbVkveyhoHNg8O8QFxZKgbKVegaP5OdjJl8L8HTjzdBoVKPJIFHmwN26NfE9n4'
  lat: 40.111897
  level: 5
  lon: -88.222485
  name:  'Engineering Student Project Laboratory'
- ap: 2649
  img:  'http://lh6.ggpht.com/hf2-XzERtSQhHYqpfkmEoUelpEes9pxtJ5gINRWSZ6NTzyKQI3lTEEq-UDBSvbmADpUd1ScID47hMvXgmHo'
  lat: 40.111432
  level: 5
  lon: -88.207259
  name:  'US Post Office'
- ap: 2537
  img:  'http://lh5.ggpht.com/BoAN9OSCH5u7G1sestzZaXjjik82i-SteF6-r5KTTyl530q9H5G3ibjJdqpGGY-nL8MypRXn2twwvn_y5nMmug'
  lat: 40.133159
  level: 2
  lon: -88.28778
  name:  'Campus Solar System - Saturn'
- ap: 2537
  img: http://i.imgur.com/5j1qaiT.png
  lat: 41.349793
  level: '?'
  lon: -88.841899
  name:  'cab1b5dc88764ab784a62eaa183a69e4.11'
- ap: 2537
  img: http://i.imgur.com/5j1qaiT.png
  lat: 41.662682
  level: '?'
  lon: -88.12552
  name:  'e87ca277a53e41cc967101fdde466ef0.16'
- ap: 2537
  img: http://i.imgur.com/5j1qaiT.png
  lat: 40.361766
  level: '?'
  lon: -88.429109
  name:  'Foosland Village Park'
- ap: 2537
  img: http://i.imgur.com/5j1qaiT.png
  lat: 40.007202
  level: '?'
  lon: -88.159089
  name:  'Philo Post Office'
- ap: 2537
  img: http://i.imgur.com/5j1qaiT.png
  lat: 39.985169
  level: '?'
  lon: -88.259496
  name:  '41dd0bbf2c604d7a8eb6bf9863231d7b.16'
- ap: 2537
  img:  'http://lh6.ggpht.com/TtWbekdbsTWA9hOrt2dc1ID1DnRuGoRbAle9mL9aZvc_aJygqJ9jAMjqrWtVr87WnELkFrSVIpO_4VVZQ67P'
  lat: 40.113103
  level: 2
  lon: -88.290672
  name:  'Kaufman Lake'
- ap: 2537
  img:  'http://lh5.ggpht.com/7MD3uqic9NvHKG2s5NBkAL6kdsBT10BzFJ6jTSaOfZS8mbyTlRDRYtizrxfH8ZvyqpRWXJHgmC5bk9imHqQf'
  lat: 40.114042
  level: 4
  lon: -88.289889
  name:  'Optimist Club Dedication 1991'
- ap: 2312
  img:  'http://lh5.ggpht.com/tZ1lEGRzdFJ7k1jwj0PTGd3tWVTGqCHIb1LcRdjc2pF5IJjsuYFFPQgwEWSBaPapa89oOEPXO_g2XWQxQl2h'
  lat: 40.110212
  level: 3
  lon: -88.276899
  name:  'St John Lutheran Church'
- ap: 2537
  img:  'http://lh4.ggpht.com/Tpl5ga1h9vBjG88A6xRDnvBxx7F1epdVZYUY-FNnoOS6H_0OkWXC-RqCtNsk5WSZcOBwMvdY56QCHo0hvoE'
  lat: 40.102744
  level: 4
  lon: -88.277916
  name:  'Church of God in Christ'
- ap: 2537
  img:  'http://lh4.ggpht.com/Oocso9yyW_QlJlddbFRk8zzguP4PfXU8kI9T5rJbiyNwSgNMG0BmSoK3TdG2cEgH-p2Xd_vpQMxA_RcxLUP3'
  lat: 40.109066
  level: 5
  lon: -88.247875
  name:  'The Church of Scientology'
- ap: 2537
  img:  'http://lh6.ggpht.com/duOeXcOSQLWosdD0JJXg3pWWQp4t5sL0x9qDHoTIBFNOzEW0t53Lt2cnwgV2E_Su0l1ajIQxPtVbbK_sDRaS'
  lat: 40.141775
  level: 5
  lon: -88.242671
  name:  'Marketplace Mall Fountain'
- ap: 2537
  img:  'http://lh3.ggpht.com/07XrBN-er6Ecleor0n9RJ4DfGO6B2yn-ZxjI-Uy8Ba46Jtb6cXNVmATPiPiGyk-1jZ4wxa7-EeIWbWUqArCG'
  lat: 40.142554
  level: 6
  lon: -88.243468
  name:  'Dog Heart'
- ap: 2537
  img:  'http://lh6.ggpht.com/vEN9GcvyvnN9TcF7V_jt__S6kOXIMX-XvLg5_iKqPHWpkT7sHe-QYFue_eGZ1OH6XJsPAb-jowAUKnHmkh4'
  lat: 40.110029
  level: 6
  lon: -88.249534
  name:  'Hardwick'
- ap: 2387
  img:  'http://lh4.ggpht.com/IAi2A1ukQunZaoCY1OUJnvZC_MAEjnYzlg7vcsIuPQyLIB710_5ueVQ3El8Pok0aNvlB18-Tdo1euhYbaf0'
  lat: 40.115224
  level: 3
  lon: -88.24957
  name:  'Linda M. Wesolowski Memorial Sign'
- ap: 2537
  img:  'http://lh5.ggpht.com/J6mcCWpzY1HtqSgO5x_y5aVz-YFsC8M7QP6HkXPiD48zj2LwljZvVXDN2m_K8oMn6mei5g6B8PphiUGrXGDG6g'
  lat: 40.119305
  level: 6
  lon: -88.244122
  name:  'Women''s Town Club Building'
- ap: 2537
  img:  'http://lh4.ggpht.com/qj7RZgjywjmhALnf1YyB5hWBrpO3hxjXZJdOzfE7YYV0p_vq9KA8GrgL9SfBHf_Ry3MVzMy1iJ6pAOkYL_lT'
  lat: 40.119118
  level: 6
  lon: -88.24584
  name:  'Amvets Post 3'
- ap: 2537
  img:  'http://lh3.googleusercontent.com/zcTaX3OHcGZu7CzBV1HvsKtB5RiAW7oMwxS_7phps0tjr70eNr8xbxrJ_P6agi_uXJtMNdHPnks9rZcrR6mG'
  lat: 40.127267
  level: 5
  lon: -88.253451
  name:  'Champaign Fire Department'
- ap: 2537
  img:  'http://lh5.ggpht.com/oyiyn1Im-Ppa2y94WGbvZox7rcS2MMu45LOziU7yXZi4v2540YN6hgzBokVq2mxvpPtdDXpAwWD_vYWxjHcO'
  lat: 40.130238
  level: 5
  lon: -88.253835
  name:  'American Legion Post 24'
- ap: 2312
  img:  'http://lh5.ggpht.com/k51dyIcq_VT8S0cGsHhfgbItaWCMpBfJ9wjHrms0zYNSVH5gfV5-gmxjVatlchfenHsCBRl1uE8AzYJTf8dN'
  lat: 40.117449
  level: 3
  lon: -88.23557
  name:  'Park Avenue Seventh Day Adventist Church'
- ap: 2537
  img:  'http://lh6.ggpht.com/BsXdEO7HLxNLSdztPo_4GNNcbxZCxswiDT4pmmcfDQ8YO2SFVW-VnwyEZBvkuhf1rxKAtoKNLvV4rDJ-YVCYUK1qiX-dId_R8P-JskyFYAK9ruM-'
  lat: 40.110234
  level: 4
  lon: -88.224055
  name:  'The Etc'
- ap: 2462
  img:  'http://lh3.ggpht.com/wOZOXhKOnhbKEPMQke-zGIG_vheDkHM8q19B1n_is5H7t1whBcQxBIGZI6VIPNw8mdCNXG6EUZeSjd1YLdngdg'
  lat: 40.108965
  level: 2
  lon: -88.227184
  name:  'U of I Mother''s Association Plaque'
- ap: 2537
  img:  'http://lh4.ggpht.com/hJDi8J7CZU-933hT0Culp2nhslv6p8rDRPdTFz6FwNaAjB5CmfkaQzj9sM--E-QBvI8yvIJn1F2jxy7ZKWlh'
  lat: 40.10816
  level: 7
  lon: -88.234245
  name:  'Stratford House'
- ap: 2537
  img:  'http://lh4.ggpht.com/OFVPvdgB3GVpaQknHdnt2okgP3xcQksAH3wvOGYVuP85MMlxo3bQ2SRpBb0hzNfjQoC_5LlRqaE6jLB-h9Gr'
  lat: 40.108092
  level: 4
  lon: -88.234589
  name:  'Koinonia Plaque'
- ap: 2537
  img:  'http://lh5.ggpht.com/f1O8bFXHTg2PTOAUVLvrqk5xx5ps9SeqhpJ1RIPtSxm0I-e7J275e2ujJp3lFQGHUBW_vS90KOsrcdLDJ84l4g'
  lat: 40.110797
  level: 4
  lon: -88.225321
  name:  'Multiphase Fluid Dynamics Plaque'
- ap: 2537
  img:  'http://lh3.googleusercontent.com/NRpdP-ebGuykq3sH1NZBQVjhmSdVJW3F4MTCRdXrWKQf3Z5dBgo0Phhyqnel5IrJmriQRmJNFR12lRDrjxJ9'
  lat: 40.114911
  level: 6
  lon: -88.227781
  name:  'Electrical & Computer Engineering Building'
- ap: 2537
  img:  'http://lh3.ggpht.com/aHqOXq4BX_XXhSNRFJn0768z_1bjWEniMumNJ4FMy9Nv5j3AefPsZDiAGCehCguZ1HFOBMBXxRI4mOXd077e'
  lat: 40.112957
  level: 4
  lon: -88.227127
  name:  'Early Computers Plaque'
- ap: 2537
  img:  'http://lh4.ggpht.com/ezHSw_hRdts3U3bzkEEn46LneS1miDpbSGoxg0v1TqG_W82bvfR2uSTZeDFfhG0kmPJAkOblWP_ZilA6TP8'
  lat: 40.112523
  level: 4
  lon: -88.227765
  name:  'Bardeen Quadrangle - North Side'
- ap: 2537
  img:  'http://lh3.ggpht.com/Prv8wUbEpOsrluZ4pHXYwIQLreDfbvMRV7kMb39yXob8h_r5vXNRC-wSR6pi-2NeP0uIRJsaeWtsGe96cJ_U'
  lat: 40.112295
  level: 5
  lon: -88.207196
  name:  'War Memorial @ Downtown Urbana'
- ap: 2312
  img:  'http://lh3.googleusercontent.com/7F3ArbPGhGx3ARCB26P8ldeKhXR15uyu4UN1LUyzoEGT06tuE6FPUKzyT1cdcLR7IVr6pBXdMLRdER5o4ZY'
  lat: 40.111715
  level: 2
  lon: -88.207738
  name:  'Urbana''s Bell'
- ap: 2537
  img: http://i.imgur.com/5j1qaiT.png
  lat: 40.195404
  level: '?'
  lon: -88.40408
  name:  '35d2540a6dab4d509460962b545bd2bf.16'
- ap: 2537
  img: http://i.imgur.com/5j1qaiT.png
  lat: 40.195867
  level: '?'
  lon: -88.404791
  name:  'US Post Office, E Main St'
