- ap: 8159
  img:  'http://lh5.ggpht.com/tfAfnmo6mSMc6U0P533NMFJRGwn6lasmx-MLR2JJg1QOizMKkghFU8E7hb2zgYgdQEbgnCJUlvZIMdrrJe4'
  lat: 40.100822
  level: 8
  lon: -88.25193
  name:  'Seeds of Kindness Bench'
- ap: 7972
  img:  'http://lh5.ggpht.com/n8MFM2pb-tE5i9EziJdygPPUK8VqEZ4BHGQaywz4lwe3WjwdgO0ohBCPZmiMoL00r3mVPmYnbCunJDeFbyk'
  lat: 40.118593
  level: 5
  lon: -88.240416
  name:  'Champaign Rail Water Tower'
- ap: 7972
  img:  'http://lh5.ggpht.com/-UWK84I78Sftf7yg-E2pg6xEAWTvyiThgJBJlxbqOZPYKNmzQ8uGgEEMetzplrG1HpXG5kQqNItUeXKxOHDsGA'
  lat: 40.100286
  level: 8
  lon: -88.251747
  name:  'Tennis Anyone'
- ap: 7972
  img:  'http://lh6.ggpht.com/5CDidk0pqfUtSW_Yqouuf3diX8drdMu9DoT728QpSz8q6A-WxNhT0yLcgM_7gGpyIAeXrHiTkIzzaVJFgnN9WA'
  lat: 40.099852
  level: 8
  lon: -88.251947
  name:  'Our Friend Tim Palmer'
- ap: 7783
  img:  'http://lh4.ggpht.com/YMDDyyJpIhe7xeYVGH048CFQDr7lX1SIPXzk4kXWr6zVgpUv6D1YGTLKwyg3DrhDoCuv-knBgF2gKZTylVRQ'
  lat: 40.132912
  level: 5
  lon: -88.314568
  name:  'Sunset Ridge Park'
- ap: 7409
  img:  'http://lh3.ggpht.com/rUgM7jkTqL0VHxvsSW0yWuNJF5UrU62ITflghfn4PfKjn6L4WGz0ALkv98fc_q9dmK9SSpU1PXIawGvcRwE'
  lat: 40.098246
  level: 8
  lon: -88.251974
  name:  'Hessel Park'
- ap: 7222
  img:  'http://lh5.ggpht.com/ENeQgqydWbi9-Oyf7vizunoRqJdsZV4o0RA_956wjGI8hqpTCHBPyWMpbTrrkwYpj5tgzDRvevGmvH4eFRU'
  lat: 40.099593
  level: 8
  lon: -88.251724
  name:  'Blessings from Devon Elaine Cattell'
- ap: 7222
  img:  'http://lh4.ggpht.com/4LxsGZZMk3DnpJXUvqzrL54CHSP5TDXjUnDJyHmCCTtCJIjGEI7kxT9g4uxfSPh0X6yGLgQo1jfqbu7B8VEr'
  lat: 40.099084
  level: 8
  lon: -88.251826
  name:  'Irina P. Stewart Memorial Plaque'
- ap: 7035
  img:  'http://lh3.ggpht.com/G1CvGhpethi5UmprDWxZN9rTblHa3anSsQz1UPgJtkREkfN7lDFoxFObst0609Cg5mofuZxJKr0ddNKhY4VL'
  lat: 40.098464
  level: 8
  lon: -88.251426
  name:  'Ruth Haasis Memorial'
- ap: 7035
  img:  'http://lh3.ggpht.com/lzCSS0_tjwUV7JQ2fgLI0e05IrzPxlVUs-6aEPOwUv67IanQJSTi71gkw0SGm8asmoE_r3Xoh048Fd9xRpE'
  lat: 40.099169
  level: 8
  lon: -88.251419
  name:  'Lyman Larson Memorial'
- ap: 7035
  img:  'http://lh6.ggpht.com/yjfa0jJLjsfLRf9Zn9iafMp3MuIhgCi0WiOCF8GqTGiGvzEnsPGrFa0H1n-uzWhVehLbt44ShthsA32VzHd5iQ'
  lat: 40.099737
  level: 7
  lon: -88.251157
  name:  'Tyler Van Atkins Memorial'
- ap: 7035
  img:  'http://lh6.ggpht.com/S7Utf4_59vQkAP5JhC3mdbzVLKBTt-0zoJ2UjfxUnN10VBbixO-_VwvssWd1LbFSx_yafaijd_U0wTGo870'
  lat: 40.100941
  level: 7
  lon: -88.251314
  name:  'Gabriel Patrick Maxeiner Memorial Plaque'
- ap: 6472
  img:  'http://lh3.ggpht.com/g1H1SJintXK5Zb7ng6DN7wix1q5otnzMK5JCJDnecwuIiohJmhXLJs1XzItxaTSYEuPPOqd4x-dGqd0WK5YU'
  lat: 40.13349
  level: 5
  lon: -88.313072
  name:  'Sunset Skate Park'
- ap: 6472
  img:  'http://lh6.ggpht.com/o-Si4_DCq7Qwa_fFJhaTZ0-zCScbl7wDS4PHIFGMbnP9TuPVe9ZauXV3lAreyYvxN7B7n8mlrOR2SsPzXmU'
  lat: 40.115703
  level: 5
  lon: -88.239504
  name:  'Chester Street Bar'
- ap: 6285
  img:  'http://lh5.ggpht.com/4DJAFPeZ_w65Km7VDnsbOqouQaeBuPuxA0KHPQToT_B6o1hBxzdu3kn89UhHgv22Ygj52Fx9QqcbzOytuw'
  lat: 40.100078
  level: 7
  lon: -88.250683
  name:  'Brian Clark Memorial Plaque'
- ap: 6285
  img:  'http://lh4.ggpht.com/PHV-1ZpFzCAl_ViCKwBY_x2pIDbVyaT7wJH1sTvFJCxrSdRrO1x7NaXq9OdRGwz_Mls4iwk6wuGHMBArfV54'
  lat: 40.098688
  level: 8
  lon: -88.25063
  name:  '"New Holland Yellow Dinosaurs" at Hessel Park'
- ap: 6285
  img:  'http://lh5.ggpht.com/C6wRSaEWO1NYGY5luyYZKHG3Z3aib4aflaPdV7B9G6N6adE890g3QuPRSvCUhsdFHqjoVUjo27mfz9WsjXyuhQ'
  lat: 40.100521
  level: 7
  lon: -88.250864
  name:  'Gabriel Patrick Maxeiner Memorial'
- ap: 6098
  img:  'http://lh3.ggpht.com/xSCQSCRT6pHyQi9LDI3OamMdZnhLQ06OSlHRHnJC0FkDo93VgOcr3gyAV0aPAKagwq9V5iViSSCgIr6_fWCB'
  lat: 40.134441
  level: 5
  lon: -88.314067
  name:  'Seasons Within the Wetland Environmental Sign'
- ap: 6098
  img:  'http://lh4.ggpht.com/B_I1b0Jy3vW41RX8jjCNPP68AULplU0Pf8ddolyKmpEWCfBVShQkmjF1HfTPzDjmBBQGgOs0jHW-rUR0mv8BkA'
  lat: 40.098789
  level: 8
  lon: -88.251685
  name:  'Curtis William McKinney Memorial'
- ap: 6098
  img:  'http://lh4.ggpht.com/vKgqIecJshMQxrhO-ZhMjcIyARuJdyU63wKfzAG0wouZex6LVzO46Qi5zM1N3Jx8xyantDFk9sQGsSEBhb-y'
  lat: 40.101327
  level: 7
  lon: -88.251412
  name:  'Zeus Memorial'
- ap: 6098
  img:  'http://lh3.ggpht.com/8FqlniFErK7cq59awiT84u8KyV4FIRd5krZzfYa58zJToFps7whdBnriPqvO_kFKeLUE3SWbJhCOPuvUQzaGFA'
  lat: 40.100691
  level: 7
  lon: -88.251337
  name:  'In Loving Memory of Zeus'
- ap: 6098
  img:  'http://lh3.ggpht.com/VrbXGwlUosNLEkVdshWUFoVa3KtlJQoEU4yLYygvftYbPCmxo644Uvar_v8Kb9RS53hB0tXgvV44GotrxZyu'
  lat: 40.098592
  level: 8
  lon: -88.251676
  name:  'Ruth and Fred Steigmann Plaque'
- ap: 5722
  img:  'http://lh4.ggpht.com/A15Qc2ImqJFORKlDItFStr3pkJ1pX5dRyG8VO6RoziKIqMOMMTQdJa-fUInsxL4o7Yxg1XNHfexBZuNAyLG0yw'
  lat: 40.132021
  level: 5
  lon: -88.31285
  name:  'Sunset Ridge Park Dedication'
- ap: 5535
  img:  'http://lh5.ggpht.com/6W_b3aoHNnxViA4TkycmE5hhV5q_VHfypLNlgG4sAyw2eJ5Meyzi2-vwTA8miyKA5pZApxbfpAa7uc0zlCM'
  lat: 40.134758
  level: 5
  lon: -88.313172
  name:  'Sunset Ridge Prairie '
- ap: 5535
  img:  'http://lh5.ggpht.com/ek0AuIkZd5CWKmIdjFjq5gOvptOzC8VJUnyatNG8ZyUoT8-mvkd4seW8Gpbl4kkgiatIbr57h5kK_5z6NSGD'
  lat: 40.131581
  level: 5
  lon: -88.312816
  name:  'Sunset Ridge Park'
- ap: 5198
  img:  'http://lh4.ggpht.com/H1kV6JSczzSbcCblAHg5ZOgITW1mBAz0_oLbqbzxBlijGTBn7TP6KwA6UI0AAGrCN4VF0DAF79Vcj6_2R4dsB8LRTq6tud6v'
  lat: 40.116164
  level: 4
  lon: -88.241661
  name:  'Zipcar-45 E. University Avenue'
- ap: 5348
  img:  'http://lh5.ggpht.com/HhVreJipNvxPRVFpmsh2BPo9PcpPO2Q2l3jCpDjIKgfKGycoTNPXR4DKiYccBXW4X-4dJf_vV0ESsWAWHcChsg'
  lat: 40.100936
  level: 8
  lon: -88.250855
  name:  'Donald F. Bresnan Memorial'
- ap: 5348
  img:  'http://lh4.ggpht.com/d3UqrcK5M1wuOe19dIaBUOkrXF4C9IxhOWfxqzM4zIHkGsUIRb1mckNapOMRkkCtVIe0rzJumb1OVDVc1_Y'
  lat: 40.108055
  level: 5
  lon: -88.233688
  name:  'University Baptist Church'
- ap: 4785
  img:  'http://lh5.ggpht.com/k_9eqZVvGcr3ZNyeeSNDM1-Y7od35KmnQQptB9usrdpTdpGW2c_5-12rYy9hGazdx7qhlYrEXxaJ_ZIVFywlcA'
  lat: 40.106706
  level: 6
  lon: -88.232116
  name:  'Illini Tower'
- ap: 4598
  img: http://i.imgur.com/5j1qaiT.png
  lat: 40.312242
  level: '?'
  lon: -88.201368
  name:  '2012 Employee Dedication Bench'
- ap: 4598
  img:  'http://lh6.ggpht.com/ocpQF23CdY7CXPOYMbPL3wLLV7Rc0VayvSyooA07il2lG0oiiQDbDCnsKqO1ysXJAVlzGikCKS-kVOLb6rog'
  lat: 40.135079
  level: 5
  lon: -88.314559
  name:  'Sunset Ridge Decorative Gate'
- ap: 4598
  img:  'http://lh5.ggpht.com/TwKxvDv1ImbH5RTs7GHqqK_rPohVtqtgToH7YuDkkwa5BRFiMEcY1vWcFrJLkhaXW6cd2YVL0_Vro2JaA3K1'
  lat: 40.131575
  level: 5
  lon: -88.314062
  name:  'Mark L. Rambow Memorial'
- ap: 4598
  img:  'http://lh4.ggpht.com/2yAZ6-P6I71p-12hssm1IxBNtLfIhmKLPomEg7xtttoqIwFEqF6Xl9qqolPamswYL-X3elu01rQhhVFZLF7Umw'
  lat: 40.107552
  level: 1
  lon: -88.220685
  name:  'University-Illinois Spurlock Museum'
- ap: 4598
  img:  'http://lh4.ggpht.com/OFVPvdgB3GVpaQknHdnt2okgP3xcQksAH3wvOGYVuP85MMlxo3bQ2SRpBb0hzNfjQoC_5LlRqaE6jLB-h9Gr'
  lat: 40.108092
  level: 3
  lon: -88.234589
  name:  'Koinonia Plaque'
- ap: 4598
  img:  'http://lh3.ggpht.com/A87H2Ev-nSq_HCpnUCxDLdRG04MKhj9Uap_0Ii4kdUx_db5SwcKhAAOey5ls43XiDLYaw7uYymdNMcsAXfNo'
  lat: 40.106182
  level: 6
  lon: -88.235521
  name:  'Evans Scholars'
- ap: 4411
  img: http://i.imgur.com/5j1qaiT.png
  lat: 40.023783
  level: '?'
  lon: -88.074548
  name:  'Sidney Football Tribute'
- ap: 4036
  img:  'http://lh4.ggpht.com/3gTAX6rKgNjLmBOYvAVTgSPQej5yRF_38uRllp9H4n5N6pvwWo5kDMDwlIkFVPPl30BXPSGAlZ9pO9B4DMk'
  lat: 40.116218
  level: 2
  lon: -88.242141
  name:  'Live Action Games'
- ap: 4336
  img:  'http://lh6.ggpht.com/ea6HxAw7m0OhhPqJJkZR9u60pR1sab_JdxaOyEltqmQd-63FFJzPY72jEnu08g9Gcjjj5cf3jyyS_M1E7OIbfg'
  lat: 40.11616
  level: 5
  lon: -88.241422
  name:  'It''s A Mistree'
- ap: 4411
  img:  'http://lh6.ggpht.com/qSCp5fQMlyCQ-GOAgiSFy5gaHJei705Pa3eOlJiYO5wGjZTYtjA8q7QWWfAWcLKjxZSaFiMfXOPR8SO7rWU'
  lat: 40.099353
  level: 8
  lon: -88.251876
  name:  'Raymond B. Cattell Memorial'
- ap: 4411
  img:  'http://lh5.ggpht.com/BK5TjuMzuJgDVPz4C8HRjfZKeaoISnPJ-H7VaYeMNUYmxvvUY7RzIIlR13FjW9HHF_i5-znqs3O6nMxKPfcj'
  lat: 40.102188
  level: 5
  lon: -88.251507
  name:  'Little Free Library Charter 5753'
- ap: 4411
  img:  'http://lh4.ggpht.com/mlUN5QXAR7rKFvUg7yhxcae3udkR7zCJVaWt5sq_YA47piV6tRi42RNN9fEtT_FafT7lhqg26WM1VETbz5E'
  lat: 40.098239
  level: 6
  lon: -88.25376
  name:  'Hessel Park Christian Reformed Church'
- ap: 4411
  img:  'http://lh4.ggpht.com/hJDi8J7CZU-933hT0Culp2nhslv6p8rDRPdTFz6FwNaAjB5CmfkaQzj9sM--E-QBvI8yvIJn1F2jxy7ZKWlh'
  lat: 40.10816
  level: 3
  lon: -88.234245
  name:  'Stratford House'
- ap: 4411
  img:  'http://lh6.ggpht.com/rraU1rTd14rCyJXSoh2e6C2u94YDda9-bQvNx5QNAyqzNwDF1MB6ZmCYgnUrC1--QxP8_xEw0oI9iqEy1gto'
  lat: 40.108
  level: 2
  lon: -88.2219
  name:  'Foellinger Great Hall'
- ap: 3548
  img:  'http://lh6.ggpht.com/PXc3YHSOsx0c_WrfpzvHHiHEl1FSv5RvbgXj7Ji3-xS7oBwJIkFCD8eQySiUega_iQvX8FiUBuDhXdK9l9QWIA'
  lat: 40.116623
  level: 3
  lon: -88.240844
  name:  'R. Forrest Colwell Memorial'
- ap: 3661
  img: http://i.imgur.com/5j1qaiT.png
  lat: 41.9686
  level: '?'
  lon: -87.630978
  name:  '47ea0a512aca4efc981ddb89e220e8b4.16'
- ap: 3661
  img:  'http://lh6.ggpht.com/8xR11KYEi2D1gcNqy1KNK_EGDGo3JbHOYXjXP_zTNk4AIqUwf0pZrSSkt9bx8xccXhiMSzvt-qFnVq-CGEOxbw'
  lat: 40.055189
  level: 5
  lon: -88.256113
  name:  'Event Notice Board'
- ap: 3661
  img:  'http://lh6.ggpht.com/MeSks8IMR4x1cQryIeOTxjeTbXR0nuzQte9cJHoowbqGCGdHui5UW-DfMZPP6koGusZereqftOpsEs1p-3VwJA'
  lat: 40.054626
  level: 5
  lon: -88.256104
  name:  'John L. Jones Park'
- ap: 3661
  img:  'http://lh5.ggpht.com/lagLH-yy6la5yqn0YoNwS7uxRSPXDfSP2QwvgnDmG-ZcaxqMNKYlASfYjw50kzq9GOOJ-0nmAa-3IlmGe-A'
  lat: 40.105777
  level: 1
  lon: -88.222002
  name:  'Preschool Learning Plaque'
- ap: 3661
  img:  'http://lh6.ggpht.com/SWgJIqzWO4D-WJuie3oK3_c-FlsPgkHT6nTrwvL8tqzOB6T_SSY3Nf11r1AEuKu1dsfgj0v47NqVSSTBP2k'
  lat: 40.107745
  level: 1
  lon: -88.220994
  name:  'Japanese Dry Garden'
- ap: 3661
  img:  'http://lh6.ggpht.com/hPutcAvS7zQN-tagfEY-fvkvdlgj7j5sZwUSLY883Twc7tHyslIAp7lzWYciJmCytDfsbFQtavAlzqGwCgFZkw'
  lat: 40.105562
  level: 6
  lon: -88.234991
  name:  'Acacia House'
- ap: 3661
  img:  'http://lh4.ggpht.com/S734i_6SihPtJW8WdegLb3gEuKeNx8e1qDm6CXjREzYHohw7XqL82m4EF2K5nS2TixHweLn3EuJ4YoQnrsw'
  lat: 40.107751
  level: 6
  lon: -88.231532
  name:  'Graduate School of Library and Information Science'
- ap: 3474
  img: http://i.imgur.com/5j1qaiT.png
  lat: 42.82691
  level: '?'
  lon: -86.136231
  name:  'c704146282434437883be9495bb5b18f.16'
- ap: 3474
  img: http://i.imgur.com/5j1qaiT.png
  lat: 43.041047
  level: '?'
  lon: -86.227875
  name:  '67ee8399252943bab171404e04acf47c.16'
- ap: 3474
  img: http://i.imgur.com/5j1qaiT.png
  lat: 40.023245
  level: '?'
  lon: -88.073118
  name:  '558c2005142447d2b590b6676b7e1123.12'
- ap: 3474
  img: http://i.imgur.com/5j1qaiT.png
  lat: 40.025725
  level: '?'
  lon: -88.077886
  name:  'Sidney Dairy Barn'
- ap: 3474
  img:  'http://lh6.ggpht.com/pRR6eCp2PyD3vDZlmHjKOeq8OKg0KhFPVnuWAP-pB7RR36eKA3TlQwYX5pwYfBjPyVyB4oPXXOomdbqpVcY'
  lat: 40.116065
  level: 5
  lon: -88.313206
  name:  'Alan Green Memorial'
- ap: 3474
  img:  'http://lh5.ggpht.com/tuo_ByFTbwLitFP5cBseOibqRxENxbCwOJ30dCnja5ijBI_qBv5vqNP7ZuZXnxhYM6ms_GbExZEwwKVUtwV2'
  lat: 40.093712
  level: 5
  lon: -88.281583
  name:  'Brownfield Dedication'
- ap: 3474
  img:  'http://lh6.ggpht.com/p2F3xw4xL4UdiMM9aSy628ISSglrvjPexpF3j340tMAP9MX07yh_sJv7kHVkeud8lyFf2ZwDohw3zsRS2PSd'
  lat: 40.093914
  level: 5
  lon: -88.281531
  name:  'Terry M. Warmbier Memorial'
- ap: 3474
  img:  'http://lh6.ggpht.com/Jz3ahY5LQ13wKWLY9SEvexiinJa3GeO1eB_FynplikRpa77swLST6cUAJjPpqKDSq2KU4Dcyui-QBstz_Z3k'
  lat: 40.094624
  level: 5
  lon: -88.282953
  name:  'Greenbelt 2'
- ap: 3249
  img:  'http://lh6.ggpht.com/dzudBxNyxUB12jQt8DMYPfm1nc94wO0GiD8fhqGETiQF94uDlJ4UMhnW4DCCbA6TzoEEe--vXNP-DAskM3_W'
  lat: 40.057678
  level: 3
  lon: -88.25174
  name:  'Savoy Post Office'
- ap: 3474
  img:  'http://lh4.ggpht.com/mHAXKPtOyg_DWRs5A_0yhGeDsfU4f4o3xJvzziri7o3ksPPKtMAHUkUBOb0JJ78gArdP5Q6O-UiXNDG3RHaIYQ'
  lat: 40.109339
  level: 4
  lon: -88.234149
  name:  'Alpha Delta Phi Fraternity House'
- ap: 3474
  img:  'http://lh5.ggpht.com/NUOCD82iNRGW1NGqEC4FKet1u5_cm4WRNc2c9_YABAjGf6-OSCLz7HgYkP1ZuVAbpMl6Qi10HRW16Oc9jNM2'
  lat: 40.106401
  level: 7
  lon: -88.236182
  name:  'Washington Park'
- ap: 3285
  img: http://i.imgur.com/5j1qaiT.png
  lat: 42.767748
  level: '?'
  lon: -86.202078
  name:  '193db228ecc047efb4d1c7d373ad83dd.16'
- ap: 2686
  img:  'http://lh3.ggpht.com/u-v3itkeM0VuM3kSQsa0wO5TAPiR3fou2d-_1ukh5ZZQlHVDJyJ6vyb3Q3ONlRDfvaHf2Nw-aWwerNtqz3rH'
  lat: 40.106197
  level: 1
  lon: -88.228614
  name:  '1913 Pillars'
- ap: 2911
  img:  'http://lh6.ggpht.com/MzDfG6eMMwVr56zIpVxRJKU2aoUq-95CLeBhoiEQQKzpC2zulq5jFDLv1IK0JcRy5Q0PhRAreZ1p2ElsdnNu'
  lat: 40.108048
  level: 4
  lon: -88.226279
  name:  'Nuclear Magnetic Resonance II Plaque'
- ap: 2724
  img: http://i.imgur.com/5j1qaiT.png
  lat: 40.106513
  level: '?'
  lon: -88.5585
  name:  'Lodge Christian Church'
- ap: 2724
  img: http://i.imgur.com/5j1qaiT.png
  lat: 41.890714
  level: '?'
  lon: -87.610524
  name:  '78cd733e94584d94ac0e1cd4d0a20cc4.16'
- ap: 2724
  img:  'http://lh5.ggpht.com/bxjTJmHRd1_7x6zw7y1Eir0opWUqtbJOdAC4FxDOfOBVdUI1zEVV9wo5FiHzTxqR7hajj-4tQrnSyAe2b8Y'
  lat: 40.113974
  level: 4
  lon: -88.311234
  name:  'WBGL Radio Station Headquarters Plaque'
- ap: 2724
  img:  'http://lh6.ggpht.com/RW34ntixvJkg7fD71TPYo_4KIsBzA0-a-6yXO0jKPbpGxX5gIGC7kBI-pXEF9OHhuolcAGW2fxyK3Pt42Iev'
  lat: 40.110489
  level: 3
  lon: -88.227412
  name:  'Bus Stop - Illini Union, Westbound'
- ap: 2724
  img:  'http://lh6.ggpht.com/c2I39IJvSBKmCLonmhP_RN1vLEpYY1recBXFm8xpGHxES4bAN2kvAcda8ZzvT75uq0yWQCv7N_dzP6ce5-Tu'
  lat: 40.108043
  level: 6
  lon: -88.22469
  name:  'Building of Molecular and Cellular Biology Sculpture'
- ap: 2499
  img:  'http://lh6.ggpht.com/PXNfY-rn4cS8Fcr7CkJnEI5-vb_hCYxTX_9VV9jNB78yHB-EjmmsP8_EiqK-icwqTxu2iRtDoSbBRCLanerX'
  lat: 40.110685
  level: 4
  lon: -88.206243
  name:  'Lincoln Square Fountain'
- ap: 2724
  img: http://i.imgur.com/5j1qaiT.png
  lat: 40.205206
  level: '?'
  lon: -88.393464
  name:  'ffb1c8830f184f8b9886fbf7c7604a37.12'
- ap: 2537
  img: http://i.imgur.com/5j1qaiT.png
  lat: 40.247118
  level: '?'
  lon: -88.631854
  name:  'Woodlawn Country Club'
- ap: 2537
  img: http://i.imgur.com/5j1qaiT.png
  lat: 40.565188
  level: '?'
  lon: -88.61306
  name:  '6ab35b80fa5949c990af0fe7eb3db8c8.16'
- ap: 2537
  img: http://i.imgur.com/5j1qaiT.png
  lat: 40.873822
  level: '?'
  lon: -88.646106
  name:  '48c9d6133823423796c94e34eab373eb.16'
- ap: 2537
  img: http://i.imgur.com/5j1qaiT.png
  lat: 41.891383
  level: '?'
  lon: -87.610138
  name:  '8490a15bbc6d40e68d80c7d9626f193c.16'
- ap: 2537
  img: http://i.imgur.com/5j1qaiT.png
  lat: 41.613727
  level: '?'
  lon: -90.172905
  name:  '02980941126a49e4a8bd0eb57ab3f21b.12'
- ap: 2537
  img: http://i.imgur.com/5j1qaiT.png
  lat: 41.570778
  level: '?'
  lon: -89.127801
  name:  '4bf70cbe46bb41489e8108e397ed5b30.16'
- ap: 2537
  img: http://i.imgur.com/5j1qaiT.png
  lat: 39.90775
  level: '?'
  lon: -87.995847
  name:  '659d5e4ecaa4457e87d3ab0e7e3cc7ad.12'
- ap: 2537
  img: http://i.imgur.com/5j1qaiT.png
  lat: 40.120883
  level: '?'
  lon: -88.751354
  name:  '9f93787a0621442c8c1ee66acfdf2317.12'
- ap: 2537
  img: http://i.imgur.com/5j1qaiT.png
  lat: 40.651103
  level: '?'
  lon: -89.651637
  name:  '150c86e5e5c545f0bd6e56abb3cde54d.12'
- ap: 2537
  img: http://i.imgur.com/5j1qaiT.png
  lat: 40.907861
  level: '?'
  lon: -90.284772
  name:  '1960a1d6b52a45afb823147d603b4bce.16'
- ap: 2537
  img: http://i.imgur.com/5j1qaiT.png
  lat: 41.891065
  level: '?'
  lon: -87.61055
  name:  '5f5a1a66edbd45a5bcdb4032a5f5d782.12'
- ap: 2537
  img: http://i.imgur.com/5j1qaiT.png
  lat: 42.769139
  level: '?'
  lon: -86.198122
  name:  '205905dd6da642b199ffa546b73cb03e.16'
- ap: 2537
  img: http://i.imgur.com/5j1qaiT.png
  lat: 41.89196
  level: '?'
  lon: -87.609818
  name:  '9751404135d14a20835126ddf4d017dc.16'
- ap: 2537
  img:  'http://lh3.ggpht.com/j0Yx7yuvUTJbnHtY38VFaty8xpyZMMDS_bSmvbHQx_2nQBiLqF4PGpLNdTGXkRgA3-OANQgASvn1mPGcuJi6HA'
  lat: 40.131715
  level: 5
  lon: -88.31369
  name:  'Mark L. Rambow Tree'
- ap: 2537
  img:  'http://lh3.ggpht.com/ehNwLdaa71H3Bylm063pawn4caIGz2rCdmmdBhAFWIuEt2kPjT8nWHDkSuoOidckWiM82FWpDSNGQqQMHiQ'
  lat: 40.098209
  level: 5
  lon: -88.28689
  name:  'First Church of the Nazarene'
- ap: 2537
  img:  'http://lh3.ggpht.com/NfT2lF-sDianTwLMh0ZBNPZJd2GwFyVqBX9dYM60Ql-AgN58IA8dbfX2J1dT72YJPSDbyqB16mie75kI--nG'
  lat: 40.094327
  level: 5
  lon: -88.295051
  name:  'Midwest Believers Church'
- ap: 2537
  img:  'http://lh5.ggpht.com/d_xORafhhRGmWQQYxORFs1dW_6uXGimDkw117yVoO46fU96UHRY1GWk3ln65AsNRtevh1vFgECrCK8gJD4Y'
  lat: 40.133113
  level: 3
  lon: -88.279062
  name:  'Champaign County Workers Memorial'
- ap: 2537
  img:  'http://lh6.ggpht.com/dI4xaWnG0DZUP0uJY6mH7dt0Mym9RSF71Y9EW7cHcTwlxlumShbTK73b2epHwOng4JJOjyc52eMv188FeiHYfg'
  lat: 40.131965
  level: 2
  lon: -88.278016
  name:  'Augustus K Riggin'
- ap: 2537
  img:  'http://lh3.googleusercontent.com/3nkY0B9PDqzlWJ_EKh5GnTZ8z0U6X9-2dI5dapKA5Q3F4iKrE99AJZoy6NSvh2nU1WTG2hL70276yJjJ0G8'
  lat: 40.141598
  level: 5
  lon: -88.238817
  name:  'Red Shield Center'
- ap: 2537
  img:  'http://lh4.ggpht.com/T-65fHAmnGmht8xdcXCF8weDy3uDecS4uOASIFtQBn7v84jrUpS3m9_rbJ1MNz5Syzjr8g_zO6YPklMYjlZQ'
  lat: 40.13695
  level: 5
  lon: -88.259966
  name:  'Goodwill Donation Center'
- ap: 2537
  img:  'http://lh3.googleusercontent.com/E_ZPlSyleqUMg0OilyQYOVjaoZT-y4SbH4plEyw9dIUNETTaaR5s71RJOIy8h5u1Ae97gUfiLGrIdMPXjNQ'
  lat: 40.11727
  level: 6
  lon: -88.286997
  name:  'Kaufman Lake'
- ap: 2537
  img:  'http://lh3.ggpht.com/rgh_2qJQUPC1OrARUkiQqPKoNReiqZYOimm5Nszb77pDh72OszuyiJBKn-vDxHUuyjO2XTeKU9GBHc3oHIYr'
  lat: 40.115283
  level: 6
  lon: -88.287899
  name:  'Greenbelt Bikeway'
- ap: 2537
  img:  'http://lh3.ggpht.com/AD9d7JPmLdYRdpxESO9iORy1GRXAcN1jzn8dDNvm6FO7cIHVsjwAKI8LmbW4dico1Xe9jzJfsZZriP0CxXA46w'
  lat: 40.104084
  level: 3
  lon: -88.241616
  name:  'Honorary Memorial Steam Ventilation Pipe'
- ap: 2537
  img:  'http://lh3.ggpht.com/5OA9gBD9HJe7pZRJ6DjHOGIbC9paid10T5gOLcZS91YP3V0eTMGqvFmPtvp6UtWzb1w2sOV5dbYmxDUFnQ0x'
  lat: 40.101862
  level: 3
  lon: -88.231737
  name:  'Krannert Art Museum'
- ap: 2237
  img:  'http://lh5.ggpht.com/R4YsY7oUfZDrMJ3QJtIKwNvcX7K4vxIpwfLebL2U4x5m1UibakO0KUZJXqdfYe-W9IUNBmlCu5LlSy6jtKGM'
  lat: 40.105323
  level: 3
  lon: -88.239595
  name:  'Campus Post Office Services'
- ap: 2537
  img:  'http://lh4.ggpht.com/RF7EbCh1YRbFHfis_PEc88NF1v4Ndhj-Rm7rrlY7F8s-Mrv1EMEFnajFbYiNffZ_3kMNL80Zv-_jtaMYMtLA'
  lat: 40.110655
  level: 4
  lon: -88.22725
  name:  'Gothic Brass'
- ap: 2537
  img:  'http://lh6.ggpht.com/1El0oK6CWDh7rAQeFmPEW_dA252pdq7piTtjtuQCkZvwRa689NLjEafLqQ35TI5qCW3Lmhja9PLQqKxFs9Ha'
  lat: 40.110627
  level: 1
  lon: -88.227584
  name:  'Tau Beta Pi Statue'
- ap: 2237
  img:  'http://lh6.ggpht.com/cYQLNtCsiRGXd_y7-ZdI4jGlNRpC4oiy2Z7UT7etDH3FBvBRQDtOW_rY0NBvKLJMnTw_EXH75NDGMcI6UkeV'
  lat: 40.105618
  level: 1
  lon: -88.229005
  name:  'The Chapel of St. John the Divine'
- ap: 2537
  img:  'http://lh4.ggpht.com/9hzMj8KV-HraIucojjHAEgyMZsJAR9TWvNS-QSBB5LTYBOTwwqfTQySJ_Sz88eP3eyFWFYhx5qDVY93t8fk'
  lat: 40.108032
  level: 5
  lon: -88.225702
  name:  'Centennial Court'
- ap: 2537
  img:  'http://lh3.ggpht.com/HX3mWBGofQk08Qdp7A6KMK1AnSXlLEPJR-n6oeX69Efiiss29GHsLiDsHhRS5K8DrXh-QXP1T0AMaOsJmx_w'
  lat: 40.106921
  level: 4
  lon: -88.230145
  name:  'University Lutheran Church'
- ap: 2537
  img:  'http://lh4.ggpht.com/7NJ1wKtp4ioJudcPhY5qErw0Nh7MKYhm0RnQXURwQtlyukI7tbSb4MQT3Ob6P7qz3QCAyNwOSzkjcvBjw4FpZw'
  lat: 40.10565
  level: 3
  lon: -88.221497
  name:  'Gove Plaza'
- ap: 2537
  img:  'http://lh3.googleusercontent.com/EwXPPCiuVPRkECPKlJtyqReSySoJKEdwrx1MkNVUy6EM9xWU_fet1Z-sLfx_P2_c54DeJcApxdl-hKg9vGVEtw'
  lat: 40.108224
  level: 6
  lon: -88.223549
  name:  'Colwell Playhouse'
- ap: 2537
  img:  'http://lh3.googleusercontent.com/hvoLMUc9UoNVVPttxWTc8PzOWdu5MBmPETnBexH7Alyl20WGCrNa0G_j7DwvD3qbhqpTaeThFhGDV2rCtp8'
  lat: 40.107629
  level: 6
  lon: -88.224484
  name:  'Bucky Balls'
- ap: 2537
  img:  'http://lh6.ggpht.com/BzDhCANV_iNTHhKFBGLuaUqOvChRZtPWnJ2Xk4h7NsKJHmTGgCWtFHWv2PpDA2fCsHHKSCRTrUNK8AKrLRnS'
  lat: 40.108066
  level: 5
  lon: -88.230687
  name:  'Community United Church of Christ'
- ap: 2537
  img:  'http://lh4.ggpht.com/7U0YXCB_DIhnqPJyjyLpNn6kg4lU8HvKL87ddBKWq1sptvVLvCEiCuNEnghQtqDGSN2OBNcOUK9nZcYjY4Vr'
  lat: 40.107887
  level: 3
  lon: -88.225998
  name:  'Lifesaving Antibiotic Plaque'
- ap: 2537
  img:  'http://lh3.googleusercontent.com/__dofGL-oELNLYymrJ5VDONThxrG0oMe5aQcopgTFJgu56wHeV1y-scJDNms_C4LRoqDe-qKwDBNRNkCiJnNUQ'
  lat: 40.127703
  level: 5
  lon: -88.211526
  name:  'Busey Woods Trail - Wet to Dry'
- ap: 2537
  img:  'http://lh5.ggpht.com/n-WJVk4VFfgCVfLuyItrEjDCHgOd5YN1Z1ts6qT6-RmXvFyDeNKYarXwzwHKyd5B9tGmezRoEzKX4EFKmaY'
  lat: 40.124947
  level: 5
  lon: -88.210509
  name:  'Trail Marker in Busey Woods'
- ap: 2462
  img:  'http://lh6.ggpht.com/JeyTR9Ntp2SxIdvTxHGqu5zXzMo7stGncs5TYYFLlRf0WEb6U4dc4EOvDZ1szjub_UqgSO_HgZ7tUKs9PUAkEQ'
  lat: 40.109634
  level: 5
  lon: -88.206203
  name:  'Zeb'
- ap: 2387
  img:  'http://lh4.ggpht.com/jSz2CxoxUTCD1-qpHHu_6jtdCngFAYA2Ex-nNx-uEvRBtsBmmqhT7ogZI_ZTarMG8NrQs7M1EQzKjZhqGjyZrIw_TvFm885uc6c31FSL3bihglbs'
  lat: 40.111538
  level: 4
  lon: -88.206591
  name:  'Independent Media Center'
- ap: 2537
  img:  'http://lh5.ggpht.com/MQR_ZzKDnOCzhArYVQvSq3fm-6zcOGn3bneYKT9cpAuejbSEQDZBYeUPwN8D3OBLklSTSl0TJASS2zUJjUUd'
  lat: 40.105522
  level: 4
  lon: -88.188493
  name:  'Lierman Neighborhood Community Garden'
- ap: 2312
  img:  'http://lh3.ggpht.com/_CmMOfi2PqTv1S_kKyTIXg3gslk5AbH-pFLizpe8WbXoFdbGuJr3TPxjhKMQ-S_aFIIqHqtyZcTahtz_9DVe'
  lat: 40.105857
  level: 3
  lon: -88.188478
  name:  'Brookens Administrative Center'
- ap: 2537
  img: http://i.imgur.com/5j1qaiT.png
  lat: 40.205583
  level: '?'
  lon: -88.394066
  name:  'Champaign Countys Lincoln'
- ap: 2537
  img: http://i.imgur.com/5j1qaiT.png
  lat: 40.205076
  level: '?'
  lon: -88.39379
  name:  '88b22f723d954699bdb089ff05d12bf6.16'
