- ap: 14533
  img: http://i.imgur.com/5j1qaiT.png
  lat: 40.195404
  level: '?'
  lon: -88.40408
  name:  '35d2540a6dab4d509460962b545bd2bf.16'
- ap: 9472
  img:  'http://lh4.ggpht.com/CPNLxxDLwT8XTTIYSHB8Q_UYxT1Kys0VZFsb09WRjmkphTcuq1vN8RwaafOPe5Thv1r_pL-bzeCjmR-aHoAe'
  lat: 40.193086
  level: 5
  lon: -88.402986
  name:  'Middletown Cemetery'
- ap: 8535
  img: http://i.imgur.com/5j1qaiT.png
  lat: 40.194971
  level: '?'
  lon: -88.403465
  name:  '9ac55f1a3bf140e5abc27bbc95fb2036.16'
- ap: 8535
  img: http://i.imgur.com/5j1qaiT.png
  lat: 40.195019
  level: '?'
  lon: -88.402935
  name:  'c87d5b6cf7ea4bae962a48d438be958c.16'
- ap: 8346
  img:  'http://lh4.ggpht.com/ryDcZUJK2aQ_fI0-hY850_t4ZmG2hNmtCx7cxbX83w3cnUWdI-ywpTuQrUVQNxGl3_DcxxNr6bupfDTsagRa'
  lat: 40.117107
  level: 6
  lon: -88.242467
  name:  'Radio Maria'
- ap: 7409
  img:  'http://lh6.ggpht.com/SCYK-XeMmOyfRrTt1-aQNoDA-2Sib4m5Ch26mTwo6XNdVeVnfi7W74Ik6IRLAPSoKzSS97pgwt50Jl9oSgGfP029USxZzQWKNJo3rbs-6YHBPBif'
  lat: 40.116792
  level: 5
  lon: -88.241752
  name:  'WEFT 90.1 FM Community Radio'
- ap: 7035
  img: http://i.imgur.com/5j1qaiT.png
  lat: 40.194198
  level: '?'
  lon: -88.411814
  name:  '1ccf6b05218445debe76c7f512b7ca78.16'
- ap: 6848
  img: http://i.imgur.com/5j1qaiT.png
  lat: 40.195188
  level: '?'
  lon: -88.40358
  name:  '7cc24f4019674432a28f220ec66a8e73.16'
- ap: 6848
  img:  'http://lh5.ggpht.com/ncfefTWsVvZWHVozJVxFU0p2EzGdz74tJxMRB96Xaqo9wYsBbi01bALm5uOAn14GkFMSo3o_d1TAcvcUa2JYRg'
  lat: 40.193851
  level: 5
  lon: -88.403214
  name:  'Brooks-Warfel Memorial Park'
- ap: 6285
  img:  'http://lh5.ggpht.com/KadNuhjGK6FUXezGHW1W1kfPOQV5l7gJP594EQm5nPZFLTgcTsjl4ixa-j7XitgtyJyou3q0pTfMr4i2E_avIA'
  lat: 40.118013
  level: 5
  lon: -88.243445
  name:  'Clock at Neil and Main'
- ap: 6285
  img:  'http://lh3.googleusercontent.com/FMrsRGg4e1AuMu6m4uCIpM5nawtelx8reIfMtog4nuxXU9C7--UKQnUEAm9s4Vc7OfMjfIDX5loNOw4Agz2HAw'
  lat: 40.118715
  level: 6
  lon: -88.242373
  name:  'Richard D James Mural'
- ap: 6098
  img:  'http://lh4.ggpht.com/tLO2wjyCgyune3KDOlQMV_oiDRxVsHqO1gAG_0xs9TvKOiuWRVmJcO29WI7jELxoxncaXpy91kMa89Uj65JVNw'
  lat: 40.11784
  level: 5
  lon: -88.24286
  name:  'Kaufman Memorial'
- ap: 6098
  img:  'http://lh4.ggpht.com/_jAAuDi8SO5uupi8JlB3HZaFG40S15izNv_3vqOt7ro2rRHuXrfdEKfEFvRESdAjCEz3RVDpyrxJGSIrju5d'
  lat: 40.117916
  level: 5
  lon: -88.243087
  name:  'Sholem Building'
- ap: 6098
  img:  'http://lh4.ggpht.com/N-xxTzGXK34K-VdTOWaWrFJeP9_SLZ7ZBluxK2mjP51yZx_5HOMi_mb4Nu2rWgo3gOqUb19_cPb662sI7td_'
  lat: 40.105687
  level: 5
  lon: -88.225714
  name:  'Smith Memorial Hall'
- ap: 5160
  img:  'http://lh6.ggpht.com/MsCeiBKy8tV3-ziINPCBPzkisfwOnBClSPr68FUxT1uMHlVmqtyTYYxNAZapU8bvWdcmm0lsmIzjMyv0CTJ2tQ'
  lat: 40.095364
  level: 2
  lon: -88.217386
  name:  'Miles C Hartley Selection Garden'
- ap: 5348
  img: http://i.imgur.com/5j1qaiT.png
  lat: 40.193832
  level: '?'
  lon: -88.418247
  name:  'c4f1bdcf000d43b8b7234a2bbb69e70c.16'
- ap: 5161
  img: http://i.imgur.com/5j1qaiT.png
  lat: 40.194212
  level: '?'
  lon: -88.404801
  name:  '8cf09139a3c94690a24b17209dac3400.16'
- ap: 5161
  img: http://i.imgur.com/5j1qaiT.png
  lat: 40.195251
  level: '?'
  lon: -88.403825
  name:  'be5ca27857734636a834fcaec3fb76db.16'
- ap: 4598
  img:  'http://lh5.ggpht.com/BUGNnLReyCBJJj9_zpqgwv5_CAyiW8fWBpyVs0ip1hT5NEE6YKCYzlc8ahldKzk_xv-4uckNJNb6NrJd6r33qg'
  lat: 40.116989
  level: 5
  lon: -88.242255
  name:  'Blind Pig'
- ap: 4598
  img:  'http://lh3.ggpht.com/bVNaflT1bCgFsUDizKeHZFExlTyUFdVVpjEqrpacNh843YeRnU98IEQb8a02eE36XmEJXAkBC-FG1_3ezYP7'
  lat: 40.095365
  level: 5
  lon: -88.216784
  name:  '1867 Garden'
- ap: 4336
  img:  'http://lh4.ggpht.com/MvwoDsxwfyNLHzfGkFJl-4VFeX7OvqB0hsMCrZ2D9Olh8GSghAJDfFfDh7a7cOtMIGwEDMyesZoKvKCXAGj4'
  lat: 40.116553
  level: 4
  lon: -88.242268
  name:  'Esquire Lounge'
- ap: 4411
  img:  'http://lh4.ggpht.com/OKjZe5DNbqsjBvhTWI2C_GTSbIMUanllb49pzoadj3izBmngp5kFNgLokw6jbL1Y3BnreLD-LmzLdNEx-eRI'
  lat: 40.105694
  level: 3
  lon: -88.225345
  name:  '1981 Iota Chapter White Anchor'
- ap: 4411
  img:  'http://lh3.ggpht.com/whmQSPmix2tEoKcWwrVrV0H0JzNf1tzyuohI3ykSa-Qx4rUcLTf4686WcnJjygsMY2QPUWhvVVzlmMMHof94'
  lat: 40.105907
  level: 1
  lon: -88.22564
  name:  'Andrew De Grado Memorial'
- ap: 4411
  img:  'http://lh3.googleusercontent.com/v44Gf5oEZGcwkQcA2wWz-uAeDFESHj7sEloxdCJd316RPH3w_ln8_9mBEMbAqGyI_2Y2qaYp525PnRip9Rg'
  lat: 40.105315
  level: 3
  lon: -88.226125
  name:  'U of I Observatory'
- ap: 4411
  img:  'http://lh5.ggpht.com/J4IbsPUjPF6cIlktTr1tOGHi61krS9o1eXeuAlPRBrSYUQrwdyShfNzuzxD0epa_cBMPF1xJ9YhoBA5VOQtYRw'
  lat: 40.105467
  level: 1
  lon: -88.225644
  name:  'Smith Music Hall'
- ap: 4186
  img:  'http://lh4.ggpht.com/ZIOjKYlH2wMvdRD5A5HKGJPgBUYAaA7xHjGYnoXNzhzPIE6KR05FBciTJcN-AojoLyuwRlp3SF3TR1PXBrUPjw'
  lat: 40.094935
  level: 3
  lon: -88.216986
  name:  'Leroy Hubble Honorary Bench'
- ap: 3661
  img:  'http://lh6.ggpht.com/cUV2o6ZPyJSFnHYl7jePeUIS7BrVr1H5D8Zbf7B3B8ALrTq7pTI3e271i1DHztqUGXITpiA399P3vNP83fk0'
  lat: 40.105767
  level: 5
  lon: -88.223378
  name:  'Busey Hall'
- ap: 3661
  img:  'http://lh3.ggpht.com/0HyRE6hI-Dp8OIZWrGjSBLw06g4xLl3H3SxdYDO-wm20QdpGQtvQ1-GBpxfAE5WNcC0D_aY-oOfGM1Wj1--EvQ'
  lat: 40.106092
  level: 5
  lon: -88.223135
  name:  'String Project Plaque'
- ap: 3474
  img:  'http://lh3.ggpht.com/bltQwmnzp2vSKYhLpzNLqB4iddy6ie0kWk9G7Wce4U9qmW3CABxbXAhF7v0oG9QLFD2q57UZuVqZCMgN3MHZfA'
  lat: 40.118335
  level: 2
  lon: -88.243408
  name:  'Downtown Fountain'
- ap: 3474
  img:  'http://lh5.ggpht.com/dRrlHXlT2nMNgZNHiYo52ha9L-Xay9DyOJR2Cpqs74hgAJ09abn9OTAtMzRVedt1_R9ObZllLO98vRhNMfgTgVsJCk1S-HJwX_XgiGpG4lz3a328'
  lat: 40.11671
  level: 5
  lon: -88.24263
  name:  'Cafe Kopi'
- ap: 3474
  img:  'http://lh3.ggpht.com/oSQ_YOHo2mfYjOa8bPK9ellznKK29UluW-SeXoGYra9VFg8dJp6YQRdHbHHaTExqXs1qUMBNmpI2hUPcC4GI'
  lat: 40.106789
  level: 5
  lon: -88.222992
  name:  'Beginnings of Computer Music Plaque'
- ap: 3099
  img:  'http://lh5.ggpht.com/W2upB0MQ9l_1Z1JYjKFslTSSU-oi3b_kOidwTlG4pOCZRHWiD52CzcX2WMquuVEnMpxhtSRQOuAdLgDn8rs'
  lat: 40.096671
  level: 2
  lon: -88.217873
  name:  'Skull And Wagon Wheel'
- ap: 3474
  img:  'http://lh4.ggpht.com/jEbgkWj4jIpuTGF0BsLL3Qhx62u2Xh7IFfVmCspv6e6FjmSfbeTYkwQgAZ75wN8NpO2Lus14Khr5O4f9jvup'
  lat: 40.094517
  level: 5
  lon: -88.217269
  name:  'White Oak'
- ap: 2724
  img: http://i.imgur.com/5j1qaiT.png
  lat: 40.57024
  level: '?'
  lon: -88.612411
  name:  'bf36781a29324e90ba5e642026048116.16'
- ap: 2724
  img:  'http://lh3.googleusercontent.com/vw4Js8jf11Ok889K1stO5ujNjIO9Ah9DEbsg1xBTrVbaeyBetcG75B8YS8CkQA0KVC8NA5Z02n220SI1UzdB'
  lat: 40.10985
  level: 6
  lon: -88.227236
  name:  'Illini Union'
- ap: 2537
  img: http://i.imgur.com/5j1qaiT.png
  lat: 39.912869
  level: '?'
  lon: -88.271225
  name:  '7ae31819d59a42a286e4aba7926a74ac.16'
- ap: 2537
  img: http://i.imgur.com/5j1qaiT.png
  lat: 40.273821
  level: '?'
  lon: -88.676394
  name:  'Blue Star Highway Memorial'
- ap: 2537
  img: http://i.imgur.com/5j1qaiT.png
  lat: 40.561204
  level: '?'
  lon: -88.900302
  name:  'dea434f7da6f437386ae98f3a4035d31.16'
- ap: 2537
  img: http://i.imgur.com/5j1qaiT.png
  lat: 41.053466
  level: '?'
  lon: -89.04979
  name:  '94b2245b5bf546fe91834ff8f19dc1f4.16'
- ap: 2537
  img: http://i.imgur.com/5j1qaiT.png
  lat: 41.431428
  level: '?'
  lon: -88.345007
  name:  'e5729b394f784af7b533789a1237123b.16'
- ap: 2537
  img: http://i.imgur.com/5j1qaiT.png
  lat: 40.608368
  level: '?'
  lon: -88.480335
  name:  '82af2b2fd43e469fb969173a09262699.12'
- ap: 2537
  img: http://i.imgur.com/5j1qaiT.png
  lat: 39.941083
  level: '?'
  lon: -88.460102
  name:  'St Joseph Catholic Church'
- ap: 2537
  img: http://i.imgur.com/5j1qaiT.png
  lat: 40.025747
  level: '?'
  lon: -88.572538
  name:  '21a2246476ed4fffacb480327eccaa5f.16'
- ap: 2312
  img:  'http://lh6.ggpht.com/hmDofhQgtMboyY40gAShyf0g__uH_qYaFzVKnGKShUBNn-JjwpN526PPOYKyq8kvusIGRrMQIZ7ozPedDVm4iA'
  lat: 40.117495
  level: 3
  lon: -88.241616
  name:  'Lincoln Building'
- ap: 2537
  img:  'http://lh6.ggpht.com/eeOtj4-6PU8Dt6QXk_TJjgkoEGRW9L8YzUqZE8QV5ZMCHnqA5CzoQoxKpnjCvXwaIflUUvPJmO_S7BdvMhcuzw'
  lat: 40.117588
  level: 3
  lon: -88.241787
  name:  'Adam & Eve Mourning Over the Soul of Abel'
- ap: 2537
  img:  'http://lh4.ggpht.com/z_Fp4CjBJYtN4kSA8B6McrcZLVB4_KD9Hti35M_32PXV6LsudmzxIitDELx-nbrk2VMgnhYGZ-Zc89L0OAR7'
  lat: 40.086676
  level: 5
  lon: -88.243056
  name:  'Illinois Fire Service Memorial'
- ap: 2537
  img:  'http://lh3.googleusercontent.com/8uMYuZy0Us1c6m26i0q3fiQ2sptx9Og4z2bMHuLtSt_Woc8U5yKYiXLiC2Oz38uiO4m3z3SU3svJ6uRX-_o'
  lat: 40.086941
  level: 5
  lon: -88.242452
  name:  'Water Survey Research Center L'
- ap: 2537
  img:  'http://lh5.ggpht.com/f710C9AvOEB7ieCI4f382wWUP4OgDxiqPzbxqxct6Ugf2PWBfyXyDpG_JcRQ6PaZ_jS0jpXXBhNSt_u9rFA'
  lat: 40.113864
  level: 6
  lon: -88.224839
  name:  'Plato: A Social Networking Revolution Begins'
- ap: 2537
  img:  'http://lh4.ggpht.com/PmGpygZ2fBs43twk2Y44XZbgGcHWv0YimAq7Fp3vlIRRqUyLpSmDmFwcn1ucfmJarcQrAAXJjYAXAhNyxSrz'
  lat: 40.110049
  level: 5
  lon: -88.231968
  name:  'Potbelly Mural'
- ap: 2537
  img:  'http://lh4.ggpht.com/hJDi8J7CZU-933hT0Culp2nhslv6p8rDRPdTFz6FwNaAjB5CmfkaQzj9sM--E-QBvI8yvIJn1F2jxy7ZKWlh'
  lat: 40.10816
  level: 5
  lon: -88.234245
  name:  'Stratford House'
- ap: 2537
  img:  'http://lh4.ggpht.com/OFVPvdgB3GVpaQknHdnt2okgP3xcQksAH3wvOGYVuP85MMlxo3bQ2SRpBb0hzNfjQoC_5LlRqaE6jLB-h9Gr'
  lat: 40.108092
  level: 5
  lon: -88.234589
  name:  'Koinonia Plaque'
