- ap: 13970
  img:  'http://lh3.googleusercontent.com/FMrsRGg4e1AuMu6m4uCIpM5nawtelx8reIfMtog4nuxXU9C7--UKQnUEAm9s4Vc7OfMjfIDX5loNOw4Agz2HAw'
  lat: 40.118715
  level: 5
  lon: -88.242373
  name:  'Richard D James Mural'
- ap: 13220
  img:  'http://lh5.ggpht.com/HhVreJipNvxPRVFpmsh2BPo9PcpPO2Q2l3jCpDjIKgfKGycoTNPXR4DKiYccBXW4X-4dJf_vV0ESsWAWHcChsg'
  lat: 40.100936
  level: 8
  lon: -88.250855
  name:  'Donald F. Bresnan Memorial'
- ap: 10409
  img: http://i.imgur.com/5j1qaiT.png
  lat: 42.781176
  level: '?'
  lon: -87.758749
  name:  'da8a9ff388b54e9b8be758bc820d0bcd.16'
- ap: 9472
  img: http://i.imgur.com/5j1qaiT.png
  lat: 43.949162
  level: '?'
  lon: -86.450405
  name:  'c210ef6ea9364de1b73af3970d633d39.16'
- ap: 9283
  img:  'http://lh4.ggpht.com/ryDcZUJK2aQ_fI0-hY850_t4ZmG2hNmtCx7cxbX83w3cnUWdI-ywpTuQrUVQNxGl3_DcxxNr6bupfDTsagRa'
  lat: 40.117107
  level: 6
  lon: -88.242467
  name:  'Radio Maria'
- ap: 8909
  img:  'http://lh3.ggpht.com/lzCSS0_tjwUV7JQ2fgLI0e05IrzPxlVUs-6aEPOwUv67IanQJSTi71gkw0SGm8asmoE_r3Xoh048Fd9xRpE'
  lat: 40.099169
  level: 8
  lon: -88.251419
  name:  'Lyman Larson Memorial'
- ap: 8909
  img:  'http://lh6.ggpht.com/qSCp5fQMlyCQ-GOAgiSFy5gaHJei705Pa3eOlJiYO5wGjZTYtjA8q7QWWfAWcLKjxZSaFiMfXOPR8SO7rWU'
  lat: 40.099353
  level: 8
  lon: -88.251876
  name:  'Raymond B. Cattell Memorial'
- ap: 8722
  img: http://i.imgur.com/5j1qaiT.png
  lat: 41.96281
  level: '?'
  lon: -87.633579
  name:  'cc56bc5b86aa487ab97e385a3b7aa9e8.16'
- ap: 8722
  img:  'http://lh6.ggpht.com/yjfa0jJLjsfLRf9Zn9iafMp3MuIhgCi0WiOCF8GqTGiGvzEnsPGrFa0H1n-uzWhVehLbt44ShthsA32VzHd5iQ'
  lat: 40.099737
  level: 8
  lon: -88.251157
  name:  'Tyler Van Atkins Memorial'
- ap: 8533
  img:  'http://lh5.ggpht.com/KadNuhjGK6FUXezGHW1W1kfPOQV5l7gJP594EQm5nPZFLTgcTsjl4ixa-j7XitgtyJyou3q0pTfMr4i2E_avIA'
  lat: 40.118013
  level: 6
  lon: -88.243445
  name:  'Clock at Neil and Main'
- ap: 8346
  img:  'http://lh3.googleusercontent.com/NRpdP-ebGuykq3sH1NZBQVjhmSdVJW3F4MTCRdXrWKQf3Z5dBgo0Phhyqnel5IrJmriQRmJNFR12lRDrjxJ9'
  lat: 40.114911
  level: 7
  lon: -88.227781
  name:  'Electrical & Computer Engineering Building'
- ap: 8159
  img:  'http://lh3.ggpht.com/rUgM7jkTqL0VHxvsSW0yWuNJF5UrU62ITflghfn4PfKjn6L4WGz0ALkv98fc_q9dmK9SSpU1PXIawGvcRwE'
  lat: 40.098246
  level: 8
  lon: -88.251974
  name:  'Hessel Park'
- ap: 8159
  img:  'http://lh5.ggpht.com/ZDv0mHiZcEfLxGVibvfnMCu7reJceCVnxa4GeBjK2DO4Y4a0x-M7C2M0rEam-_bPlr2e2476RXe15pRY48s'
  lat: 40.114351
  level: 6
  lon: -88.227096
  name:  'Chi Epsilon Civil Engineering'
- ap: 7785
  img:  'http://lh3.ggpht.com/8FqlniFErK7cq59awiT84u8KyV4FIRd5krZzfYa58zJToFps7whdBnriPqvO_kFKeLUE3SWbJhCOPuvUQzaGFA'
  lat: 40.100691
  level: 8
  lon: -88.251337
  name:  'In Loving Memory of Zeus'
- ap: 7409
  img:  'http://lh4.ggpht.com/xS51--rXA9M_IHpXWgFQxKZU-YbD-1zk-nug6k7RyKl8rYeam_YFwMmLNWRRHHzI-rOTGyhTJQQ314WudSQJ'
  lat: 40.117132
  level: 5
  lon: -88.243009
  name:  'Fountain in the Alley'
- ap: 7222
  img: http://i.imgur.com/5j1qaiT.png
  lat: 41.964092
  level: '?'
  lon: -87.633659
  name:  '16dd983c6c30490faf1c45bfd3e1ff1e.16'
- ap: 7222
  img: http://i.imgur.com/5j1qaiT.png
  lat: 41.964336
  level: '?'
  lon: -87.633564
  name:  '7fbe13944b5d4af78e982aada5eda453.16'
- ap: 7222
  img:  'http://lh4.ggpht.com/MvwoDsxwfyNLHzfGkFJl-4VFeX7OvqB0hsMCrZ2D9Olh8GSghAJDfFfDh7a7cOtMIGwEDMyesZoKvKCXAGj4'
  lat: 40.116553
  level: 5
  lon: -88.242268
  name:  'Esquire Lounge'
- ap: 7222
  img:  'http://lh6.ggpht.com/5CDidk0pqfUtSW_Yqouuf3diX8drdMu9DoT728QpSz8q6A-WxNhT0yLcgM_7gGpyIAeXrHiTkIzzaVJFgnN9WA'
  lat: 40.099852
  level: 8
  lon: -88.251947
  name:  'Our Friend Tim Palmer'
- ap: 7222
  img:  'http://lh4.ggpht.com/nCIRPoMhADi7TL4q2u4MuBiXC1akVoL07As3dRfJNrhBjk7TMQ6R08CVcjyVIhHKHcOuAFQpwqld8JgdcgIB'
  lat: 40.113961
  level: 6
  lon: -88.22709
  name:  'Nathan M. Newmark Civil Engineering Laboratory'
- ap: 6659
  img:  'http://lh3.googleusercontent.com/M1BXbCtfOfi1ipACxyQaE2jCbcLCxQTsJVIUli8GgprQaS2WmnVuSsqMoFaWub8LM6VF7KK4wSH9SSGdrXM'
  lat: 40.117287
  level: 5
  lon: -88.242984
  name:  'Mural for the Blind Pig Brewery'
- ap: 6472
  img:  'http://lh5.ggpht.com/BUGNnLReyCBJJj9_zpqgwv5_CAyiW8fWBpyVs0ip1hT5NEE6YKCYzlc8ahldKzk_xv-4uckNJNb6NrJd6r33qg'
  lat: 40.116989
  level: 5
  lon: -88.242255
  name:  'Blind Pig'
- ap: 6285
  img:  'http://lh4.ggpht.com/PHV-1ZpFzCAl_ViCKwBY_x2pIDbVyaT7wJH1sTvFJCxrSdRrO1x7NaXq9OdRGwz_Mls4iwk6wuGHMBArfV54'
  lat: 40.098688
  level: 8
  lon: -88.25063
  name:  '"New Holland Yellow Dinosaurs" at Hessel Park'
- ap: 6098
  img:  'http://lh3.ggpht.com/CwgYIhVaivHHg_U6yqu5KSGhSh9ipRBDu7G192KiQfrnXc7C8uh7UOh6MP91vhZJ3LZdiTaFwpvFukvIaj6J'
  lat: 40.117445
  level: 5
  lon: -88.243409
  name:  'From Swords to Plowshares'
- ap: 6098
  img:  'http://lh3.googleusercontent.com/tWUxy7KQ-q_qBBIgLzTjjezrBpWPSJ_z3FWnvbB8Y5wIiYZW1I5ioL0Tzq60VyalCaIwOk4UI3agM8tFaykY'
  lat: 40.117427
  level: 5
  lon: -88.243235
  name:  'Cowboy Monkey'
- ap: 6098
  img:  'http://lh4.ggpht.com/vKgqIecJshMQxrhO-ZhMjcIyARuJdyU63wKfzAG0wouZex6LVzO46Qi5zM1N3Jx8xyantDFk9sQGsSEBhb-y'
  lat: 40.101327
  level: 8
  lon: -88.251412
  name:  'Zeus Memorial'
- ap: 6098
  img:  'http://lh4.ggpht.com/B_I1b0Jy3vW41RX8jjCNPP68AULplU0Pf8ddolyKmpEWCfBVShQkmjF1HfTPzDjmBBQGgOs0jHW-rUR0mv8BkA'
  lat: 40.098789
  level: 8
  lon: -88.251685
  name:  'Curtis William McKinney Memorial'
- ap: 6098
  img:  'http://lh4.ggpht.com/4LxsGZZMk3DnpJXUvqzrL54CHSP5TDXjUnDJyHmCCTtCJIjGEI7kxT9g4uxfSPh0X6yGLgQo1jfqbu7B8VEr'
  lat: 40.099084
  level: 8
  lon: -88.251826
  name:  'Irina P. Stewart Memorial Plaque'
- ap: 6098
  img:  'http://lh5.ggpht.com/4DJAFPeZ_w65Km7VDnsbOqouQaeBuPuxA0KHPQToT_B6o1hBxzdu3kn89UhHgv22Ygj52Fx9QqcbzOytuw'
  lat: 40.100078
  level: 8
  lon: -88.250683
  name:  'Brian Clark Memorial Plaque'
- ap: 6098
  img:  'http://lh3.ggpht.com/VrbXGwlUosNLEkVdshWUFoVa3KtlJQoEU4yLYygvftYbPCmxo644Uvar_v8Kb9RS53hB0tXgvV44GotrxZyu'
  lat: 40.098592
  level: 8
  lon: -88.251676
  name:  'Ruth and Fred Steigmann Plaque'
- ap: 6098
  img:  'http://lh3.ggpht.com/G1CvGhpethi5UmprDWxZN9rTblHa3anSsQz1UPgJtkREkfN7lDFoxFObst0609Cg5mofuZxJKr0ddNKhY4VL'
  lat: 40.098464
  level: 8
  lon: -88.251426
  name:  'Ruth Haasis Memorial'
- ap: 6098
  img:  'http://lh5.ggpht.com/-UWK84I78Sftf7yg-E2pg6xEAWTvyiThgJBJlxbqOZPYKNmzQ8uGgEEMetzplrG1HpXG5kQqNItUeXKxOHDsGA'
  lat: 40.100286
  level: 8
  lon: -88.251747
  name:  'Tennis Anyone'
- ap: 5535
  img:  'http://lh6.ggpht.com/SCYK-XeMmOyfRrTt1-aQNoDA-2Sib4m5Ch26mTwo6XNdVeVnfi7W74Ik6IRLAPSoKzSS97pgwt50Jl9oSgGfP029USxZzQWKNJo3rbs-6YHBPBif'
  lat: 40.116792
  level: 5
  lon: -88.241752
  name:  'WEFT 90.1 FM Community Radio'
- ap: 5535
  img:  'http://lh5.ggpht.com/f710C9AvOEB7ieCI4f382wWUP4OgDxiqPzbxqxct6Ugf2PWBfyXyDpG_JcRQ6PaZ_jS0jpXXBhNSt_u9rFA'
  lat: 40.113864
  level: 7
  lon: -88.224839
  name:  'Plato: A Social Networking Revolution Begins'
- ap: 5348
  img: http://i.imgur.com/5j1qaiT.png
  lat: 41.96574
  level: '?'
  lon: -87.633301
  name:  '6f943f02a22d47e3b2b5cb9f7b0257dc.16'
- ap: 5348
  img: http://i.imgur.com/5j1qaiT.png
  lat: 43.952543
  level: '?'
  lon: -86.447563
  name:  'e0537baf700b46108cef5fbf99bb62c7.16'
- ap: 5348
  img:  'http://lh4.ggpht.com/_jAAuDi8SO5uupi8JlB3HZaFG40S15izNv_3vqOt7ro2rRHuXrfdEKfEFvRESdAjCEz3RVDpyrxJGSIrju5d'
  lat: 40.117916
  level: 6
  lon: -88.243087
  name:  'Sholem Building'
- ap: 5348
  img:  'http://lh4.ggpht.com/tLO2wjyCgyune3KDOlQMV_oiDRxVsHqO1gAG_0xs9TvKOiuWRVmJcO29WI7jELxoxncaXpy91kMa89Uj65JVNw'
  lat: 40.11784
  level: 6
  lon: -88.24286
  name:  'Kaufman Memorial'
- ap: 5348
  img:  'http://lh4.ggpht.com/wbrbzDCo3C4qFJyHTWOST5o8B7kwZSWePUWOboIlYrdvxjrhWLqVQ1MqUF5-Hy4nt26x_oHQq9f8EbfdEjVK'
  lat: 40.117382
  level: 5
  lon: -88.243748
  name:  'Days of Venus'
- ap: 5348
  img:  'http://lh4.ggpht.com/-MJc8fCVxpxV7prlhkP3sXPWZ7jsr8Behc29zUJqdz_V57jSg7SzyMUUv7B9Frzu36mJhM2PQkr_LJk-zyM'
  lat: 40.117729
  level: 5
  lon: -88.243645
  name:  'Watson''s'
- ap: 5348
  img:  'http://lh5.ggpht.com/tfAfnmo6mSMc6U0P533NMFJRGwn6lasmx-MLR2JJg1QOizMKkghFU8E7hb2zgYgdQEbgnCJUlvZIMdrrJe4'
  lat: 40.100822
  level: 8
  lon: -88.25193
  name:  'Seeds of Kindness Bench'
- ap: 5348
  img:  'http://lh5.ggpht.com/1FFq1l5byXiUE1FTO1Ki4CnurAyDTSJ7tatUNPN2PTAm6auSif6bq49bEe3gkQdpk6ixuhsUd-6KYXSi9NV9'
  lat: 40.113425
  level: 3
  lon: -88.238014
  name:  'Champaign Waterfall'
- ap: 5123
  img:  'http://lh3.ggpht.com/rT55OoX-8s-w_ikrqOgpC7QkK-Iqp4ylicElGoWFagKRQ8LX3Uvv8TZ5Xc8BlId1btzo5FTbgddPN72kYwA'
  lat: 40.114327
  level: 4
  lon: -88.224492
  name:  'Siebel Courtyard Structure'
- ap: 5161
  img:  'http://lh6.ggpht.com/S7Utf4_59vQkAP5JhC3mdbzVLKBTt-0zoJ2UjfxUnN10VBbixO-_VwvssWd1LbFSx_yafaijd_U0wTGo870'
  lat: 40.100941
  level: 8
  lon: -88.251314
  name:  'Gabriel Patrick Maxeiner Memorial Plaque'
- ap: 5161
  img:  'http://lh5.ggpht.com/C6wRSaEWO1NYGY5luyYZKHG3Z3aib4aflaPdV7B9G6N6adE890g3QuPRSvCUhsdFHqjoVUjo27mfz9WsjXyuhQ'
  lat: 40.100521
  level: 8
  lon: -88.250864
  name:  'Gabriel Patrick Maxeiner Memorial'
- ap: 5161
  img:  'http://lh3.googleusercontent.com/v44Gf5oEZGcwkQcA2wWz-uAeDFESHj7sEloxdCJd316RPH3w_ln8_9mBEMbAqGyI_2Y2qaYp525PnRip9Rg'
  lat: 40.105315
  level: 4
  lon: -88.226125
  name:  'U of I Observatory'
- ap: 5161
  img:  'http://lh5.ggpht.com/J4IbsPUjPF6cIlktTr1tOGHi61krS9o1eXeuAlPRBrSYUQrwdyShfNzuzxD0epa_cBMPF1xJ9YhoBA5VOQtYRw'
  lat: 40.105467
  level: 3
  lon: -88.225644
  name:  'Smith Music Hall'
- ap: 4936
  img:  'http://lh3.ggpht.com/whmQSPmix2tEoKcWwrVrV0H0JzNf1tzyuohI3ykSa-Qx4rUcLTf4686WcnJjygsMY2QPUWhvVVzlmMMHof94'
  lat: 40.105907
  level: 3
  lon: -88.22564
  name:  'Andrew De Grado Memorial'
- ap: 4936
  img:  'http://lh4.ggpht.com/N-xxTzGXK34K-VdTOWaWrFJeP9_SLZ7ZBluxK2mjP51yZx_5HOMi_mb4Nu2rWgo3gOqUb19_cPb662sI7td_'
  lat: 40.105687
  level: 3
  lon: -88.225714
  name:  'Smith Memorial Hall'
- ap: 5161
  img:  'http://lh3.ggpht.com/2WMtYMnBjTlw-gPK9quwjMde6Heie7SQHCZT41kPiIpOwxXEIQWbB_euK-R5rZhqUcmGuZJ0tIBh_801KGyVsw'
  lat: 40.11453
  level: 4
  lon: -88.227324
  name:  'Beckman Institute - Upwells Fountain'
- ap: 4598
  img:  'http://lh4.ggpht.com/CYtXDlK6MB-Yl-FmKw6yaRt-LGUdQqAdRp3LsWV1JUYwC8qrVWWJaGEaqMtMtRpANFpNeD4z82iGL54nIARL'
  lat: 40.141919
  level: 7
  lon: -88.244611
  name:  'Marketplace Mall Carousel'
- ap: 4411
  img: http://i.imgur.com/5j1qaiT.png
  lat: 43.954844
  level: '?'
  lon: -86.44607
  name:  '1bfa7519e58e467b81485eae7d256c0a.16'
- ap: 4411
  img:  'http://lh3.ggpht.com/07XrBN-er6Ecleor0n9RJ4DfGO6B2yn-ZxjI-Uy8Ba46Jtb6cXNVmATPiPiGyk-1jZ4wxa7-EeIWbWUqArCG'
  lat: 40.142554
  level: 6
  lon: -88.243468
  name:  'Dog Heart'
- ap: 4411
  img:  'http://lh5.ggpht.com/KYppjeOoIlb4lbowRrrC5qRdYW7_KU8rzjtDMpvhh-Q_c6VZOTtVmOqmmxChJA2hjlpS5dJ1JnhUQcKUAXDWHA'
  lat: 40.117976
  level: 6
  lon: -88.242642
  name:  'Stevick Building'
- ap: 4411
  img:  'http://lh3.ggpht.com/bltQwmnzp2vSKYhLpzNLqB4iddy6ie0kWk9G7Wce4U9qmW3CABxbXAhF7v0oG9QLFD2q57UZuVqZCMgN3MHZfA'
  lat: 40.118335
  level: 7
  lon: -88.243408
  name:  'Downtown Fountain'
- ap: 4411
  img:  'http://lh6.ggpht.com/rGhR45ZFbHtxmrZSSy9V19eFoyHIDB42c6MK188isPJFWpUsW9ywNHayKt3acNvKNC8DAV6mDkUloj3aiS4'
  lat: 40.118422
  level: 6
  lon: -88.24346
  name:  'Entrance'
- ap: 4411
  img:  'http://lh3.googleusercontent.com/Wl3skouUyBxfjEnI0bhQnpjCvS0wgeIHDtu5lfvMUD04A4Cab7aBCOp2HPOU0TWRGkZMpzRrG-bB0BK08NVWGw'
  lat: 40.099593
  level: 8
  lon: -88.251724
  name:  'Blessings from Devon Elaine Cattell'
- ap: 4411
  img:  'http://lh4.ggpht.com/oknWvsn3j_8LLqgIevkEiU6a-r9RO-ylFPYVgOPQ6wBXGmnyvWFCGC4eG8qo7Z28JPMEoBE4DUFq2FPfFdXR9Q'
  lat: 40.112908
  level: 2
  lon: -88.237287
  name:  'Stone Arch Bridge'
- ap: 4411
  img:  'http://lh4.ggpht.com/ETgOsKlMmsv5wRT-aM33VVVEgFvp3ZoMxqXmYKxROpFAYnfPqjWhltqYBG7ajEuM8XKf3mVeSaF7r9grm2t8'
  lat: 40.113448
  level: 3
  lon: -88.237188
  name:  'Boneyard Creek Second Street  Basin'
- ap: 3661
  img:  'http://lh5.ggpht.com/qcPrCawV71BDvDKZgWvM7Mpyo0O3jE5Yu_3XjoulzyX8BWngzTHYScWApCGgWNCdP9JHc3BOauJEB_L0-YI'
  lat: 40.085444
  level: 4
  lon: -88.329043
  name:  'Environmental Plaque - Stream'
- ap: 3661
  img:  'http://lh6.ggpht.com/prg5Oedqi1_YJMN9GAesf7bmbUwbMGc9v7E3SYkm-TYdudfpX9SwuC1J4D4zkb1K4yrvF2ZPNWDoUniixORu'
  lat: 40.086493
  level: 5
  lon: -88.330828
  name:  'Environmental Plaque - Prairie '
- ap: 3661
  img:  'http://lh6.ggpht.com/duOeXcOSQLWosdD0JJXg3pWWQp4t5sL0x9qDHoTIBFNOzEW0t53Lt2cnwgV2E_Su0l1ajIQxPtVbbK_sDRaS'
  lat: 40.141775
  level: 6
  lon: -88.242671
  name:  'Marketplace Mall Fountain'
- ap: 3661
  img:  'http://lh4.ggpht.com/1n-hHkU1cTz6dykw37WBVQqctZlzyl9gYgy7IMi1zcMf1t0ry6F1JPnwlvUjq_6YNdolofY_rLbuL_uLQwg'
  lat: 40.112913
  level: 4
  lon: -88.237848
  name:  '2nd St. Basin Ampitheater '
- ap: 3661
  img:  'http://lh4.ggpht.com/19VZtu1hVcvRULCxi68PgA-pzTXEiobtDO60r-8r1MaFnboaw386YrrJphD8xHfbAGiu0SGHZ6nuzuhvh59x'
  lat: 40.102559
  level: 5
  lon: -88.226208
  name:  'Agricultural Engineering Sciences Sculpture'
- ap: 3661
  img:  'http://lh3.ggpht.com/uRfzF4ZYfUywrpeKAijCtI65UgwHP_5pgc37VOhSqnsL7lIfH4aAM3DK7HCnaTKSr2Zn24ZXjvW7xGDh-U8'
  lat: 40.100481
  level: 5
  lon: -88.226962
  name:  'Mount Hope'
- ap: 3661
  img:  'http://lh4.ggpht.com/bvexSRw3puopRRWV-oeMjABzIyeoMnq-cfPI4mL06BwdsQKA-9vvssZqs5jA5GWGkPNXXd6N2WVG_yxCB7Tf2A'
  lat: 40.100071
  level: 5
  lon: -88.227115
  name:  'Defenders Of The Flag'
- ap: 3661
  img:  'http://lh3.ggpht.com/3WnMbDq1Vm3HiqAM5qk1r9m3OqcO-YUN0nCOt2yRfUxVWLZ-8huxevlCI0JnIJgpSBZN4mtw0gxJnrGtuaS9iUf7k-JFfmRGRkBXQafWO9MIk_oJ'
  lat: 40.115491
  level: 5
  lon: -88.227358
  name:  'Arnold O. Beckman Statue'
- ap: 3474
  img:  'http://lh4.ggpht.com/FOqmWFqpxmpdNn358B7Xko5DVp_H3_qI49Lw-6NI8lusw3iqZM-wuMsxRn82L8WFxV7TKpxjxwwzvqLHR0QF'
  lat: 40.087474
  level: 4
  lon: -88.329182
  name:  'Environmental Plaque - Woodland'
- ap: 3474
  img:  'http://lh5.ggpht.com/nWEtxuKQdy0teBBue1DYmG7P3SF5-3A6zlB7GwVHBWlolAZYGq6Br78lWcF9ltFy-KeSlozXie2RmU6JfCUX'
  lat: 40.142673
  level: 7
  lon: -88.244603
  name:  'Italian Statue'
- ap: 3474
  img:  'http://lh5.ggpht.com/AX1hc0zh7ZtN2MoSsNXTKwRtGJWb8EgeHffmjJfZvCLL7wvvjMZ8d0BwESKKrdNM--UUKA09PrLQ9qmTrMw'
  lat: 40.117186
  level: 5
  lon: -88.241556
  name:  'Champaign Limestone Sidewalk'
- ap: 3474
  img:  'http://lh5.ggpht.com/6qIQAtIoPbAVQ1O3BoOnGg6gtTa9fd0JIkxt6P1kmSimVswLaPpCRaLEudsNcMfP_kKb4SCE1By1o3lhYevmIA'
  lat: 40.1172
  level: 6
  lon: -88.243745
  name:  'Circle of Friends'
- ap: 3474
  img:  'http://lh3.ggpht.com/tXDyz6XRrR2AKSg9Rrj1z6jBG4dz7uR9qFmSUO1bWljMEw67ncNiq-2Hx3O9Fs029iRtvCV1gdlGN7pG69L0'
  lat: 40.114104
  level: 3
  lon: -88.237694
  name:  'Lo Park Fountain'
- ap: 3474
  img:  'http://lh3.ggpht.com/rKv-1aQyD3_EmYdZWG7vYw8cs8J89rZ6nFgr0tzEY9dFNyVdXpy1qOnHT434i_rN90x2ZakG3V5iyZUlXFogwA'
  lat: 40.103623
  level: 5
  lon: -88.22503
  name:  'Dancing Horse Metalwork Art'
- ap: 3474
  img:  'http://lh3.ggpht.com/RPwmqKgDoVBfLknuC-LM6Vvni6av9IgVxpZapS8lQSDH-fHokPS_j6pH-R9dax4sKqOB5naETVESobfZWDrC'
  lat: 40.102705
  level: 2
  lon: -88.225051
  name:  'ACES Library Information and Alumni Center'
- ap: 3474
  img:  'http://lh4.ggpht.com/d3UqrcK5M1wuOe19dIaBUOkrXF4C9IxhOWfxqzM4zIHkGsUIRb1mckNapOMRkkCtVIe0rzJumb1OVDVc1_Y'
  lat: 40.108055
  level: 5
  lon: -88.233688
  name:  'University Baptist Church'
- ap: 3474
  img:  'http://lh4.ggpht.com/hJDi8J7CZU-933hT0Culp2nhslv6p8rDRPdTFz6FwNaAjB5CmfkaQzj9sM--E-QBvI8yvIJn1F2jxy7ZKWlh'
  lat: 40.10816
  level: 5
  lon: -88.234245
  name:  'Stratford House'
- ap: 3474
  img:  'http://lh4.ggpht.com/OFVPvdgB3GVpaQknHdnt2okgP3xcQksAH3wvOGYVuP85MMlxo3bQ2SRpBb0hzNfjQoC_5LlRqaE6jLB-h9Gr'
  lat: 40.108092
  level: 5
  lon: -88.234589
  name:  'Koinonia Plaque'
- ap: 3474
  img:  'http://lh3.ggpht.com/UcqV7o_Yw8_GGaaDMgHbyjMkowFd6fLEvVZpZ-gK4c0MfVLeIyMGz3v8JvS0D0W9p0eGJpr66nn-6KdP6iQV'
  lat: 40.100335
  level: 5
  lon: -88.226507
  name:  'Mt. Hope Mausoleum'
- ap: 3474
  img:  'http://lh5.ggpht.com/WZc539Zuz4CnOeahoDxnw7bXfoXbAW8PlbPdBvZNK5s1q7hQoFcVebhZRoTQV6uPovHywWaXUsleNvoQP2wE'
  lat: 40.113647
  level: 6
  lon: -88.227628
  name:  'Micro and Nanotechnology Laboratory'
- ap: 3474
  img:  'http://lh5.ggpht.com/dEeT4acpLu-WQFlZWd3psap5qAqqPTSVzm8Qt1QtpqtwZ0j1V9eKFcmpgN9K_x1PL4XVchuevw25rxHekz3tvQ'
  lat: 40.111968
  level: 6
  lon: -88.226793
  name:  'Bardeen Quad Structure'
- ap: 3474
  img:  'http://lh3.ggpht.com/x5fBw8MRogV8dm3kPO5zKNkUrQxn0dM7d1PIoASdX1_Rc8H5Duex4iZdOoIlqazCGll25TmptsWIRq1JFmj6'
  lat: 40.112135
  level: 6
  lon: -88.225762
  name:  'Computer Based Education Plaque'
- ap: 2911
  img: http://i.imgur.com/5j1qaiT.png
  lat: 40.531747
  level: '?'
  lon: -89.945692
  name:  '4ceb21b931104d24b2e6f53f80c831c9.16'
- ap: 2724
  img:  'http://lh3.ggpht.com/xSCQSCRT6pHyQi9LDI3OamMdZnhLQ06OSlHRHnJC0FkDo93VgOcr3gyAV0aPAKagwq9V5iViSSCgIr6_fWCB'
  lat: 40.134441
  level: 4
  lon: -88.314067
  name:  'Seasons Within the Wetland Environmental Sign'
- ap: 2724
  img:  'http://lh4.ggpht.com/A15Qc2ImqJFORKlDItFStr3pkJ1pX5dRyG8VO6RoziKIqMOMMTQdJa-fUInsxL4o7Yxg1XNHfexBZuNAyLG0yw'
  lat: 40.132021
  level: 4
  lon: -88.31285
  name:  'Sunset Ridge Park Dedication'
- ap: 2724
  img:  'http://lh3.ggpht.com/jW-2Ce-dZ1Q0ljxUo3Cv-jckhBnpc4tF_LgZS1keMALkHV6RdWqDFJ2IDEj9bbeUrZbHubk7zNmzoHoLXmA'
  lat: 40.121037
  level: 5
  lon: -88.21093
  name:  'A Fountain in the Forest'
- ap: 2537
  img: http://i.imgur.com/5j1qaiT.png
  lat: 40.726855
  level: '?'
  lon: -89.552754
  name:  '3cac1b76a1544d3ea220a8a3737fde52.16'
- ap: 2537
  img: http://i.imgur.com/5j1qaiT.png
  lat: 41.431428
  level: '?'
  lon: -88.345007
  name:  'e5729b394f784af7b533789a1237123b.16'
- ap: 2537
  img: http://i.imgur.com/5j1qaiT.png
  lat: 41.010913
  level: '?'
  lon: -90.382649
  name:  '1d0f9709e7c749ae89c41688882c62dd.16'
- ap: 2537
  img: http://i.imgur.com/5j1qaiT.png
  lat: 41.765347
  level: '?'
  lon: -86.740999
  name:  'c2add1d58fd2415d8c2dea6446bd2bc4.16'
- ap: 2537
  img: http://i.imgur.com/5j1qaiT.png
  lat: 41.873488
  level: '?'
  lon: -87.61651
  name:  'cd1f4cd7926d4476b7a6e29041be32e8.16'
- ap: 2537
  img: http://i.imgur.com/5j1qaiT.png
  lat: 41.05718
  level: '?'
  lon: -90.381873
  name:  '28834c9a592f424a9df43c0869aca70c.16'
- ap: 2537
  img: http://i.imgur.com/5j1qaiT.png
  lat: 41.013323
  level: '?'
  lon: -90.384371
  name:  '913fd3c10199419dba943ed7a486d8e9.16'
- ap: 2537
  img:  'http://lh6.ggpht.com/ocpQF23CdY7CXPOYMbPL3wLLV7Rc0VayvSyooA07il2lG0oiiQDbDCnsKqO1ysXJAVlzGikCKS-kVOLb6rog'
  lat: 40.135079
  level: 3
  lon: -88.314559
  name:  'Sunset Ridge Decorative Gate'
- ap: 2537
  img:  'http://lh4.ggpht.com/YMDDyyJpIhe7xeYVGH048CFQDr7lX1SIPXzk4kXWr6zVgpUv6D1YGTLKwyg3DrhDoCuv-knBgF2gKZTylVRQ'
  lat: 40.132912
  level: 5
  lon: -88.314568
  name:  'Sunset Ridge Park'
- ap: 2537
  img:  'http://lh6.ggpht.com/p2F3xw4xL4UdiMM9aSy628ISSglrvjPexpF3j340tMAP9MX07yh_sJv7kHVkeud8lyFf2ZwDohw3zsRS2PSd'
  lat: 40.093914
  level: 5
  lon: -88.281531
  name:  'Terry M. Warmbier Memorial'
- ap: 2537
  img:  'http://lh5.ggpht.com/tuo_ByFTbwLitFP5cBseOibqRxENxbCwOJ30dCnja5ijBI_qBv5vqNP7ZuZXnxhYM6ms_GbExZEwwKVUtwV2'
  lat: 40.093712
  level: 5
  lon: -88.281583
  name:  'Brownfield Dedication'
- ap: 2537
  img:  'http://lh5.ggpht.com/EoSf8hHJu8u_sZNBmm3S1GHAWAxUzBsmXEWMMBkHb0fpzxtjz5RHwnclV42-DDwyDr2BION1zqJ4sLIkaiw'
  lat: 40.121818
  level: 2
  lon: -88.222608
  name:  'King Park Tennis Courts'
- ap: 2537
  img:  'http://lh6.ggpht.com/0IsQORyEW-bPA7sEbGspygtoI7ixEshm_2fUw5oeh9AeXg6JN5w0ypYIshpuKm-C0nG4Vm2XmpLvtWTZzWzd'
  lat: 40.111607
  level: 5
  lon: -88.233753
  name:  'Chabad Menorah'
- ap: 2537
  img:  'http://lh6.ggpht.com/68dvh0QMefXWoOEuzYL9ly2rpD9TpVh9F2kj89k41eGqxXdpLX0ldTrsAsaenN5iOWGwkJ0HA3gYAVWoOqQ'
  lat: 40.102036
  level: 5
  lon: -88.226601
  name:  'Agricultural Engineering Sciences Sculpture'
- ap: 2537
  img:  'http://lh6.ggpht.com/0WV0zgKIo2AbnMTwJXYSM-C6nik92XvxsPKcZps2SdFzIWJ2bY4k2dHAqdImb1hTCK910NMvQYoKlwWprt6c'
  lat: 40.12034
  level: 4
  lon: -88.211743
  name:  'Alice Mimi Muller Dedication Plaque'
- ap: 2537
  img:  'http://lh4.ggpht.com/DvS6go5Krx0CocEL5s29eIW_bm_5HDMdSrRgfi7i3uLEXMkzxPLKWMX24OvVm9geOAeqRlmoqv4HQWwH-d_vfg'
  lat: 40.11075
  level: 2
  lon: -88.198278
  name:  'Urbana Baha''i Center'
- ap: 2537
  img:  'http://lh6.ggpht.com/3Z_ahLKZKpEJ_5dh8wG1jTBp6wvIadDrU8lnAkZ4flL_mtxKtbh2HxixutEK3usEaP47L6jU0VA1by70WIuJ'
  lat: 40.110984
  level: 2
  lon: -88.196857
  name:  'Victory Park South Entrance'
- ap: 2537
  img:  'http://lh4.ggpht.com/EveE1r4LU3oEoTrxc2hAzywPFArsSkIcAydfuBtNSmnwv76V6mqWgNEpe7srr7g3ZAOILSYHsfCdLLlwzU-9VA'
  lat: 40.110716
  level: 6
  lon: -88.207208
  name:  'Seasons Mural'
- ap: 2537
  img:  'http://lh6.ggpht.com/dtC5OmH9appnQkJoKvvi2W3ru58HSF6qKL5k4FlhqdViYAjOcPv3PKxyfPj5cbX4OAJC-23f_3fLi2mIcsp5'
  lat: 40.110561
  level: 5
  lon: -88.207985
  name:  'New Life Church of Faith'
