- ap: 11531
  img:  'http://lh5.ggpht.com/BUGNnLReyCBJJj9_zpqgwv5_CAyiW8fWBpyVs0ip1hT5NEE6YKCYzlc8ahldKzk_xv-4uckNJNb6NrJd6r33qg'
  lat: 40.116989
  level: 6
  lon: -88.242255
  name:  'Blind Pig'
- ap: 7409
  img:  'http://lh4.ggpht.com/_jAAuDi8SO5uupi8JlB3HZaFG40S15izNv_3vqOt7ro2rRHuXrfdEKfEFvRESdAjCEz3RVDpyrxJGSIrju5d'
  lat: 40.117916
  level: 6
  lon: -88.243087
  name:  'Sholem Building'
- ap: 7033
  img:  'http://lh3.ggpht.com/3WnMbDq1Vm3HiqAM5qk1r9m3OqcO-YUN0nCOt2yRfUxVWLZ-8huxevlCI0JnIJgpSBZN4mtw0gxJnrGtuaS9iUf7k-JFfmRGRkBXQafWO9MIk_oJ'
  lat: 40.115491
  level: 5
  lon: -88.227358
  name:  'Arnold O. Beckman Statue'
- ap: 6846
  img:  'http://lh5.ggpht.com/4eagHlnlpVbtFi_knZN73PIs2A--Ipj6SOlkQADePlfnzfOnJn-cAv0IoNNv4qR8WrbUFImUKHBknyaoAewO'
  lat: 40.111383
  level: 5
  lon: -88.225675
  name:  'Only Rain Down The Drain'
- ap: 6472
  img:  'http://lh5.ggpht.com/KadNuhjGK6FUXezGHW1W1kfPOQV5l7gJP594EQm5nPZFLTgcTsjl4ixa-j7XitgtyJyou3q0pTfMr4i2E_avIA'
  lat: 40.118013
  level: 5
  lon: -88.243445
  name:  'Clock at Neil and Main'
- ap: 6285
  img:  'http://lh5.ggpht.com/k_9eqZVvGcr3ZNyeeSNDM1-Y7od35KmnQQptB9usrdpTdpGW2c_5-12rYy9hGazdx7qhlYrEXxaJ_ZIVFywlcA'
  lat: 40.106706
  level: 5
  lon: -88.232116
  name:  'Illini Tower'
- ap: 6283
  img:  'http://lh4.ggpht.com/ryDcZUJK2aQ_fI0-hY850_t4ZmG2hNmtCx7cxbX83w3cnUWdI-ywpTuQrUVQNxGl3_DcxxNr6bupfDTsagRa'
  lat: 40.117107
  level: 6
  lon: -88.242467
  name:  'Radio Maria'
- ap: 6283
  img:  'http://lh6.ggpht.com/j712bbvDknzGlAU87nZA1Bx45Ng-0MGA9Uvuv-3WzIKA3W51mXOZpJ-TzVSbuU3uE2AsJ5wcO7_B6WDpdRr0'
  lat: 40.110684
  level: 5
  lon: -88.226053
  name:  'BCS Superconductivity Theory Plaque'
- ap: 6098
  img:  'http://lh3.ggpht.com/bltQwmnzp2vSKYhLpzNLqB4iddy6ie0kWk9G7Wce4U9qmW3CABxbXAhF7v0oG9QLFD2q57UZuVqZCMgN3MHZfA'
  lat: 40.118335
  level: 5
  lon: -88.243408
  name:  'Downtown Fountain'
- ap: 5722
  img: http://i.imgur.com/5j1qaiT.png
  lat: 40.027144
  level: '?'
  lon: -88.576903
  name:  '54253a03d7df4de9b19d89b54aec21c0.12'
- ap: 5722
  img:  'http://lh6.ggpht.com/ZB8W5NNUt_ghaLF4gE_7_e_uguOocj1k6qCQvq2eAsayVQyZFUsUA3H5SFkHOwg20GluChbe2MSO_xWoB0bk8g'
  lat: 40.11813
  level: 5
  lon: -88.247413
  name:  'West Side Park'
- ap: 5722
  img:  'http://lh3.ggpht.com/LR76HrJqriPFUoc2XSs7jb2SotnStZv20kI7rgUx8B5HqhmetnTW4MA1tCp1ws4g5gw0sf9g7M3Lwq4VwfpD'
  lat: 40.111687
  level: 5
  lon: -88.225353
  name:  'Transportation Building - University Of Illinois'
- ap: 5722
  img:  'http://lh6.ggpht.com/BzDhCANV_iNTHhKFBGLuaUqOvChRZtPWnJ2Xk4h7NsKJHmTGgCWtFHWv2PpDA2fCsHHKSCRTrUNK8AKrLRnS'
  lat: 40.108066
  level: 6
  lon: -88.230687
  name:  'Community United Church of Christ'
- ap: 5535
  img:  'http://lh6.ggpht.com/Jj5dr0C8flwov23nPbKRDVme7HOE0xZvNC6JkRscLlNqRr6uxkxBExdu-rQUdt9kZtd9e5dvHsv6Vs1Hdtd9'
  lat: 40.117186
  level: 4
  lon: -88.241556
  name:  'Champaign Limestone Sidewalk'
- ap: 5535
  img:  'http://lh3.ggpht.com/1G0o5RjtXyfAjbI-E2honhhelnuiq4lIkpHmB44e-AwSBuIxVOdLPVYjImbTMS8kyBdZuKuiMQHciUIdAWg'
  lat: 40.118368
  level: 4
  lon: -88.243737
  name:  'Frank Robeson Memorial'
- ap: 5159
  img:  'http://lh5.ggpht.com/QNdE7Z3gNcz1M-mzDms1aMrHPZpKr43FIfnMxwfwdp6kP1N6fPKwUzIx5qrt3k_KBeBFRmcD-PXCWq7V2Ygo'
  lat: 40.119969
  level: 3
  lon: -88.243775
  name:  'Mural at Bentley''s'
- ap: 4785
  img:  'http://lh6.ggpht.com/pxaCt7clhIXc1RVGMMJZsmnbEWNWjFYJiUrQMev_SeOmXBothvOzmfnirQ5_W8CMa7hpigqydQhKMa4XFCAi'
  lat: 40.108173
  level: 5
  lon: -88.230209
  name:  'Mural on South Sixth Street'
- ap: 4598
  img:  'http://lh3.googleusercontent.com/hJZWoErzM-MuXulq4FlhlZwMbJX1Isd81GBUBVKayd57jVIVxUle3itd-1DRKo2VaNXznWr1X639fa44Etk'
  lat: 40.141919
  level: 5
  lon: -88.244611
  name:  'Marketplace Mall Carousel'
- ap: 4598
  img:  'http://lh5.ggpht.com/BPYtoLzDqibtj79fwGYxizNqHsBoJp5OzVO4Z-75rudKppazgw7D0eoXHOpH20iQd2Uc9MHXs72-r7fOJDNzpz3KRHIpZwzmXBope3LI8GA4SfsY'
  lat: 40.117754
  level: 3
  lon: -88.241676
  name:  'Jos. Kuhn and Co. Building'
- ap: 4598
  img:  'http://lh5.ggpht.com/arF148UpHKIzlt5NezBSpFkItJk3gWq__xkPolNCeVTwHNpQNm1rzIwSdA2oAJBPtaLhpTHcVdAFFdHAXm8k'
  lat: 40.118383
  level: 5
  lon: -88.247003
  name:  'T E Berger Memorial Plaque'
- ap: 4411
  img: http://i.imgur.com/5j1qaiT.png
  lat: 40.122039
  level: '?'
  lon: -88.645081
  name:  '1c0a703b220f4324b239d936dd1b3c99.12'
- ap: 4411
  img: http://i.imgur.com/5j1qaiT.png
  lat: 40.1222
  level: '?'
  lon: -88.644586
  name:  '290df76bcb984955b3d8b60468f4f4c6.16'
- ap: 4411
  img:  'http://lh3.ggpht.com/07XrBN-er6Ecleor0n9RJ4DfGO6B2yn-ZxjI-Uy8Ba46Jtb6cXNVmATPiPiGyk-1jZ4wxa7-EeIWbWUqArCG'
  lat: 40.142554
  level: 5
  lon: -88.243468
  name:  'Dog Heart'
- ap: 4411
  img:  'http://lh6.ggpht.com/hmDofhQgtMboyY40gAShyf0g__uH_qYaFzVKnGKShUBNn-JjwpN526PPOYKyq8kvusIGRrMQIZ7ozPedDVm4iA'
  lat: 40.117495
  level: 3
  lon: -88.241616
  name:  'Lincoln Building'
- ap: 4411
  img:  'http://lh6.ggpht.com/eeOtj4-6PU8Dt6QXk_TJjgkoEGRW9L8YzUqZE8QV5ZMCHnqA5CzoQoxKpnjCvXwaIflUUvPJmO_S7BdvMhcuzw'
  lat: 40.117588
  level: 3
  lon: -88.241787
  name:  'Adam & Eve Mourning Over the Soul of Abel'
- ap: 4411
  img:  'http://lh6.ggpht.com/rGhR45ZFbHtxmrZSSy9V19eFoyHIDB42c6MK188isPJFWpUsW9ywNHayKt3acNvKNC8DAV6mDkUloj3aiS4'
  lat: 40.118422
  level: 4
  lon: -88.24346
  name:  'Entrance'
- ap: 4411
  img:  'http://lh4.ggpht.com/-MJc8fCVxpxV7prlhkP3sXPWZ7jsr8Behc29zUJqdz_V57jSg7SzyMUUv7B9Frzu36mJhM2PQkr_LJk-zyM'
  lat: 40.117729
  level: 5
  lon: -88.243645
  name:  'Watson''s'
- ap: 4411
  img:  'http://lh3.ggpht.com/GGBe9Hug3fUbRCRAMs_kO1fg2HHQ95ZDBdW0S2tAHakvhQbWxlttanjhGNJJcyVRruUlL7zjQnPGI2bu8Wc4'
  lat: 40.117905
  level: 4
  lon: -88.242149
  name:  'Read All About It'
- ap: 4186
  img:  'http://lh5.ggpht.com/f1O8bFXHTg2PTOAUVLvrqk5xx5ps9SeqhpJ1RIPtSxm0I-e7J275e2ujJp3lFQGHUBW_vS90KOsrcdLDJ84l4g'
  lat: 40.110797
  level: 3
  lon: -88.225321
  name:  'Multiphase Fluid Dynamics Plaque'
- ap: 4411
  img:  'http://lh3.googleusercontent.com/hvoLMUc9UoNVVPttxWTc8PzOWdu5MBmPETnBexH7Alyl20WGCrNa0G_j7DwvD3qbhqpTaeThFhGDV2rCtp8'
  lat: 40.107629
  level: 6
  lon: -88.224484
  name:  'Bucky Balls'
- ap: 4411
  img:  'http://lh5.ggpht.com/gkIcCbfmQWyJ7s9ryhzfOOn1K-oa8huqzZN80X2psVjx_6Iur5egjGncbUIAMLiAJAf9qG1Ac8lX2MomHYY'
  lat: 40.108185
  level: 6
  lon: -88.225203
  name:  'Statue at Medical Sciences'
- ap: 4035
  img:  'http://lh4.ggpht.com/ULEhKlvERD4aidwSKPhLFujl0N0mZWcHPxtcJ7hNJkyDjYek9yrB4UD_G8bU-O9-12L1LYpDkM068BiYmpm9weZeGJsz-K5whCvUYTfmDqaIp1Fp'
  lat: 40.117
  level: 5
  lon: -88.247111
  name:  'Wesley Robert Weedman Memorial'
- ap: 3848
  img: http://i.imgur.com/5j1qaiT.png
  lat: 40.105244
  level: '?'
  lon: -88.56115
  name:  'Lodge Church of God'
- ap: 3848
  img:  'http://lh4.ggpht.com/Ow-wdEqY3uMRz8f_iGkOY7s4f79TTfxQK15aQu3wgtzRssq6mUqmxZcJDjfC4fO2y4Qt69U2jdahRt-Ald53'
  lat: 40.118119
  level: 5
  lon: -88.24714
  name:  'Police and Firefighters Memorial'
- ap: 3848
  img:  'http://lh6.ggpht.com/0IsQORyEW-bPA7sEbGspygtoI7ixEshm_2fUw5oeh9AeXg6JN5w0ypYIshpuKm-C0nG4Vm2XmpLvtWTZzWzd'
  lat: 40.111607
  level: 5
  lon: -88.233753
  name:  'Chabad Menorah'
- ap: 3848
  img:  'http://lh4.ggpht.com/PmGpygZ2fBs43twk2Y44XZbgGcHWv0YimAq7Fp3vlIRRqUyLpSmDmFwcn1ucfmJarcQrAAXJjYAXAhNyxSrz'
  lat: 40.110049
  level: 5
  lon: -88.231968
  name:  'Potbelly Mural'
- ap: 3848
  img:  'http://lh3.ggpht.com/NfRR7PyM2-UNoQGKgRsf6sUZdUTMp0sWqha9caVs49hYb0AnT9OznQX0dQGxKJNP6KiHWJ0WRUMSQh1m4-rwvg'
  lat: 40.117976
  level: 3
  lon: -88.245082
  name:  'Robeson Building '
- ap: 3848
  img:  'http://lh3.googleusercontent.com/L3lfMswaooWEA3nJNFGES354rtENCzxYkoWuVLXEXaTiXbqTNnsl34TRd8tbMwnGQHkAnr37-HLMutIe3_Uz'
  lat: 40.117254
  level: 5
  lon: -88.247074
  name:  'Westside Park Double Dutch-A Jump For Joy'
- ap: 3848
  img:  'http://lh4.ggpht.com/2tHD_AHYQu0kWuwLX2HMYWBG4txVkuWsBEfzWLL39npWp8kMSHiUKxSJM1E7yhimuMVUJ-RIlSSKsgjETvtr'
  lat: 40.110524
  level: 4
  lon: -88.228706
  name:  'Leo Roy Tehon Memorial'
- ap: 3848
  img:  'http://lh3.ggpht.com/gS3gT_deXzbDvejCL-5ygs31dw9bLQqYr2nDcLPZiv6nQzahJl12awG1a2pwKbFuoTlsHQYxQ2O7HDXL4-8'
  lat: 40.110358
  level: 6
  lon: -88.230181
  name:  'Murphy''s Pub '
- ap: 3661
  img: http://i.imgur.com/5j1qaiT.png
  lat: 42.585531
  level: '?'
  lon: -87.807675
  name:  '9ccc069dcb654a4286a8457b75e85a3a.16'
- ap: 3661
  img:  'http://lh6.ggpht.com/duOeXcOSQLWosdD0JJXg3pWWQp4t5sL0x9qDHoTIBFNOzEW0t53Lt2cnwgV2E_Su0l1ajIQxPtVbbK_sDRaS'
  lat: 40.141775
  level: 5
  lon: -88.242671
  name:  'Marketplace Mall Fountain'
- ap: 3661
  img:  'http://lh3.ggpht.com/-xag7tp3BReTAhfRmVAvpMw1Af15prESg4rve7QnsiIC5IKmKjBszxDIj8F212BmRU1apH_2u_9wAmq58_91'
  lat: 40.114157
  level: 7
  lon: -88.238621
  name:  'Bombay Indian Grill'
- ap: 3661
  img:  'http://lh3.googleusercontent.com/5FkLhIMVmAJJSslAXVxY1RNxi-4q5mNAVPK2XgU5LwRM8qcB8BGXOK0GmF6Y_xfgPOhwF_CrbcgVZlJx-Pza'
  lat: 40.11652
  level: 3
  lon: -88.241845
  name:  'Mike ''N Molly''s'
- ap: 3661
  img:  'http://lh4.ggpht.com/4_MOw_NKr2wZ2lzAzG2FlLtA3tfOfWqBZpNVP43LfN6ilD6qHRfZ-_wA1Xk8BnCqHKqKdqodC70X09pqtNXXqmNtK-uqo-fC9SZyOjT6ERfJorzg'
  lat: 40.118388
  level: 5
  lon: -88.245358
  name:  'Springer Cultural Center'
- ap: 3661
  img:  'http://lh5.ggpht.com/KYppjeOoIlb4lbowRrrC5qRdYW7_KU8rzjtDMpvhh-Q_c6VZOTtVmOqmmxChJA2hjlpS5dJ1JnhUQcKUAXDWHA'
  lat: 40.117976
  level: 4
  lon: -88.242642
  name:  'Stevick Building'
- ap: 3661
  img:  'http://lh4.ggpht.com/BakPypxJUdTOMFo4cSzlewsmPlHw3DyQp4kVY2zAFfJvhvj9CnaQm6cqvB22BqjknBbUYxEb_eYnIZ2skgfO'
  lat: 40.11586
  level: 5
  lon: -88.227238
  name:  'Flow'
- ap: 3661
  img:  'http://lh3.ggpht.com/HX3mWBGofQk08Qdp7A6KMK1AnSXlLEPJR-n6oeX69Efiiss29GHsLiDsHhRS5K8DrXh-QXP1T0AMaOsJmx_w'
  lat: 40.106921
  level: 6
  lon: -88.230145
  name:  'University Lutheran Church'
- ap: 3661
  img:  'http://lh4.ggpht.com/9hzMj8KV-HraIucojjHAEgyMZsJAR9TWvNS-QSBB5LTYBOTwwqfTQySJ_Sz88eP3eyFWFYhx5qDVY93t8fk'
  lat: 40.108032
  level: 6
  lon: -88.225702
  name:  'Centennial Court'
- ap: 3661
  img:  'http://lh6.ggpht.com/rnWumKyBYpVW5hCfQDlvRaT_666UPI5lo3k6HGdxWuLVsDbD8c7l-BU1HwhBqiGeCW28iEghSQtvZFzqK4w'
  lat: 40.109013
  level: 5
  lon: -88.22587
  name:  'Understanding Photosynthesis Plaque'
- ap: 3474
  img: http://i.imgur.com/5j1qaiT.png
  lat: 42.099208
  level: '?'
  lon: -90.124409
  name:  '10ed20c191ba41f2adae711e31eefc91.16'
- ap: 3474
  img: http://i.imgur.com/5j1qaiT.png
  lat: 41.812964
  level: '?'
  lon: -89.960782
  name:  '3c1dbc0d09074f82a2a6e59c61662eb6.16'
- ap: 3474
  img: http://i.imgur.com/5j1qaiT.png
  lat: 41.562534
  level: '?'
  lon: -89.650933
  name:  '3a45fd306eda4e65b42f9e07672cd0cf.12'
- ap: 3474
  img: http://i.imgur.com/5j1qaiT.png
  lat: 40.122056
  level: '?'
  lon: -88.645323
  name:  '9e3af3afef824ee6aee179175a7845c4.16'
- ap: 3474
  img: http://i.imgur.com/5j1qaiT.png
  lat: 41.964336
  level: '?'
  lon: -87.633564
  name:  '7fbe13944b5d4af78e982aada5eda453.16'
- ap: 3474
  img: http://i.imgur.com/5j1qaiT.png
  lat: 42.396552
  level: '?'
  lon: -86.283274
  name:  'Kids Corner Park'
- ap: 3474
  img: http://i.imgur.com/5j1qaiT.png
  lat: 39.984882
  level: '?'
  lon: -88.258895
  name:  '0532d10ca76f4f4a899fb08a14bf968f.16'
- ap: 3474
  img: http://i.imgur.com/5j1qaiT.png
  lat: 39.914462
  level: '?'
  lon: -88.27434
  name:  'e6d5eb29ead54497b74dab02ff62f147.12'
- ap: 3474
  img: http://i.imgur.com/5j1qaiT.png
  lat: 39.91465
  level: '?'
  lon: -88.273338
  name:  'd7386e06127b49d6b843c5d81d79fe83.16'
- ap: 3474
  img:  'http://lh5.ggpht.com/tuo_ByFTbwLitFP5cBseOibqRxENxbCwOJ30dCnja5ijBI_qBv5vqNP7ZuZXnxhYM6ms_GbExZEwwKVUtwV2'
  lat: 40.093712
  level: 5
  lon: -88.281583
  name:  'Brownfield Dedication'
- ap: 3474
  img:  'http://lh6.ggpht.com/p2F3xw4xL4UdiMM9aSy628ISSglrvjPexpF3j340tMAP9MX07yh_sJv7kHVkeud8lyFf2ZwDohw3zsRS2PSd'
  lat: 40.093914
  level: 5
  lon: -88.281531
  name:  'Terry M. Warmbier Memorial'
- ap: 3474
  img:  'http://lh6.ggpht.com/Jz3ahY5LQ13wKWLY9SEvexiinJa3GeO1eB_FynplikRpa77swLST6cUAJjPpqKDSq2KU4Dcyui-QBstz_Z3k'
  lat: 40.094624
  level: 5
  lon: -88.282953
  name:  'Greenbelt 2'
- ap: 3474
  img:  'http://lh5.ggpht.com/nWEtxuKQdy0teBBue1DYmG7P3SF5-3A6zlB7GwVHBWlolAZYGq6Br78lWcF9ltFy-KeSlozXie2RmU6JfCUX'
  lat: 40.142673
  level: 5
  lon: -88.244603
  name:  'Italian Statue'
- ap: 3474
  img:  'http://lh4.ggpht.com/PfcTU4XsA06ThtmCWydIWhTsN3gR4jrqnrKxu0O5lhyibhRdKMEaf3jM8VNhViF8qLf13b01E71wr_ajxn0'
  lat: 40.118465
  level: 4
  lon: -88.245077
  name:  'Mural at Nitaya'
- ap: 3474
  img:  'http://lh3.ggpht.com/PKHUaHtGQlwpb8q3mUpPJtjb51_am_ieb_9X0u8g1PI_eg7NxFQU2fqeV8XjnIIDy0rCMtqsfMJLerOBo8M'
  lat: 40.118579
  level: 5
  lon: -88.244588
  name:  'Mural on Art Theatre'
- ap: 3474
  img:  'http://lh5.ggpht.com/dRrlHXlT2nMNgZNHiYo52ha9L-Xay9DyOJR2Cpqs74hgAJ09abn9OTAtMzRVedt1_R9ObZllLO98vRhNMfgTgVsJCk1S-HJwX_XgiGpG4lz3a328'
  lat: 40.11671
  level: 6
  lon: -88.24263
  name:  'Cafe Kopi'
- ap: 3474
  img:  'http://lh4.ggpht.com/7jfpHo9VtrONulGtzUfsP3lI3AsKBnUxCQaLU9xAMpVCQbWD24db4z9Otn0Sfz_OnEXSbdwKUGm3MZBV6QZrhQ'
  lat: 40.117194
  level: 5
  lon: -88.247472
  name:  'Rebecca Mabry Memorial Tree'
- ap: 3474
  img:  'http://lh6.ggpht.com/SCYK-XeMmOyfRrTt1-aQNoDA-2Sib4m5Ch26mTwo6XNdVeVnfi7W74Ik6IRLAPSoKzSS97pgwt50Jl9oSgGfP029USxZzQWKNJo3rbs-6YHBPBif'
  lat: 40.116792
  level: 4
  lon: -88.241752
  name:  'WEFT 90.1 FM Community Radio'
- ap: 3474
  img:  'http://lh3.ggpht.com/XUcV2LF_XKVfRYKLrnubIeaLniLx97X1-q_QbId6nLk55xKp9axvre_97coBT_kZQNIVfkeseaCxJHtHj6iA'
  lat: 40.113924
  level: 6
  lon: -88.245568
  name:  'September 11th Memorial Plaque'
- ap: 3474
  img:  'http://lh4.ggpht.com/ZEK-DXu7TJqsrt7cbLRjXyr3JbENJCn1FaKxH4Oi6kEvo4K0Yzm5qzMddhRLNlXvokAwQoeG4EKaNkXnJDA'
  lat: 40.114015
  level: 2
  lon: -88.245256
  name:  'Firefighters Park'
- ap: 3474
  img:  'http://lh6.ggpht.com/ytlRYKlqnchcFvl3QEN1XknYcwYKIjohz4qzWW8SmhDi5mypBmgPbf9e4ghZWMZY5gpD9HIyalemSKsIzyA'
  lat: 40.11408
  level: 3
  lon: -88.245852
  name:  'Champaign Fire Department'
- ap: 3099
  img:  'http://lh3.ggpht.com/rm0mJKw5ksUEH6_YQLi-f3uo56Wv-4h1P-Q_Ws61holRtnLG9Qt0NObbSBzDxPm3tvIhWgzHLvftIMBC_5dZ'
  lat: 40.118435
  level: 2
  lon: -88.247677
  name:  'Burnham Athenaeum'
- ap: 3099
  img:  'http://lh6.ggpht.com/BKeORacgeVrG8XzxTuXmpq5UxomWpK-I2n7Xy0PVbdSciNx9MJl869TcibnFIiV5PJHGv5R3QOpX6ZgLUwU'
  lat: 40.099706
  level: 2
  lon: -88.250065
  name:  'Lois Barham Memorial Tree'
- ap: 3399
  img:  'http://lh5.ggpht.com/3t7XZHqwxLZ8Lc9YomR8FInm74U2PAA-DBk8kmdxXIrcXbKa1CoBDTlgdDJeO-_yVT3qNKRnNLzbdil1eH41iA'
  lat: 40.09935
  level: 5
  lon: -88.249766
  name:  'Jim Bickel Honorary Plaque'
- ap: 3099
  img:  'http://lh5.ggpht.com/8zq5tMevCiipZK8N9-8SZw3vdsA2HwH0E02ormQshGxHVZrB2WPK7OPC8zt6pjLlgpXVuEYHVA_08_Q8fPw-'
  lat: 40.099647
  level: 2
  lon: -88.249648
  name:  'Max Overmyer Memorial Playground'
- ap: 3474
  img:  'http://lh6.ggpht.com/c2I39IJvSBKmCLonmhP_RN1vLEpYY1recBXFm8xpGHxES4bAN2kvAcda8ZzvT75uq0yWQCv7N_dzP6ce5-Tu'
  lat: 40.108043
  level: 5
  lon: -88.22469
  name:  'Building of Molecular and Cellular Biology Sculpture'
- ap: 3474
  img:  'http://lh3.ggpht.com/1JgqaWx4DIU04ms-XmufSumQ5BDP07SB97-kBjzxDePlLQR9HagCTfqdviW9ErxCqpvXgynqeosQhERhCat6'
  lat: 40.108781
  level: 5
  lon: -88.226388
  name:  'Illinois State Water Survey Plaque'
- ap: 3474
  img:  'http://lh5.ggpht.com/8OgQHnRehZt9nl_igzh_0k19Qp5vRgGVHo2IukHGLeEp0iNTb_YUZRDseHY39JvlTc0ROrDtbmt8SBAEFPOwpA'
  lat: 40.108965
  level: 5
  lon: -88.226465
  name:  'Harker Hall Fountain'
- ap: 3474
  img:  'http://lh4.ggpht.com/S734i_6SihPtJW8WdegLb3gEuKeNx8e1qDm6CXjREzYHohw7XqL82m4EF2K5nS2TixHweLn3EuJ4YoQnrsw'
  lat: 40.107751
  level: 5
  lon: -88.231532
  name:  'Graduate School of Library and Information Science'
- ap: 3474
  img:  'http://lh6.ggpht.com/orpM1lF6sc24rL0AGIiGqg18zTkIPXvZoM2xcA-mKGbaHOESuKbO_RQrwjxW9NTZjG0QqCRU9j2goZUvangFDQ'
  lat: 40.112894
  level: 4
  lon: -88.208433
  name:  'Boulangerie Mural'
- ap: 3474
  img:  'http://lh6.ggpht.com/FsUBggh0M3sjncoth6JaamkCglQtDsuiR89k30B2sMp7srgh0Hz6trgv7BhNRSJA6qI7OvipV8B3XEhzHmaNxA'
  lat: 40.113513
  level: 4
  lon: -88.207559
  name:  'Black Dog Smoke & Ale House'
- ap: 3474
  img:  'http://lh6.ggpht.com/Qfyp6BK43B93Oo5kazv7b-62q_5cx5GKxXPyw6Juss-A6AgPx81B0lyWhzW7Ava9ztLzedt07gEh3ia2PPFDwQ'
  lat: 40.113636
  level: 4
  lon: -88.208146
  name:  'Jolly Roger'
- ap: 3098
  img: http://i.imgur.com/5j1qaiT.png
  lat: 40.312242
  level: '?'
  lon: -88.201368
  name:  '2012 Employee Dedication Bench'
- ap: 2911
  img:  'http://lh4.ggpht.com/tLO2wjyCgyune3KDOlQMV_oiDRxVsHqO1gAG_0xs9TvKOiuWRVmJcO29WI7jELxoxncaXpy91kMa89Uj65JVNw'
  lat: 40.11784
  level: 4
  lon: -88.24286
  name:  'Kaufman Memorial'
- ap: 2911
  img:  'http://lh4.ggpht.com/4rZUtsKLzttseF-bliT_X7wEGP_joarKKLt8DNtp99fViYcqD4TAWTfZ_Ur6oEdBJdT-1JeZl4tnk_sTtgN0'
  lat: 40.116361
  level: 5
  lon: -88.247369
  name:  'Gerry Schriefer Plaque'
- ap: 2911
  img:  'http://lh6.ggpht.com/4K7T7_gGrfag_-Hep7ygH_rklKsjale4oo2CqJAFTpPB5EM4Dv8ZGyz7i_qUOuLnt16GWxDSJWCS8TZYyGY'
  lat: 40.115421
  level: 2
  lon: -88.243168
  name:  'Walnut Street Tea Co.'
- ap: 2911
  img:  'http://lh4.ggpht.com/PHV-1ZpFzCAl_ViCKwBY_x2pIDbVyaT7wJH1sTvFJCxrSdRrO1x7NaXq9OdRGwz_Mls4iwk6wuGHMBArfV54'
  lat: 40.098688
  level: 7
  lon: -88.25063
  name:  '"New Holland Yellow Dinosaurs" at Hessel Park'
- ap: 2724
  img: http://i.imgur.com/5j1qaiT.png
  lat: 40.457257
  level: '?'
  lon: -88.372597
  name:  'ebaa4a5573f7449399263066d9248473.16'
- ap: 2724
  img:  'http://lh3.ggpht.com/I2Up882o0nHzQof3uWaDFK7KQHkYOu1XgKoXUgQotITYJDh--80GzLnOSI8TxKF3RxsF32zcsYmRF8Fiugpt'
  lat: 40.116413
  level: 5
  lon: -88.249814
  name:  'West Side Park'
- ap: 2724
  img:  'http://lh3.ggpht.com/0IkSOblVdAgYOJ2Bk2QqvqWjdstWNQgp7g9oSz1Sq70jG6cLusjwYW76irF9h-c7cafatMcyGsjw85xwYgPQyw'
  lat: 40.118353
  level: 4
  lon: -88.246658
  name:  'First United Methodist Church'
- ap: 2724
  img:  'http://lh6.ggpht.com/nbUJivBo0zF8f8aBbk1GwakUpPbLUVOoEovTTETYwJvfNIHXwG9XUbwoV0x-ly4ZO5Hsyv5KPo3c9cE6Nh8'
  lat: 40.118832
  level: 3
  lon: -88.243643
  name:  'Tesla Ball'
- ap: 2724
  img:  'http://lh5.ggpht.com/nirQKdy3s9r8TSV7cB7_B0l-0EsFXBkg1aitH05R0ttPhOEewGxlq1GRnlDvYFT2V8Z91hWnB9YD3WjxBvyZ'
  lat: 40.11868
  level: 2
  lon: -88.243426
  name:  '"Pointless"'
- ap: 2724
  img:  'http://lh6.ggpht.com/cnBQN3RYcZFSdxYB52bvMYRD2aTSlDG0_cqBQ8coo0ueKTtGxldE0xGjNPF6xlYJtnba8oUyEKwBeYbO8CY5'
  lat: 40.116631
  level: 5
  lon: -88.246951
  name:  'Lyle Blue Memorial'
- ap: 2724
  img:  'http://lh5.ggpht.com/9XV46K2cUd84oc6HPyqlj53LKJS8lVs0f0gPHSCBkkTwiHaxivu36dlAj5M38EzK-2U4xhvZJ7AiVvGM5yk'
  lat: 40.118175
  level: 6
  lon: -88.244562
  name:  'The Russell Building'
- ap: 2424
  img:  'http://lh6.ggpht.com/xQx5BUJcAI_QUroJGe77pPkgV7s_ACVui8PXvCyvmehuDvenmRIvKBGeevOacNR6W3pLMMSh4sVrvXm87QeN2eylsZEtz7pxB-CMvzLmH1WyVZ16uw'
  lat: 40.11786
  level: 3
  lon: -88.248031
  name:  'Lincoln Megalith'
- ap: 2724
  img:  'http://lh5.ggpht.com/4DJAFPeZ_w65Km7VDnsbOqouQaeBuPuxA0KHPQToT_B6o1hBxzdu3kn89UhHgv22Ygj52Fx9QqcbzOytuw'
  lat: 40.100078
  level: 7
  lon: -88.250683
  name:  'Brian Clark Memorial Plaque'
- ap: 2724
  img:  'http://lh3.ggpht.com/161K1avC8teYs8PtJMANd0cBrff72XYRYh2Gjg2_KhkEh6_F6MLd3cfHIXwK8zegd65ISEVxmEoD5THpeY-Q'
  lat: 40.112553
  level: 6
  lon: -88.236253
  name:  'Scott Park North Entrance'
- ap: 2574
  img:  'http://lh4.ggpht.com/1n-hHkU1cTz6dykw37WBVQqctZlzyl9gYgy7IMi1zcMf1t0ry6F1JPnwlvUjq_6YNdolofY_rLbuL_uLQwg'
  lat: 40.112913
  level: 4
  lon: -88.237848
  name:  '2nd St. Basin Ampitheater '
- ap: 2724
  img:  'http://lh4.ggpht.com/7U0YXCB_DIhnqPJyjyLpNn6kg4lU8HvKL87ddBKWq1sptvVLvCEiCuNEnghQtqDGSN2OBNcOUK9nZcYjY4Vr'
  lat: 40.107887
  level: 6
  lon: -88.225998
  name:  'Lifesaving Antibiotic Plaque'
- ap: 2724
  img:  'http://lh3.ggpht.com/I8Cra-oBAq7td_84j0G8l8DIMXhxPP-O8A8xPb1WZb8O2s9DBapV_osKefRuzzDGDhcPRA9WT7yaPBvkGE4g'
  lat: 40.112836
  level: 4
  lon: -88.22802
  name:  '1909 Senior Memorial'
- ap: 2537
  img: http://i.imgur.com/5j1qaiT.png
  lat: 39.605619
  level: '?'
  lon: -88.31975
  name:  '02cea6f58d094c678f3d92dcb81dfc43.16'
- ap: 2537
  img: http://i.imgur.com/5j1qaiT.png
  lat: 40.106513
  level: '?'
  lon: -88.5585
  name:  'Lodge Christian Church'
- ap: 2537
  img: http://i.imgur.com/5j1qaiT.png
  lat: 40.236023
  level: '?'
  lon: -88.64272
  name:  '35252310c13c4ecbae30db6ca0ec8aae.16'
- ap: 2537
  img: http://i.imgur.com/5j1qaiT.png
  lat: 40.75263
  level: '?'
  lon: -87.997967
  name:  'Gilman Amtrak Station'
- ap: 2537
  img: http://i.imgur.com/5j1qaiT.png
  lat: 40.272743
  level: '?'
  lon: -88.675349
  name:  'Adams Leaning Wheel Grader'
- ap: 2537
  img: http://i.imgur.com/5j1qaiT.png
  lat: 40.561018
  level: '?'
  lon: -88.900234
  name:  '2e4c86f3add64206bd90a57bd8fa10af.16'
- ap: 2537
  img: http://i.imgur.com/5j1qaiT.png
  lat: 40.12211
  level: '?'
  lon: -88.646234
  name:  'e2b45c656b534c16be39673202767781.16'
- ap: 2537
  img: http://i.imgur.com/5j1qaiT.png
  lat: 40.743666
  level: '?'
  lon: -88.504875
  name:  '2d719dd62f7e491b860a85095e05d959.16'
- ap: 2537
  img: http://i.imgur.com/5j1qaiT.png
  lat: 39.80624
  level: '?'
  lon: -87.673321
  name:  '5e0bde2eecea47feb72244027e8346ba.16'
- ap: 2537
  img: http://i.imgur.com/5j1qaiT.png
  lat: 40.121757
  level: '?'
  lon: -88.644919
  name:  '093614a73dff4d1c8ada2d7dd35a220d.12'
- ap: 2537
  img: http://i.imgur.com/5j1qaiT.png
  lat: 41.964092
  level: '?'
  lon: -87.633659
  name:  '16dd983c6c30490faf1c45bfd3e1ff1e.16'
- ap: 2537
  img:  'http://lh3.ggpht.com/waYCvQnciDHIQoBYQqAoe2ioBs3DAhMQQsBboKyfNVNSWibmmRTf0SLvaoU5EwCFyWydn7rCCfrLXtLqQfA8'
  lat: 40.135683
  level: 4
  lon: -88.27634
  name:  'Champaign Fire Department'
- ap: 2537
  img:  'http://lh5.ggpht.com/ulBje3DZHcOGkPDTXihNL1tamRAm_GO1CREW8fA5fV0Znq1eF2J1hnbSZh35emEA1h9cL1qTj9FqGtb8VywgXQ'
  lat: 40.13765
  level: 4
  lon: -88.273074
  name:  'Garden Hills Park'
- ap: 2537
  img:  'http://lh6.ggpht.com/tEtHQ3gjXHp940OLn9txVBSOCdT8UfYUs3C29Cgx6HiCLrS3KBboU3Wms2rEVMQWEf7lf67xfK7MIUmimDw'
  lat: 40.116631
  level: 5
  lon: -88.247334
  name:  'Jack C. Richmond Lion''s Club Bench'
- ap: 2537
  img:  'http://lh6.ggpht.com/D-AymiJdf5gt94o_wgUJbOD9Fpl4V7PijJOjkztpP0_J2k82i1TBLDAaqcH_SUTUFe9VlllfQCsXFg_J0uAPeA'
  lat: 40.11569
  level: 2
  lon: -88.243433
  name:  'Christ Community Church'
- ap: 2537
  img:  'http://lh5.ggpht.com/77v6DfPMOKjAUzTfAuqZzYtMmpFMJV7lPr7FgQb_Fa46w1xmepHb0h-0CpG5WZy1b9vd5_DZ0uLxxZw9-DhJ'
  lat: 40.117163
  level: 5
  lon: -88.246602
  name:  'Garden for the Gardener Plaque'
- ap: 2462
  img:  'http://lh4.ggpht.com/kikXgFanbehTzblqLlN2WzEcVgfnP2HD4JE7GI1GOKTu44g13lknkSsdu9prj71y0zKIBFJv_0RIkFW3vXY'
  lat: 40.117574
  level: 5
  lon: -88.247603
  name:  'Travis Marmion Memorial Tree'
- ap: 2537
  img:  'http://lh5.ggpht.com/v26lJtVx6k_bS8UIv0cuwFV2H-bR_kPwjkydaZjqk7BOG1VyLpoQFvuFB7ZmKZpWB_uCHi70HLzZoI4xZgo1'
  lat: 40.116491
  level: 5
  lon: -88.246701
  name:  'Emmanuel Memorial Episcopal Church'
- ap: 2537
  img:  'http://lh3.ggpht.com/-MRGQEVV5mNMzB4sb8JAsgVC56kTzYaFEf3mpRsfXAiO4KIrLw3LGFkt7Au97yDwY-AUSfghHcri53Zpmn-Z4Q'
  lat: 40.11621
  level: 4
  lon: -88.242535
  name:  'Inman Building Historic Plaque'
- ap: 2537
  img:  'http://lh6.ggpht.com/yjfa0jJLjsfLRf9Zn9iafMp3MuIhgCi0WiOCF8GqTGiGvzEnsPGrFa0H1n-uzWhVehLbt44ShthsA32VzHd5iQ'
  lat: 40.099737
  level: 5
  lon: -88.251157
  name:  'Tyler Van Atkins Memorial'
- ap: 2537
  img:  'http://lh5.ggpht.com/jz0XvZSSYKqKSa4lJDK-rludOns_o36jZ8ZTzfEr42piZamiTjSASTLdII6pkxgjZgnCwKirjhEouS77BPB8Dg'
  lat: 40.094288
  level: 6
  lon: -88.248914
  name:  'Boulware Trail'
- ap: 2537
  img:  'http://lh5.ggpht.com/fDRifvVcFT_dKhPuNBN4rR9lNHL0Q6NvbMnGr2-ZdiirR2rJrBcWRi4vyM3-DYNHymUs7bWchaWRaUtBpg'
  lat: 40.098541
  level: 7
  lon: -88.250389
  name:  'Dennis Robert Costello Memorial'
- ap: 2537
  img:  'http://lh3.googleusercontent.com/78s4UE5PKzAAG8LQc8bJPPLK30nagQnB2-jzX2y9vVVAjUMejMsBGSAKck17bjgbH1Lndna45c3l7i6tR3A4'
  lat: 40.112908
  level: 6
  lon: -88.237287
  name:  'Stone Arch Bridge'
- ap: 2312
  img:  'http://lh6.ggpht.com/RW34ntixvJkg7fD71TPYo_4KIsBzA0-a-6yXO0jKPbpGxX5gIGC7kBI-pXEF9OHhuolcAGW2fxyK3Pt42Iev'
  lat: 40.110489
  level: 4
  lon: -88.227412
  name:  'Bus Stop - Illini Union, Westbound'
- ap: 2237
  img:  'http://lh4.ggpht.com/YkAjLbUQwdId1pIn7-0sv7p3fU5sUakSrInODEYBL40IL2O6a6iP0KdmXupzcZMPqJ3arf7sss9irQ7NDzzF'
  lat: 40.110882
  level: 2
  lon: -88.231138
  name:  'Boneyard Greenway'
- ap: 2537
  img:  'http://lh4.ggpht.com/6WTMH3liIIuH6pEvRGZOkUNNR84nR8frjFch6yn_4mbGIokY-MajBCG6jZHWU37a8TBI97rYTBlX-ks8m5XJTw'
  lat: 40.112843
  level: 4
  lon: -88.227657
  name:  'Class of 1904 Flagpole'
- ap: 2537
  img:  'http://lh3.googleusercontent.com/m4BfhR8F_biDdmGv1YgOItIkuAJVJbk8uEG-3oLHTGRyzY6G0nbW_Kaf4gQqQdlj439JNrBoINARSmM_VMZcVQ'
  lat: 40.109336
  level: 5
  lon: -88.208978
  name:  'Korean New Life Church'
- ap: 2162
  img:  'http://lh4.ggpht.com/DppAipH86hwYpla2jOPHj7EKwNlYz4MBLqpUZCiBtWIXGgLhqX--9-pLGy_r9evlKYKOOsPC5AjPJz_ew9Vqhg'
  lat: 40.11077
  level: 2
  lon: -88.211616
  name:  'Sylvia''s Irish Inn'
