- ap: 6659
  img:  'http://lh5.ggpht.com/bxjTJmHRd1_7x6zw7y1Eir0opWUqtbJOdAC4FxDOfOBVdUI1zEVV9wo5FiHzTxqR7hajj-4tQrnSyAe2b8Y'
  lat: 40.113974
  level: 5
  lon: -88.311234
  name:  'WBGL Radio Station Headquarters Plaque'
- ap: 6659
  img:  'http://lh5.ggpht.com/1yq3oFq9p_Yl5cUf5h7IEfZPAbae2MT7lA0DFo1DHwPWPZJJ-Ez-2AE2oTzHEHWsEJQVUcUwh3j_d3kOYgDS'
  lat: 40.110095
  level: 6
  lon: -88.22862
  name:  'Alma Mater Plaza'
- ap: 6472
  img:  'http://lh5.ggpht.com/6W_b3aoHNnxViA4TkycmE5hhV5q_VHfypLNlgG4sAyw2eJ5Meyzi2-vwTA8miyKA5pZApxbfpAa7uc0zlCM'
  lat: 40.134758
  level: 4
  lon: -88.313172
  name:  'Sunset Ridge Prairie '
- ap: 6098
  img:  'http://lh5.ggpht.com/kElaGOaV9aI8SrnM1D65gx9J0Ky1AKrN9Yo-pXVmDhELt2pee4MwVRiCqCmlqWzUWj5pS33GnEzAiXmiWKsw'
  lat: 40.108111
  level: 6
  lon: -88.229625
  name:  'Illini Sports Mural'
- ap: 5909
  img:  'http://lh5.ggpht.com/BK5TjuMzuJgDVPz4C8HRjfZKeaoISnPJ-H7VaYeMNUYmxvvUY7RzIIlR13FjW9HHF_i5-znqs3O6nMxKPfcj'
  lat: 40.102188
  level: 5
  lon: -88.251507
  name:  'Little Free Library Charter 5753'
- ap: 5722
  img:  'http://lh6.ggpht.com/-flzg4lDDrUKk9tz52QmAPy1_59-9KbIO96Br3rNDxK1nmopyzD21z31JQVdJNJHB-Cy6IsEX0VwBbVwvd5r'
  lat: 40.104256
  level: 7
  lon: -88.225268
  name:  'Institute of Genomic Biology Gateway'
- ap: 5535
  img:  'http://lh3.ggpht.com/eFFdc4ogWkS9n6Texp4aw9BhK-M6FRxwvMRH-YkXj7JP7qSRQdo7E0-0O4P7NawgvduxpxgjnbGHbN1BjW2_'
  lat: 40.114585
  level: 6
  lon: -88.311371
  name:  'Joe''s Park'
- ap: 5535
  img:  'http://lh6.ggpht.com/pRR6eCp2PyD3vDZlmHjKOeq8OKg0KhFPVnuWAP-pB7RR36eKA3TlQwYX5pwYfBjPyVyB4oPXXOomdbqpVcY'
  lat: 40.116065
  level: 5
  lon: -88.313206
  name:  'Alan Green Memorial'
- ap: 5535
  img:  'http://lh4.ggpht.com/fYq8Qzd7VmDjN_GIWRjblwSGoKKIaUFJTgmMNsJrfWO6c5cZu8xnJc4kDm35ITLO2ePeYakXEDKubdwi0x1K'
  lat: 40.105179
  level: 6
  lon: -88.226931
  name:  'Astronomy Department Sundial'
- ap: 5310
  img:  'http://lh3.ggpht.com/gS3gT_deXzbDvejCL-5ygs31dw9bLQqYr2nDcLPZiv6nQzahJl12awG1a2pwKbFuoTlsHQYxQ2O7HDXL4-8'
  lat: 40.110358
  level: 2
  lon: -88.230181
  name:  'Murphy''s Pub '
- ap: 5348
  img:  'http://lh4.ggpht.com/S734i_6SihPtJW8WdegLb3gEuKeNx8e1qDm6CXjREzYHohw7XqL82m4EF2K5nS2TixHweLn3EuJ4YoQnrsw'
  lat: 40.107751
  level: 3
  lon: -88.231532
  name:  'Graduate School of Library and Information Science'
- ap: 4972
  img:  'http://lh3.googleusercontent.com/hvoLMUc9UoNVVPttxWTc8PzOWdu5MBmPETnBexH7Alyl20WGCrNa0G_j7DwvD3qbhqpTaeThFhGDV2rCtp8'
  lat: 40.107629
  level: 6
  lon: -88.224484
  name:  'Bucky Balls'
- ap: 4785
  img:  'http://lh3.googleusercontent.com/hJZWoErzM-MuXulq4FlhlZwMbJX1Isd81GBUBVKayd57jVIVxUle3itd-1DRKo2VaNXznWr1X639fa44Etk'
  lat: 40.141919
  level: 7
  lon: -88.244611
  name:  'Marketplace Mall Carousel'
- ap: 4785
  img:  'http://lh3.ggpht.com/rUgM7jkTqL0VHxvsSW0yWuNJF5UrU62ITflghfn4PfKjn6L4WGz0ALkv98fc_q9dmK9SSpU1PXIawGvcRwE'
  lat: 40.098246
  level: 7
  lon: -88.251974
  name:  'Hessel Park'
- ap: 4785
  img:  'http://lh3.ggpht.com/lSr_gDGX9o1BHZX9FUPCKAO2VVQjZ_NwTBaSNhNgjVyJ2p6BnLDByC_vIkhu637-W5nKMW2SShi0gXOlXNqY7A'
  lat: 40.097979
  level: 7
  lon: -88.247785
  name:  'Jarling''s Custard Cup'
- ap: 4785
  img:  'http://lh5.ggpht.com/Lup2et0i5h8oHqtBffIdoyX5uclC2MBn9ZnnKnYPr4RIFSflf9bi78zBHK7QqycA0qgEev9qOk0zU-1o1hg'
  lat: 40.108451
  level: 7
  lon: -88.228733
  name:  'The Centennial Colophon'
- ap: 4598
  img:  'http://lh6.ggpht.com/yYW6Egg1lWn6UqqLzlgqwCQhtbuxiZSW4TmvI1XBPs33OTTJ0oh51XZXOIILxGI2juoO-E_YfG5UHmeb34rSOw'
  lat: 40.109165
  level: 1
  lon: -88.230269
  name:  'John Street Plaque'
- ap: 4411
  img:  'http://lh3.ggpht.com/07XrBN-er6Ecleor0n9RJ4DfGO6B2yn-ZxjI-Uy8Ba46Jtb6cXNVmATPiPiGyk-1jZ4wxa7-EeIWbWUqArCG'
  lat: 40.142554
  level: 6
  lon: -88.243468
  name:  'Dog Heart'
- ap: 4411
  img:  'http://lh6.ggpht.com/d3068_HH4kAsh9kxo297VuXrwXdEYfoWcAyI4E1L1NUJ_ejlCSm3X3-ofVYUFWr_F6qyLbalwQ6Fj_SqGEFM'
  lat: 40.104256
  level: 7
  lon: -88.226519
  name:  'The Morrow Plots'
- ap: 4411
  img:  'http://lh6.ggpht.com/pxaCt7clhIXc1RVGMMJZsmnbEWNWjFYJiUrQMev_SeOmXBothvOzmfnirQ5_W8CMa7hpigqydQhKMa4XFCAi'
  lat: 40.108173
  level: 6
  lon: -88.230209
  name:  'Mural on South Sixth Street'
- ap: 4411
  img:  'http://lh6.ggpht.com/BzDhCANV_iNTHhKFBGLuaUqOvChRZtPWnJ2Xk4h7NsKJHmTGgCWtFHWv2PpDA2fCsHHKSCRTrUNK8AKrLRnS'
  lat: 40.108066
  level: 1
  lon: -88.230687
  name:  'Community United Church of Christ'
- ap: 4411
  img:  'http://lh4.ggpht.com/H1kV6JSczzSbcCblAHg5ZOgITW1mBAz0_oLbqbzxBlijGTBn7TP6KwA6UI0AAGrCN4VF0DAF79Vcj6_2R4dsB8LRTq6tud6v'
  lat: 40.107753
  level: 6
  lon: -88.228913
  name:  'Zipcar-Wright Street & Daniel Street'
- ap: 4411
  img:  'http://lh5.ggpht.com/Ezq3ovJZ5M4i8wxOtoPoHEBF_o5ur2tH3Hdb0QU-JmlxR71RxAS_K5h14xYHSyI2WOF0RuBy_hZZeslYhNNe'
  lat: 40.102329
  level: 5
  lon: -88.221381
  name:  'McKinley Fountain'
- ap: 4411
  img:  'http://lh4.ggpht.com/qRXj_26gyasJAkfT6wSZkP0QYn8-yZkHAYRVxmC-hjk-7pn88goOR99xRnB4SfG-Gq8xh-qbVgQwYmJeT2PrTA'
  lat: 40.103186
  level: 5
  lon: -88.220991
  name:  '"Prairie Fire" Sculpture'
- ap: 4411
  img:  'http://lh6.ggpht.com/SOEkawCv91wHrlqOJdkbN9KzhF3V8Uc1_VE_5V-PUNZhbJ9jXtSHQLjSEP4PGO091UFjUtYxX4Ikg7x6rE0LNawabllL4qbEUfQY-thKMrIXW2E'
  lat: 40.100186
  level: 5
  lon: -88.205286
  name:  'Blair Park Viewing Pavillion'
- ap: 4411
  img:  'http://lh5.ggpht.com/POqHe98NzuBf0a60NvZTCOYoC0L6aw_FSOZMaxr88kV1-papt0D2DM7cRXxDK-_qXTmzSJspa4Zzh9ao7rOaN0iWFYVm5G01GVzh-4gAlR8OFvTH'
  lat: 40.09976
  level: 5
  lon: -88.205422
  name:  'Ann and Ben Schrumpf Memorial'
- ap: 3848
  img: http://i.imgur.com/5j1qaiT.png
  lat: 39.937449
  level: '?'
  lon: -89.67381
  name:  '14ac1a5ebddf4e9d92a1d2fecc4eaba8.16'
- ap: 3848
  img:  'http://lh3.googleusercontent.com/Nj5Ai888qxXriCQAeWkG8SbHbFuOlsYYCL3FjX-pCkblSOg30VuNF9lK9SQj4UDlg9R8XMYXpAcWyE9xIcA'
  lat: 40.135716
  level: 6
  lon: -88.291946
  name:  'Campus Solar System - Jupiter'
- ap: 3848
  img:  'http://lh5.ggpht.com/Q32BPmFRIQYqXI5gLOV9ifHvFlGdyD_yws2172-sHnSZ-StunhCM0Abqd9rBWSaKBWN7RPpa1h-nok4Mc23i'
  lat: 40.101062
  level: 5
  lon: -88.249275
  name:  'Narayan & Shanti Achanta Memorial Plaque'
- ap: 3661
  img: http://i.imgur.com/5j1qaiT.png
  lat: 40.312242
  level: '?'
  lon: -88.201368
  name:  '2012 Employee Dedication Bench'
- ap: 3661
  img:  'http://lh6.ggpht.com/duOeXcOSQLWosdD0JJXg3pWWQp4t5sL0x9qDHoTIBFNOzEW0t53Lt2cnwgV2E_Su0l1ajIQxPtVbbK_sDRaS'
  lat: 40.141775
  level: 5
  lon: -88.242671
  name:  'Marketplace Mall Fountain'
- ap: 3661
  img:  'http://lh4.ggpht.com/B_I1b0Jy3vW41RX8jjCNPP68AULplU0Pf8ddolyKmpEWCfBVShQkmjF1HfTPzDjmBBQGgOs0jHW-rUR0mv8BkA'
  lat: 40.098789
  level: 7
  lon: -88.251685
  name:  'Curtis William McKinney Memorial'
- ap: 3661
  img:  'http://lh6.ggpht.com/rnWumKyBYpVW5hCfQDlvRaT_666UPI5lo3k6HGdxWuLVsDbD8c7l-BU1HwhBqiGeCW28iEghSQtvZFzqK4w'
  lat: 40.109013
  level: 5
  lon: -88.22587
  name:  'Understanding Photosynthesis Plaque'
- ap: 3474
  img: http://i.imgur.com/5j1qaiT.png
  lat: 40.160008
  level: '?'
  lon: -89.387825
  name:  '7bb0a855a0ad476da15c867fae0f4350.16'
- ap: 3474
  img: http://i.imgur.com/5j1qaiT.png
  lat: 40.448264
  level: '?'
  lon: -89.029353
  name:  'Pepper Ridge Park'
- ap: 3474
  img: http://i.imgur.com/5j1qaiT.png
  lat: 40.045869
  level: '?'
  lon: -87.830862
  name:  '45b861ddcb584aa6a77a778bd3b8ee46.12'
- ap: 3474
  img: http://i.imgur.com/5j1qaiT.png
  lat: 40.285989
  level: '?'
  lon: -88.127072
  name:  'Paul Fraser Kent Memorial'
- ap: 3474
  img:  'http://lh5.ggpht.com/nWEtxuKQdy0teBBue1DYmG7P3SF5-3A6zlB7GwVHBWlolAZYGq6Br78lWcF9ltFy-KeSlozXie2RmU6JfCUX'
  lat: 40.142673
  level: 6
  lon: -88.244603
  name:  'Italian Statue'
- ap: 3474
  img:  'http://lh3.googleusercontent.com/vJ_iyOb44eFzOJUNpRouOPDI8rKgOESn7TWw9U9BR3OcWsb6Oak-SSfVH4iPPmtXJdk30rqet1D0KxVohiBC'
  lat: 40.114712
  level: 6
  lon: -88.238392
  name:  'Mexico Mural'
- ap: 3474
  img:  'http://lh5.ggpht.com/0m1i3CJSj3bKhLj5BgXi8SFpgoihNsBoN6fpccgDU2tjtPcA5BqB1IxvR0yAX9FWkgt3_Q8gbAyGfdJDliGP'
  lat: 40.115142
  level: 6
  lon: -88.238658
  name:  'First Street Antiques'
- ap: 3474
  img:  'http://lh3.ggpht.com/-xag7tp3BReTAhfRmVAvpMw1Af15prESg4rve7QnsiIC5IKmKjBszxDIj8F212BmRU1apH_2u_9wAmq58_91'
  lat: 40.114157
  level: 5
  lon: -88.238621
  name:  'Bombay Indian Grill'
- ap: 3474
  img:  'http://lh5.ggpht.com/k_9eqZVvGcr3ZNyeeSNDM1-Y7od35KmnQQptB9usrdpTdpGW2c_5-12rYy9hGazdx7qhlYrEXxaJ_ZIVFywlcA'
  lat: 40.106706
  level: 5
  lon: -88.232116
  name:  'Illini Tower'
- ap: 3399
  img:  'http://lh4.ggpht.com/YCJnxuMsSs6lLn7vcBFVH6H2GT4I6LBrYLND5MlgY0qXgcTqxN7kKceFSMO3J8URkRBQyXOMtgosb78QK3iA'
  lat: 40.104011
  level: 6
  lon: -88.223687
  name:  'ERML'
- ap: 3474
  img:  'http://lh5.ggpht.com/3RfiPeOzF67ubNX-vkwUJ6-EYld6BKuoBernq0_9kOjlIsSPr3saR9FIQzN7uiw7ouF0CpNflOnL0mUj9zbqdQ'
  lat: 40.109452
  level: 6
  lon: -88.229031
  name:  'Illini Hall'
- ap: 3474
  img:  'http://lh5.ggpht.com/Zoidr1eUAO2UEM6SyifBpkC3K42Ctl355Krd3S2ZU3BbbIMt1XFKF4C35huJT7a-K1PMF6JCK3ztTnr2Wbc9zw'
  lat: 40.109178
  level: 4
  lon: -88.22945
  name:  'Pineapple Pillar'
- ap: 3474
  img:  'http://lh4.ggpht.com/j8joGoDXiT8G5MyyFw23RcsYV5nW1rGWTXw-1LPdy1zgRVuKUlM2poC1GcTVA3NV1F_20cCRgX4G6jx_HYc'
  lat: 40.103488
  level: 5
  lon: -88.22119
  name:  'Red Oak Rain Garden'
- ap: 3099
  img:  'http://lh6.ggpht.com/453A5_wF0LdRJVZ1XnGIiUxghQgaxxiiv105HgvefLvU1eXqU6MLfIs0sLt0LGyVMugGuMvm0AKXq91t2sxZGEV2kNlMux2B3vOeFxvmUX2SQLUm'
  lat: 40.100927
  level: 1
  lon: -88.220124
  name:  'Illini Grove Shelter House'
- ap: 3474
  img:  'http://lh5.ggpht.com/_7T_9npLcYDGVQxXhXrsFORj35gQQEYqiUxwW949h0mVOq-jNHvpY7g9JscyWOIX-Km5HQ4RLRKtUI2nR7Nw'
  lat: 40.099589
  level: 5
  lon: -88.205137
  name:  'Blair Park'
- ap: 3474
  img:  'http://lh4.ggpht.com/m41WytddHvUQZQvwN8vv-Mf6LHne1_3LkN4y39ZCxrwY2v0-Q7lDbE63wlDSkhpMjG7OxDM0LO5Sh9DNyjo4lbZBu-mAykPo3qPOd6orSfwlfucL'
  lat: 40.099946
  level: 5
  lon: -88.205936
  name:  'Blair Park Center Stone'
- ap: 2911
  img:  'http://lh3.ggpht.com/2bCNiD7SWsS3uzFLMO2cZh-LpHUEMQGnfTmcNx5vJapXho2TuXke630-7zop2Sq4fuY8nWVqy4VCG23mvnIJ'
  lat: 40.104168
  level: 7
  lon: -88.238808
  name:  'Alpha Gamma Rho'
- ap: 2724
  img:  'http://lh5.ggpht.com/BoAN9OSCH5u7G1sestzZaXjjik82i-SteF6-r5KTTyl530q9H5G3ibjJdqpGGY-nL8MypRXn2twwvn_y5nMmug'
  lat: 40.133159
  level: 7
  lon: -88.28778
  name:  'Campus Solar System - Saturn'
- ap: 2724
  img:  'http://lh4.ggpht.com/eFO1Un8Ok94pb7zpQzu1gaszKnoOPV7PujLsj3Nvvw9YX3VRly6XdazsGI8YuEDSZLGkX8PJn6lam3m0GTQ'
  lat: 40.099979
  level: 5
  lon: -88.220461
  name:  'Barbecue Mural'
- ap: 2724
  img:  'http://lh3.ggpht.com/auODcSEEyS_cmdCKFpepPDD0gW_kEaFOoOpOfD8jnhCfcVh_700SftAr3yhsnLkr63Ac_MetCRRjp36GkKw'
  lat: 40.096302
  level: 2
  lon: -88.183872
  name:  'Karl B Lohmann Honorary Plaque'
- ap: 2537
  img: http://i.imgur.com/5j1qaiT.png
  lat: 41.292103
  level: '?'
  lon: -90.296861
  name:  '89cc1b95492e49a79ab539f8b87e6024.16'
- ap: 2537
  img: http://i.imgur.com/5j1qaiT.png
  lat: 41.047128
  level: '?'
  lon: -87.450722
  name:  '6f6cf36b7db640959e557d499630fb6a.16'
- ap: 2537
  img: http://i.imgur.com/5j1qaiT.png
  lat: 41.002077
  level: '?'
  lon: -88.528776
  name:  '1d8c351621694c8a9252d4b9c27b9ead.16'
- ap: 2537
  img: http://i.imgur.com/5j1qaiT.png
  lat: 41.302131
  level: '?'
  lon: -88.159032
  name:  '31c62e30ca694e1ea8c745fb3d5887e2.16'
- ap: 2537
  img: http://i.imgur.com/5j1qaiT.png
  lat: 41.315857
  level: '?'
  lon: -89.011326
  name:  '6949e0fbd5ef491194b8b2f03e3a73d4.16'
- ap: 2537
  img: http://i.imgur.com/5j1qaiT.png
  lat: 40.084513
  level: '?'
  lon: -88.534663
  name:  'Ross And Hughes Cemetary'
- ap: 2537
  img: http://i.imgur.com/5j1qaiT.png
  lat: 41.156624
  level: '?'
  lon: -88.652708
  name:  '4538577824a247e0bbfca4392d741846.12'
- ap: 2537
  img:  'http://lh6.ggpht.com/v2m1E6vVK4ZRaRPhGli7jCsG7xZQZ7I3vV_5AogdEpPU_A1vz9WEkH0vZ-vau2IAdmydYJcXrOA6SMr7vUfT'
  lat: 40.128726
  level: 2
  lon: -88.290287
  name:  'McMillen Ehler Homestead'
- ap: 2537
  img:  'http://lh4.ggpht.com/gDYX09ZFI6Jya_d8cBX7Kg8OgMkVexBWJLWt1ceC8s0aizrm_ehDYtMwFiwAqpetr9_VsiAJZLFkAYWm_oMt4Q'
  lat: 40.128229
  level: 3
  lon: -88.290607
  name:  'In Memory of Lou Henson Jr.'
- ap: 2537
  img:  'http://lh6.ggpht.com/f3cOUn1gqLkJZQzs4-Y9j6j2ZXbb1Kmzf3klCFzF8zmFSlZZ-B6O4-5t1KIX95jbYUjeqMgOohEf1ilF75Uqyw'
  lat: 40.132777
  level: 7
  lon: -88.287351
  name:  'Parkland College Prairie Restoration Reserve'
- ap: 2537
  img:  'http://lh5.ggpht.com/tuo_ByFTbwLitFP5cBseOibqRxENxbCwOJ30dCnja5ijBI_qBv5vqNP7ZuZXnxhYM6ms_GbExZEwwKVUtwV2'
  lat: 40.093712
  level: 5
  lon: -88.281583
  name:  'Brownfield Dedication'
- ap: 2537
  img:  'http://lh6.ggpht.com/p2F3xw4xL4UdiMM9aSy628ISSglrvjPexpF3j340tMAP9MX07yh_sJv7kHVkeud8lyFf2ZwDohw3zsRS2PSd'
  lat: 40.093914
  level: 5
  lon: -88.281531
  name:  'Terry M. Warmbier Memorial'
- ap: 2462
  img:  'http://lh3.ggpht.com/B-DCwAuVrQ-sgdwJ4ijxC3x7udgmvCTNKoySnJfvuGCuS_k159pz1MpgSSPYltw-WgQXdvchHlAYX6rU8lY'
  lat: 40.12867
  level: 4
  lon: -88.242208
  name:  'Power House Church'
- ap: 2537
  img:  'http://lh3.ggpht.com/nEmxwddo6XwjpSBtzzXHCx_v9wYD5ITuVRx4VF0emrxiLFZGpsBb4HkcXFS4BAR3ZhrmD8t2YDKEWF7NGxV7'
  lat: 40.099595
  level: 5
  lon: -88.206642
  name:  'Blair Park Shuffle Board Courts'
- ap: 2537
  img:  'http://lh6.ggpht.com/YVbqGVTjJuDMDdj71CP2mWvnUIdgO25PgoDdJwEGnEE_M9I1aDgKyjSr9JOZVU6UQTZQtfUo9RAWyz92n3jtCQ'
  lat: 40.098475
  level: 1
  lon: -88.249208
  name:  'In Fond Memory of William Moore Jr'
- ap: 2537
  img:  'http://lh6.ggpht.com/y10QgRCNt0Bsefqp3olKgJp98whQkS0-vWqPskj3421hcSq96BG-b_KROqsO1mBEcNiYtAKhXuXG0EV0eaUW'
  lat: 40.107152
  level: 6
  lon: -88.235244
  name:  'Bromley Hall'
- ap: 2537
  img:  'http://lh3.googleusercontent.com/enpZZ8JRREFPTvYd3jbeUlpS-mmcwKe5fsvoWRPkfMUj6PijyI-5tbR55UItBoNJAFSl9fAAOvXb6BpWCJT4'
  lat: 40.102495
  level: 6
  lon: -88.242132
  name:  'Nuclear Physics Lab'
- ap: 2537
  img:  'http://lh5.ggpht.com/aeGh3iXJqJ7skg-2JHEpngMSfcp1qDIEPoLMxzQNqbS5Y7HcxN7oE789bXiVFoFIcdCn7-3AhLPtxT_WE2E'
  lat: 40.0985
  level: 1
  lon: -88.248681
  name:  'Siti Sculpture'
- ap: 2537
  img:  'http://lh6.ggpht.com/yUOWOqDbf6AO83PFdgc9HePIDDDb-Ti1NAzLec_4AwYrO5NsnWsGH7K7MDb5q22wdtUh6uqekxpMHYjlnfRLEQ'
  lat: 40.104673
  level: 5
  lon: -88.233278
  name:  'University of Illinois Armory'
- ap: 2537
  img:  'http://lh3.ggpht.com/F-cwL1kpN8KTxTiRAdaaAFictKYDbMRhPltdDuO0_6jhG8_6fxg1_yHzy1kBs1WXPRZ8UQDrxqY1fCdmHXFU'
  lat: 40.108042
  level: 5
  lon: -88.22808
  name:  'Earl W Porter Memorial Tree'
- ap: 2537
  img:  'http://lh5.ggpht.com/szWXjFVU67N6nJHeZbrcsC2b8J7kXF7nBh_RooZZ5-ezcJsxWUvA7NZrGjJxfwTzVkc2HYMYLwh19UaYEbm3-Vmu4ZAG8959ZOG44cpeeyoUHtkD'
  lat: 40.108422
  level: 5
  lon: -88.227811
  name:  'Henry Administration Building'
- ap: 2537
  img:  'http://lh5.ggpht.com/2PB1u3cNuASfw9D_MIUzI1JvNofebK7zsuGqKoUApr-nUWYZ8y5CzxH6g7CdcY7ShBaVGrBrurkbwrdUPD7JBk55TH0Ouao5b_g2jUI1saBNUE8'
  lat: 40.106744
  level: 5
  lon: -88.225347
  name:  'The Red Herring Vegetarian'
- ap: 2312
  img:  'http://lh6.ggpht.com/uuDZEurp-UqLKU1BShf2vQxSG1vwpk-MDBizyO6dIijDD3nTavBfEGfQ4lPiXtDc-2867s28mDJ0ko7kvC3sxQ'
  lat: 40.100485
  level: 3
  lon: -88.219408
  name:  'Pennsylvania Avenue Residence Halls'
- ap: 2537
  img:  'http://lh4.ggpht.com/QaEETB-72_R_PXiJ2rTrNTf6R38GNDpwmzGIfbX-rkir8KsH3Nov2DZTVj2AVqnvDfMl6QC77gSMVWxAw8rQ'
  lat: 40.095923
  level: 2
  lon: -88.184083
  name:  'Lohmann Park Disc Golf Course'
- ap: 2537
  img:  'http://lh4.ggpht.com/pM54bxajiElAHvpOxTra6n3p9_Fy3FZDVv1HZu94ulaDSBKkvE5xOjxuEfC__ooPEItS_J5fqoI2Cw7BdPYn'
  lat: 40.09623
  level: 2
  lon: -88.184865
  name:  'Lohmann Park'
