- ap: 12842
  img:  'http://lh4.ggpht.com/mlUN5QXAR7rKFvUg7yhxcae3udkR7zCJVaWt5sq_YA47piV6tRi42RNN9fEtT_FafT7lhqg26WM1VETbz5E'
  lat: 40.098239
  level: 7
  lon: -88.25376
  name:  'Hessel Park Christian Reformed Church'
- ap: 12470
  img:  'http://lh6.ggpht.com/YdeB0EKlsopL39a9YXWj4JBZgXNNLWHgfe4PQzdpWCNWc0fR1YTj8WjARDHnmrusvKWTqKLcGg8U9frhtsw'
  lat: 40.09821
  level: 8
  lon: -88.249879
  name:  'Hessel Park'
- ap: 11533
  img:  'http://lh5.ggpht.com/q-mJ2EvrjGn2PfbBh3Pl3XIGUyzTqxGjZmTMhn3k9_2Qi0S2hs3k2ZvpKb4kvt60AXHiyQdxqft5ZecPcg7x'
  lat: 40.098959
  level: 8
  lon: -88.250141
  name:  'Bob and Wilma Tinkham'
- ap: 10783
  img:  'http://lh3.ggpht.com/rUgM7jkTqL0VHxvsSW0yWuNJF5UrU62ITflghfn4PfKjn6L4WGz0ALkv98fc_q9dmK9SSpU1PXIawGvcRwE'
  lat: 40.098246
  level: 8
  lon: -88.251974
  name:  'Hessel Park'
- ap: 10596
  img:  'http://lh6.ggpht.com/yjfa0jJLjsfLRf9Zn9iafMp3MuIhgCi0WiOCF8GqTGiGvzEnsPGrFa0H1n-uzWhVehLbt44ShthsA32VzHd5iQ'
  lat: 40.099737
  level: 8
  lon: -88.251157
  name:  'Tyler Van Atkins Memorial'
- ap: 9846
  img:  'http://lh5.ggpht.com/N1cFx79JwZqPlYPDW3HkNwRX8N4Auriii45qzYkAx9l-cKeK81qgZ6nuBpTBEIOyLzy4aIIhQKt2E7ZiysSjkg'
  lat: 40.10036
  level: 8
  lon: -88.250515
  name:  'Mark Foutch Pavilion'
- ap: 9846
  img:  'http://lh3.ggpht.com/lzCSS0_tjwUV7JQ2fgLI0e05IrzPxlVUs-6aEPOwUv67IanQJSTi71gkw0SGm8asmoE_r3Xoh048Fd9xRpE'
  lat: 40.099169
  level: 8
  lon: -88.251419
  name:  'Lyman Larson Memorial'
- ap: 9470
  img:  'http://lh3.ggpht.com/HX3mWBGofQk08Qdp7A6KMK1AnSXlLEPJR-n6oeX69Efiiss29GHsLiDsHhRS5K8DrXh-QXP1T0AMaOsJmx_w'
  lat: 40.106921
  level: 7
  lon: -88.230145
  name:  'University Lutheran Church'
- ap: 9283
  img:  'http://lh5.ggpht.com/tfAfnmo6mSMc6U0P533NMFJRGwn6lasmx-MLR2JJg1QOizMKkghFU8E7hb2zgYgdQEbgnCJUlvZIMdrrJe4'
  lat: 40.100822
  level: 8
  lon: -88.25193
  name:  'Seeds of Kindness Bench'
- ap: 8909
  img:  'http://lh5.ggpht.com/T0WLAJf0s4nu2Phxax31eu6pO6zNoA4JpvHMLyfMKttzJALEWB8EAWOziQwgjdWE3YjBbG1XjGYsgihqCSX9'
  lat: 40.100414
  level: 8
  lon: -88.249061
  name:  'Randy William Auteberry Memorial'
- ap: 8909
  img:  'http://lh6.ggpht.com/5CDidk0pqfUtSW_Yqouuf3diX8drdMu9DoT728QpSz8q6A-WxNhT0yLcgM_7gGpyIAeXrHiTkIzzaVJFgnN9WA'
  lat: 40.099852
  level: 8
  lon: -88.251947
  name:  'Our Friend Tim Palmer'
- ap: 8909
  img:  'http://lh6.ggpht.com/BKeORacgeVrG8XzxTuXmpq5UxomWpK-I2n7Xy0PVbdSciNx9MJl869TcibnFIiV5PJHGv5R3QOpX6ZgLUwU'
  lat: 40.099706
  level: 8
  lon: -88.250065
  name:  'Lois Barham Memorial Tree'
- ap: 8909
  img:  'http://lh5.ggpht.com/aeGh3iXJqJ7skg-2JHEpngMSfcp1qDIEPoLMxzQNqbS5Y7HcxN7oE789bXiVFoFIcdCn7-3AhLPtxT_WE2E'
  lat: 40.0985
  level: 8
  lon: -88.248681
  name:  'Siti Sculpture'
- ap: 8909
  img:  'http://lh5.ggpht.com/DFa-Mh8ldMlU5wGTYmJIGYKPoSYUfYebRpnom9j15NFNRkwMdU5kDME0GYQUyA_LXnsNi9Jka-xidd302s93'
  lat: 40.099056
  level: 8
  lon: -88.249136
  name:  '"Cricket" and Bob Barger Memorial'
- ap: 8722
  img:  'http://lh6.ggpht.com/btym2_WGYuFNu2SNiR8qif7GXLMOPT7XpuHE7RPOipPC9Q5lEPfImKAzf2vm9RUe2rN0u3TePq4pM0IuZiLS'
  lat: 40.116436
  level: 5
  lon: -88.243459
  name:  'Champaign City Building'
- ap: 7972
  img:  'http://lh5.ggpht.com/C6wRSaEWO1NYGY5luyYZKHG3Z3aib4aflaPdV7B9G6N6adE890g3QuPRSvCUhsdFHqjoVUjo27mfz9WsjXyuhQ'
  lat: 40.100521
  level: 8
  lon: -88.250864
  name:  'Gabriel Patrick Maxeiner Memorial'
- ap: 7972
  img:  'http://lh3.ggpht.com/VLipBehsKPCp8ewQnBV1ZCz7uE75zcY46iGDyFfFHgX1o55t3DONb3wcBcL5RMYSqABRK0TgIW3DluNy8y6WaA'
  lat: 40.101131
  level: 7
  lon: -88.250539
  name:  'Hessel Park'
- ap: 7972
  img:  'http://lh5.ggpht.com/-UWK84I78Sftf7yg-E2pg6xEAWTvyiThgJBJlxbqOZPYKNmzQ8uGgEEMetzplrG1HpXG5kQqNItUeXKxOHDsGA'
  lat: 40.100286
  level: 8
  lon: -88.251747
  name:  'Tennis Anyone'
- ap: 7972
  img:  'http://lh4.ggpht.com/vKgqIecJshMQxrhO-ZhMjcIyARuJdyU63wKfzAG0wouZex6LVzO46Qi5zM1N3Jx8xyantDFk9sQGsSEBhb-y'
  lat: 40.101327
  level: 7
  lon: -88.251412
  name:  'Zeus Memorial'
- ap: 7972
  img:  'http://lh5.ggpht.com/CRkkFx_9jq2hCt1HtflqZDqCdmSG5MN88FV0rLXk1PZm7maZWzLTKZhjqlSKUx1Tg0tSB62l75w2VFsyUZI'
  lat: 40.09991
  level: 8
  lon: -88.249899
  name:  'Benjamin Biddle Memorial Plaque'
- ap: 7972
  img:  'http://lh6.ggpht.com/qSCp5fQMlyCQ-GOAgiSFy5gaHJei705Pa3eOlJiYO5wGjZTYtjA8q7QWWfAWcLKjxZSaFiMfXOPR8SO7rWU'
  lat: 40.099353
  level: 8
  lon: -88.251876
  name:  'Raymond B. Cattell Memorial'
- ap: 7972
  img:  'http://lh3.ggpht.com/KzADjdPRAvwycpfTBdAeDwFJ0AxZJG2dPmbPWkXq55QLV9PfpJ_-DsXWIlVgsISUApRdJ5cAxRWx0k0W2hI'
  lat: 40.09979
  level: 8
  lon: -88.249107
  name:  'Jerome Cook Memorial'
- ap: 7970
  img:  'http://lh5.ggpht.com/BK5TjuMzuJgDVPz4C8HRjfZKeaoISnPJ-H7VaYeMNUYmxvvUY7RzIIlR13FjW9HHF_i5-znqs3O6nMxKPfcj'
  lat: 40.102188
  level: 6
  lon: -88.251507
  name:  'Little Free Library Charter 5753'
- ap: 7785
  img:  'http://lh4.ggpht.com/PHV-1ZpFzCAl_ViCKwBY_x2pIDbVyaT7wJH1sTvFJCxrSdRrO1x7NaXq9OdRGwz_Mls4iwk6wuGHMBArfV54'
  lat: 40.098688
  level: 8
  lon: -88.25063
  name:  '"New Holland Yellow Dinosaurs" at Hessel Park'
- ap: 7785
  img:  'http://lh5.ggpht.com/uP38yDCg4dPRI1F0r0ALGArEc8Q9eoRuaxkfxZTafZZr9tMcbLUZek1hZRbLUxHJVGPcLSf_JKbotbTBeR7nfA'
  lat: 40.107226
  level: 7
  lon: -88.22858
  name:  'Class of 1897 Tree'
- ap: 7409
  img:  'http://lh5.ggpht.com/kElaGOaV9aI8SrnM1D65gx9J0Ky1AKrN9Yo-pXVmDhELt2pee4MwVRiCqCmlqWzUWj5pS33GnEzAiXmiWKsw'
  lat: 40.108111
  level: 6
  lon: -88.229625
  name:  'Illini Sports Mural'
- ap: 7222
  img:  'http://lh5.ggpht.com/Q32BPmFRIQYqXI5gLOV9ifHvFlGdyD_yws2172-sHnSZ-StunhCM0Abqd9rBWSaKBWN7RPpa1h-nok4Mc23i'
  lat: 40.101062
  level: 8
  lon: -88.249275
  name:  'Narayan & Shanti Achanta Memorial Plaque'
- ap: 7222
  img:  'http://lh5.ggpht.com/k_9eqZVvGcr3ZNyeeSNDM1-Y7od35KmnQQptB9usrdpTdpGW2c_5-12rYy9hGazdx7qhlYrEXxaJ_ZIVFywlcA'
  lat: 40.106706
  level: 7
  lon: -88.232116
  name:  'Illini Tower'
- ap: 7035
  img:  'http://lh6.ggpht.com/S7Utf4_59vQkAP5JhC3mdbzVLKBTt-0zoJ2UjfxUnN10VBbixO-_VwvssWd1LbFSx_yafaijd_U0wTGo870'
  lat: 40.100941
  level: 7
  lon: -88.251314
  name:  'Gabriel Patrick Maxeiner Memorial Plaque'
- ap: 7035
  img:  'http://lh3.ggpht.com/G1CvGhpethi5UmprDWxZN9rTblHa3anSsQz1UPgJtkREkfN7lDFoxFObst0609Cg5mofuZxJKr0ddNKhY4VL'
  lat: 40.098464
  level: 8
  lon: -88.251426
  name:  'Ruth Haasis Memorial'
- ap: 7035
  img:  'http://lh3.ggpht.com/J_h4tdb4wqy8bmmQfDuy5yqTR2IlkzKojfvsMOvlD-3tf1pKxbDlhA6W9Q8RX-JaSxhItMr4bmCxiUQXTLbz'
  lat: 40.10064
  level: 8
  lon: -88.24958
  name:  'Edward A. Cousins Plaque'
- ap: 7035
  img:  'http://lh3.ggpht.com/sisvfsphxy7AK_2qrrqb7lNJk3_7ciHSVJyodINYITBc-UqugyNOooCxKupgJKEg5m_x95eZwouSO2WCmN60ew'
  lat: 40.098579
  level: 8
  lon: -88.249603
  name:  'Chef Ra Memorial Plaque'
- ap: 7035
  img:  'http://lh5.ggpht.com/HhVreJipNvxPRVFpmsh2BPo9PcpPO2Q2l3jCpDjIKgfKGycoTNPXR4DKiYccBXW4X-4dJf_vV0ESsWAWHcChsg'
  lat: 40.100936
  level: 7
  lon: -88.250855
  name:  'Donald F. Bresnan Memorial'
- ap: 7035
  img:  'http://lh5.ggpht.com/8zq5tMevCiipZK8N9-8SZw3vdsA2HwH0E02ormQshGxHVZrB2WPK7OPC8zt6pjLlgpXVuEYHVA_08_Q8fPw-'
  lat: 40.099647
  level: 8
  lon: -88.249648
  name:  'Max Overmyer Memorial Playground'
- ap: 7035
  img:  'http://lh6.ggpht.com/3o0ObAARFV_8mBVCC_QD0iLOPVzNkakXybhLnSVEuXIJfDLKMxeYj-EkWIw9NPoZIVRf5Dkrid2yf_NEQ-iE'
  lat: 40.100347
  level: 8
  lon: -88.249385
  name:  'Travis Marmion Memorial'
- ap: 7035
  img:  'http://lh6.ggpht.com/n0f7lyo15OzZn5IJHsohIGAA58iioentPZGEY4zeMZCCoX4GjEEkqfaTCIbrx9OnezriThnbFV14kYcwKTgL1g'
  lat: 40.098444
  level: 7
  lon: -88.248167
  name:  'Healthcare Not War Mural'
- ap: 7035
  img:  'http://lh5.ggpht.com/4DJAFPeZ_w65Km7VDnsbOqouQaeBuPuxA0KHPQToT_B6o1hBxzdu3kn89UhHgv22Ygj52Fx9QqcbzOytuw'
  lat: 40.100078
  level: 8
  lon: -88.250683
  name:  'Brian Clark Memorial Plaque'
- ap: 7035
  img:  'http://lh4.ggpht.com/7U0YXCB_DIhnqPJyjyLpNn6kg4lU8HvKL87ddBKWq1sptvVLvCEiCuNEnghQtqDGSN2OBNcOUK9nZcYjY4Vr'
  lat: 40.107887
  level: 5
  lon: -88.225998
  name:  'Lifesaving Antibiotic Plaque'
- ap: 7033
  img:  'http://lh4.ggpht.com/aXG2XQNJXyPDBz0o8tyfv07VIfskZuFMOWW2ylZpZKkWMnFjoiBmBiWg2VedsjdIorpfX5mtUGnwVLFb7Ga6'
  lat: 40.091438
  level: 7
  lon: -88.25077
  name:  'Fox Development Corporation'
- ap: 6659
  img:  'http://lh5.ggpht.com/Lup2et0i5h8oHqtBffIdoyX5uclC2MBn9ZnnKnYPr4RIFSflf9bi78zBHK7QqycA0qgEev9qOk0zU-1o1hg'
  lat: 40.108451
  level: 8
  lon: -88.228733
  name:  'The Centennial Colophon'
- ap: 6659
  img:  'http://lh3.ggpht.com/F-cwL1kpN8KTxTiRAdaaAFictKYDbMRhPltdDuO0_6jhG8_6fxg1_yHzy1kBs1WXPRZ8UQDrxqY1fCdmHXFU'
  lat: 40.108042
  level: 5
  lon: -88.22808
  name:  'Earl W Porter Memorial Tree'
- ap: 6659
  img:  'http://lh6.ggpht.com/BzDhCANV_iNTHhKFBGLuaUqOvChRZtPWnJ2Xk4h7NsKJHmTGgCWtFHWv2PpDA2fCsHHKSCRTrUNK8AKrLRnS'
  lat: 40.108066
  level: 6
  lon: -88.230687
  name:  'Community United Church of Christ'
- ap: 6472
  img:  'http://lh6.ggpht.com/nRwew4OU3JNWRI1-xCyuN1xwDabajLFDuSlOZ-_M8BwJELli4V8o30JI0UyF6Kpc4gfDGdh10kJ6mD6ggMo'
  lat: 40.108561
  level: 5
  lon: -88.250039
  name:  'Harris Park'
- ap: 6472
  img:  'http://lh3.ggpht.com/lSr_gDGX9o1BHZX9FUPCKAO2VVQjZ_NwTBaSNhNgjVyJ2p6BnLDByC_vIkhu637-W5nKMW2SShi0gXOlXNqY7A'
  lat: 40.097979
  level: 6
  lon: -88.247785
  name:  'Jarling''s Custard Cup'
- ap: 6472
  img:  'http://lh6.ggpht.com/pxaCt7clhIXc1RVGMMJZsmnbEWNWjFYJiUrQMev_SeOmXBothvOzmfnirQ5_W8CMa7hpigqydQhKMa4XFCAi'
  lat: 40.108173
  level: 6
  lon: -88.230209
  name:  'Mural on South Sixth Street'
- ap: 6472
  img:  'http://lh3.ggpht.com/o6_RpCgHFDA4MceKnIqFkksRYWZkhEKsAZE3VNGl5iS5zkkQWJdBKOY-gNca5iB37jbgnoYsbc1ROtZ-bQhJIw'
  lat: 40.108833
  level: 5
  lon: -88.228125
  name:  'Class of 1902 Memorial'
- ap: 6098
  img:  'http://lh6.ggpht.com/cZVUlNaHjfsB6Lu5hnj8JjUk4lvsgOV7DFz4Nl47-RaQObW1VPRpos6hTDD6WgYrNxCh9UKfn5DFU-K7lRe9pQ'
  lat: 40.1164
  level: 5
  lon: -88.242747
  name:  'Sidewalk Art'
- ap: 6098
  img:  'http://lh5.ggpht.com/KuDVZqnpBQnne0a_UqpN4wpsQFlw3nVXAWtRKP_AdZ3CjQ0MHUBgU_2hE8hb71h31FTQbduYmB6DNuVKA0s'
  lat: 40.116822
  level: 6
  lon: -88.243445
  name:  'Remembering Horeb'
- ap: 6098
  img:  'http://lh3.ggpht.com/8FqlniFErK7cq59awiT84u8KyV4FIRd5krZzfYa58zJToFps7whdBnriPqvO_kFKeLUE3SWbJhCOPuvUQzaGFA'
  lat: 40.100691
  level: 7
  lon: -88.251337
  name:  'In Loving Memory of Zeus'
- ap: 6098
  img:  'http://lh3.ggpht.com/GXyi2ghi2DR3h7uIHNYiEZPYixRhDo7LO0WHQ0PyEzb-150r7ar7JGeVjUoPuObC-GFWf22UWqnYCMtED0M-'
  lat: 40.100341
  level: 8
  lon: -88.249937
  name:  'Alice Marie Weber Plaque'
- ap: 6098
  img:  'http://lh3.ggpht.com/VrbXGwlUosNLEkVdshWUFoVa3KtlJQoEU4yLYygvftYbPCmxo644Uvar_v8Kb9RS53hB0tXgvV44GotrxZyu'
  lat: 40.098592
  level: 8
  lon: -88.251676
  name:  'Ruth and Fred Steigmann Plaque'
- ap: 6098
  img:  'http://lh4.ggpht.com/B_I1b0Jy3vW41RX8jjCNPP68AULplU0Pf8ddolyKmpEWCfBVShQkmjF1HfTPzDjmBBQGgOs0jHW-rUR0mv8BkA'
  lat: 40.098789
  level: 8
  lon: -88.251685
  name:  'Curtis William McKinney Memorial'
- ap: 6098
  img:  'http://lh4.ggpht.com/4LxsGZZMk3DnpJXUvqzrL54CHSP5TDXjUnDJyHmCCTtCJIjGEI7kxT9g4uxfSPh0X6yGLgQo1jfqbu7B8VEr'
  lat: 40.099084
  level: 8
  lon: -88.251826
  name:  'Irina P. Stewart Memorial Plaque'
- ap: 6098
  img:  'http://lh3.googleusercontent.com/Tixp17uCaP682s77UzvCwWCOE6vg7iB2qEFLjACq7xtVJdHE0K3yKYsl3_SwKbiUfQWwgTQRbvfka3U0NvNc'
  lat: 40.098819
  level: 8
  lon: -88.249214
  name:  'Bette McKown Honorary'
- ap: 6098
  img:  'http://lh6.ggpht.com/YVbqGVTjJuDMDdj71CP2mWvnUIdgO25PgoDdJwEGnEE_M9I1aDgKyjSr9JOZVU6UQTZQtfUo9RAWyz92n3jtCQ'
  lat: 40.098475
  level: 8
  lon: -88.249208
  name:  'In Fond Memory of William Moore Jr'
- ap: 6098
  img:  'http://lh5.ggpht.com/3t7XZHqwxLZ8Lc9YomR8FInm74U2PAA-DBk8kmdxXIrcXbKa1CoBDTlgdDJeO-_yVT3qNKRnNLzbdil1eH41iA'
  lat: 40.09935
  level: 8
  lon: -88.249766
  name:  'Jim Bickel Honorary Plaque'
- ap: 6096
  img:  'http://lh5.ggpht.com/xcqe13f85fuXohGUUBZkNrUU1PunkcZ6xMNmHpAp0GJBtydVqCCGj5MqP3Uax4M7Qq4JzDFGqICFrFb6PNEXRw'
  lat: 40.08932
  level: 5
  lon: -88.251883
  name:  'Boulware Trail'
- ap: 5722
  img:  'http://lh4.ggpht.com/9hzMj8KV-HraIucojjHAEgyMZsJAR9TWvNS-QSBB5LTYBOTwwqfTQySJ_Sz88eP3eyFWFYhx5qDVY93t8fk'
  lat: 40.108032
  level: 5
  lon: -88.225702
  name:  'Centennial Court'
- ap: 5722
  img:  'http://lh4.ggpht.com/Gyz7BDhWdUinBQfD8duByX5-aBgPmB9oSesH20dH8uGJnTiaIHkeRJARtH6YQUUD5A5X2IjPTlT989AfutNc'
  lat: 40.092773
  level: 5
  lon: -88.250951
  name:  'William C. Fox Waterway'
- ap: 5722
  img:  'http://lh6.ggpht.com/WtqWBwqpYTSw3g9ru5NwcFn5iK5STxWgy2kv4OUTWqwtzx76-9Msz0eqoiw0qpEYE1U4zdt9rzzNZMDNagNg'
  lat: 40.107943
  level: 6
  lon: -88.226751
  name:  'Class Of 1917 Plaque'
- ap: 5535
  img:  'http://lh5.ggpht.com/gkIcCbfmQWyJ7s9ryhzfOOn1K-oa8huqzZN80X2psVjx_6Iur5egjGncbUIAMLiAJAf9qG1Ac8lX2MomHYY'
  lat: 40.108185
  level: 6
  lon: -88.225203
  name:  'Statue at Medical Sciences'
- ap: 5535
  img:  'http://lh4.ggpht.com/HEEvU2OlgWiV5huAu3cvNKaI-C8YKYTO3qB8WMTO7EbsjTO84KS6jLjbGCq7THZq6l63UiUKCSEqY2IADYns'
  lat: 40.091766
  level: 7
  lon: -88.250003
  name:  '"The Cranes" at Fox Corporate Center'
- ap: 5533
  img: http://i.imgur.com/5j1qaiT.png
  lat: 40.457257
  level: '?'
  lon: -88.372597
  name:  'ebaa4a5573f7449399263066d9248473.16'
- ap: 5348
  img:  'http://lh6.ggpht.com/MzDfG6eMMwVr56zIpVxRJKU2aoUq-95CLeBhoiEQQKzpC2zulq5jFDLv1IK0JcRy5Q0PhRAreZ1p2ElsdnNu'
  lat: 40.108048
  level: 5
  lon: -88.226279
  name:  'Nuclear Magnetic Resonance II Plaque'
- ap: 5348
  img:  'http://lh6.ggpht.com/yE7aPklOUj6Y4vlNLUrqm7uJbj0TAVjhl_vSEgy7CHGlkTo5yyJGeTCUnRsHYe2UAZq2h_Y3AD_m3y3i2B8'
  lat: 40.106876
  level: 6
  lon: -88.228565
  name:  'Lincoln Hall Sigil'
- ap: 5348
  img:  'http://lh5.ggpht.com/pnMcOl0FAs-A861T6mvs4EQGCm08ZQGxUcMdclhxsgyUThD6KymilbixZqTcT464ZFRUnjMoFee37DuNXxcm'
  lat: 40.10719
  level: 5
  lon: -88.226585
  name:  'College of Agriculture'
- ap: 5161
  img:  'http://lh3.ggpht.com/oHMQr2Z5LayQFbZOwOZK4ZbYQ1OVxs85-qNTvSj8epsP72vQiOdrzVmkuMPFQtCSf9Rr0oqcnSLFjLn-sPw'
  lat: 40.116592
  level: 5
  lon: -88.243236
  name:  'Champaign City Bldg. Landmark Plaque'
- ap: 5161
  img:  'http://lh5.ggpht.com/fDRifvVcFT_dKhPuNBN4rR9lNHL0Q6NvbMnGr2-ZdiirR2rJrBcWRi4vyM3-DYNHymUs7bWchaWRaUtBpg'
  lat: 40.098541
  level: 8
  lon: -88.250389
  name:  'Dennis Robert Costello Memorial'
- ap: 5159
  img:  'http://lh3.googleusercontent.com/3nkY0B9PDqzlWJ_EKh5GnTZ8z0U6X9-2dI5dapKA5Q3F4iKrE99AJZoy6NSvh2nU1WTG2hL70276yJjJ0G8'
  lat: 40.141598
  level: 6
  lon: -88.238817
  name:  'Red Shield Center'
- ap: 5159
  img:  'http://lh4.ggpht.com/BakPypxJUdTOMFo4cSzlewsmPlHw3DyQp4kVY2zAFfJvhvj9CnaQm6cqvB22BqjknBbUYxEb_eYnIZ2skgfO'
  lat: 40.11586
  level: 6
  lon: -88.227238
  name:  'Flow'
- ap: 4972
  img:  'http://lh3.ggpht.com/eFFdc4ogWkS9n6Texp4aw9BhK-M6FRxwvMRH-YkXj7JP7qSRQdo7E0-0O4P7NawgvduxpxgjnbGHbN1BjW2_'
  lat: 40.114585
  level: 6
  lon: -88.311371
  name:  'Joe''s Park'
- ap: 4972
  img:  'http://lh6.ggpht.com/yYW6Egg1lWn6UqqLzlgqwCQhtbuxiZSW4TmvI1XBPs33OTTJ0oh51XZXOIILxGI2juoO-E_YfG5UHmeb34rSOw'
  lat: 40.109165
  level: 7
  lon: -88.230269
  name:  'John Street Plaque'
- ap: 4785
  img: http://i.imgur.com/5j1qaiT.png
  lat: 40.561018
  level: '?'
  lon: -88.900234
  name:  '2e4c86f3add64206bd90a57bd8fa10af.16'
- ap: 4785
  img:  'http://lh3.ggpht.com/waYCvQnciDHIQoBYQqAoe2ioBs3DAhMQQsBboKyfNVNSWibmmRTf0SLvaoU5EwCFyWydn7rCCfrLXtLqQfA8'
  lat: 40.135683
  level: 6
  lon: -88.27634
  name:  'Champaign Fire Department'
- ap: 4785
  img:  'http://lh5.ggpht.com/pSVHjk6puyYdv3ztHlpJGnbkZyGsGsirMnxkDhlt8UMko4AhtTQbrzwInBCu5lK4Ttf7furE5pNW2AZh8HuSZQ'
  lat: 40.138109
  level: 5
  lon: -88.270158
  name:  'Glory Center International Church'
- ap: 4785
  img:  'http://lh4.ggpht.com/9dqmZPc9OI1ON-iEnfXAxSAMX2M07pEgKUsb47vLrTrW2BW61siFLquk1fXbldWXGPg69XGdSG4wKPGS5rI'
  lat: 40.113521
  level: 7
  lon: -88.244122
  name:  'Artistic Graffiti at MCS'
- ap: 4785
  img:  'http://lh6.ggpht.com/XsUl74M1oxj6ptAvGEBOMH2wivRhxBNns62UJSGcPiQkuJIgPrmUYxMpSZZUfXRMMjrwoxlFK_DbAM78UrOh'
  lat: 40.113499
  level: 7
  lon: -88.244374
  name:  'Shatterglass Studios Mural'
- ap: 4710
  img:  'http://lh3.ggpht.com/07XrBN-er6Ecleor0n9RJ4DfGO6B2yn-ZxjI-Uy8Ba46Jtb6cXNVmATPiPiGyk-1jZ4wxa7-EeIWbWUqArCG'
  lat: 40.142554
  level: 6
  lon: -88.243468
  name:  'Dog Heart'
- ap: 4598
  img:  'http://lh5.ggpht.com/j6Gqd19ib1ziWv7UKoq4_fMXeXtxxdV85TchQ49_mIgeJYs7oUWOj860aB2Ok8NGNY5wNfMqDn7zeSKOgpxEzQ'
  lat: 40.108781
  level: 5
  lon: -88.271694
  name:  'Champaign Church of Christ'
- ap: 4598
  img:  'http://lh4.ggpht.com/UsWzXzHhg7iWYqgGNNqj1XXLWp2Oj6pNxp7R0PwHI8tzNVuJwD2K0KgVwc0BR_9MEu4QalqL6x1cBnT_vz89'
  lat: 40.108739
  level: 5
  lon: -88.268838
  name:  'New Generation Christian Fellowship Church'
- ap: 4598
  img:  'http://lh4.ggpht.com/mHAXKPtOyg_DWRs5A_0yhGeDsfU4f4o3xJvzziri7o3ksPPKtMAHUkUBOb0JJ78gArdP5Q6O-UiXNDG3RHaIYQ'
  lat: 40.109339
  level: 5
  lon: -88.234149
  name:  'Alpha Delta Phi Fraternity House'
- ap: 4598
  img:  'http://lh3.googleusercontent.com/hvoLMUc9UoNVVPttxWTc8PzOWdu5MBmPETnBexH7Alyl20WGCrNa0G_j7DwvD3qbhqpTaeThFhGDV2rCtp8'
  lat: 40.107629
  level: 6
  lon: -88.224484
  name:  'Bucky Balls'
- ap: 4411
  img: http://i.imgur.com/5j1qaiT.png
  lat: 40.5586
  level: '?'
  lon: -88.52144
  name:  '37b8010f3577489a917b0fbc9441ffff.16'
- ap: 4411
  img:  'http://lh5.ggpht.com/1eDayuS4d2wNAfoiDstKMYbI0A-jF-si0NR2wlIA4cGm_nJhPwg0qgwC4fHnpfADWMcQd31BdogexUe3d1W2'
  lat: 40.124396
  level: 6
  lon: -88.305917
  name:  'Sawgrass Playground'
- ap: 4411
  img:  'http://lh6.ggpht.com/oTEawnC2cPnZ7T10vs9tiueaLsN0ILM7tgPLWVfa0njwvTDrUvS-w8x5SK4iMDd0tuHYP2w5a-H0AQ4NaAyU'
  lat: 40.116388
  level: 5
  lon: -88.243702
  name:  'Cycles of Love'
- ap: 4411
  img:  'http://lh5.ggpht.com/FeG7Xn052FyJtG43yF0j2iYs3BdENjAx_oZUTzI70y4H0qeexU7B8NrXaT20cmXSKwnWV8xFSc3OlG_KQU09pE8fyCAYXWWPbTzC0_GZ1aynCFni'
  lat: 40.116185
  level: 5
  lon: -88.243429
  name:  'C.V. Lloyde'
- ap: 4411
  img:  'http://lh5.ggpht.com/XQVr2AUWddJQMpYbapEIpcTLBeBvcpgmW016VjkAOXrp8_P2VsMxQY8FVhtDhA73iTCXCPiydjFIJcbcSa8_'
  lat: 40.116206
  level: 5
  lon: -88.24306
  name:  'Indigo Art Gallery'
- ap: 4411
  img:  'http://lh5.ggpht.com/ENeQgqydWbi9-Oyf7vizunoRqJdsZV4o0RA_956wjGI8hqpTCHBPyWMpbTrrkwYpj5tgzDRvevGmvH4eFRU'
  lat: 40.099593
  level: 8
  lon: -88.251724
  name:  'Blessings from Devon Elaine Cattell'
- ap: 4411
  img:  'http://lh4.ggpht.com/S734i_6SihPtJW8WdegLb3gEuKeNx8e1qDm6CXjREzYHohw7XqL82m4EF2K5nS2TixHweLn3EuJ4YoQnrsw'
  lat: 40.107751
  level: 6
  lon: -88.231532
  name:  'Graduate School of Library and Information Science'
- ap: 4411
  img:  'http://lh5.ggpht.com/dgQfoxxVeHT5ODqLiUYHV45qvkC_BMS0kIFRqvHvE2GO0TduZ0-XzhW8RE80LtPDK0Ay5xwA6PtjM7G3C9U8'
  lat: 40.108947
  level: 5
  lon: -88.232251
  name:  'McKinley Church'
- ap: 4411
  img:  'http://lh5.ggpht.com/1fPvqpqXG5PDCkmegoWb9Tv9N5_MZh9XjmZpbyNEs5yPDsCscbrPB1cO_Pf8GT35HYrTF01FZ6s5VPIpjJ_20A'
  lat: 40.107098
  level: 7
  lon: -88.228984
  name:  'Saint Andrew''s Church'
- ap: 3848
  img:  'http://lh6.ggpht.com/duOeXcOSQLWosdD0JJXg3pWWQp4t5sL0x9qDHoTIBFNOzEW0t53Lt2cnwgV2E_Su0l1ajIQxPtVbbK_sDRaS'
  lat: 40.141775
  level: 6
  lon: -88.242671
  name:  'Marketplace Mall Fountain'
- ap: 3848
  img:  'http://lh6.ggpht.com/cYQLNtCsiRGXd_y7-ZdI4jGlNRpC4oiy2Z7UT7etDH3FBvBRQDtOW_rY0NBvKLJMnTw_EXH75NDGMcI6UkeV'
  lat: 40.105618
  level: 5
  lon: -88.229005
  name:  'The Chapel of St. John the Divine'
- ap: 3848
  img:  'http://lh4.ggpht.com/m6NugtNnF8mim1fUMFDjmScu99lS5PjmUlCT9kKOOsIMqCH5uu5MRPhMusl6BPPpZ7Z3hnYTQZALmqSpLHxs'
  lat: 40.103652
  level: 5
  lon: -88.230025
  name:  'Pillars at Wohlers Hall'
- ap: 3661
  img: http://i.imgur.com/5j1qaiT.png
  lat: 40.57024
  level: '?'
  lon: -88.612411
  name:  'bf36781a29324e90ba5e642026048116.16'
- ap: 3661
  img:  'http://lh6.ggpht.com/pRR6eCp2PyD3vDZlmHjKOeq8OKg0KhFPVnuWAP-pB7RR36eKA3TlQwYX5pwYfBjPyVyB4oPXXOomdbqpVcY'
  lat: 40.116065
  level: 6
  lon: -88.313206
  name:  'Alan Green Memorial'
- ap: 3661
  img:  'http://lh5.ggpht.com/bxjTJmHRd1_7x6zw7y1Eir0opWUqtbJOdAC4FxDOfOBVdUI1zEVV9wo5FiHzTxqR7hajj-4tQrnSyAe2b8Y'
  lat: 40.113974
  level: 6
  lon: -88.311234
  name:  'WBGL Radio Station Headquarters Plaque'
- ap: 3661
  img:  'http://lh6.ggpht.com/9ocSZtxwhI0ZOXkGFEbDOH1572LrymOwYpROz-hP90Uk4BAS8FIjCB4GXt2ndpQrlEV-tG4qc0zoMlk9693z'
  lat: 40.12977
  level: 7
  lon: -88.271927
  name:  'Citizens Park'
- ap: 3661
  img:  'http://lh5.ggpht.com/ulBje3DZHcOGkPDTXihNL1tamRAm_GO1CREW8fA5fV0Znq1eF2J1hnbSZh35emEA1h9cL1qTj9FqGtb8VywgXQ'
  lat: 40.13765
  level: 6
  lon: -88.273074
  name:  'Garden Hills Park'
- ap: 3661
  img:  'http://lh3.ggpht.com/swF7asGHDD1L9hslewSBg2z-tocpd_HXkIYuOmz739SWxCj8KBqf-kcOPOFPoE8pLXKDxR6Z8jAJ8Kx7Fbnc'
  lat: 40.089334
  level: 5
  lon: -88.253652
  name:  'Mattis Park'
- ap: 3661
  img:  'http://lh5.ggpht.com/FEi_8ic1_FXYTyUlXgNz6IOiBsLCPTURCMQCXc2T-lpcQV-d_wdBC3YEDYltNn09_oi76voYbhGSi8P6r6QZ'
  lat: 40.141914
  level: 5
  lon: -88.235279
  name:  'Judson Chapel Baptist Church'
- ap: 3661
  img:  'http://lh3.googleusercontent.com/EvLov_3eYLGHotkWec9w3T1VCPQri5SR8JLZjbJUaxRsyGPLS4YQNXf90xlPoKjxGYlml9N8IDYKwpNvVIWlVA'
  lat: 40.114563
  level: 7
  lon: -88.228735
  name:  'End Caps Sculpture at ECE'
- ap: 3661
  img:  'http://lh6.ggpht.com/q48Oqk2mm3dXQ2ppK-aYGXKjIiTAOEZfrFkiLK9LXRz2uN9hSKihKeCwfg33q1Z2zMTIMjqJRjPA1U_V3pbR6Q'
  lat: 40.104417
  level: 5
  lon: -88.231962
  name:  '1926 Sigil'
- ap: 3661
  img:  'http://lh5.ggpht.com/ucFkWovrZBr6wFMicSGD78p44tqzcyfJCvQuAocYo0do3ODoHsOeAMphZZferoOLkGfuJPQVlILRzKG1vAPg'
  lat: 40.109172
  level: 6
  lon: -88.231151
  name:  'Illini Life Christian Fellowship'
- ap: 3661
  img:  'http://lh4.ggpht.com/d3UqrcK5M1wuOe19dIaBUOkrXF4C9IxhOWfxqzM4zIHkGsUIRb1mckNapOMRkkCtVIe0rzJumb1OVDVc1_Y'
  lat: 40.108055
  level: 6
  lon: -88.233688
  name:  'University Baptist Church'
- ap: 3661
  img:  'http://lh5.ggpht.com/1yq3oFq9p_Yl5cUf5h7IEfZPAbae2MT7lA0DFo1DHwPWPZJJ-Ez-2AE2oTzHEHWsEJQVUcUwh3j_d3kOYgDS'
  lat: 40.110095
  level: 7
  lon: -88.22862
  name:  'Alma Mater Plaza'
- ap: 3661
  img:  'http://lh6.ggpht.com/Qfyp6BK43B93Oo5kazv7b-62q_5cx5GKxXPyw6Juss-A6AgPx81B0lyWhzW7Ava9ztLzedt07gEh3ia2PPFDwQ'
  lat: 40.113636
  level: 6
  lon: -88.208146
  name:  'Jolly Roger'
- ap: 3474
  img: http://i.imgur.com/5j1qaiT.png
  lat: 40.117101
  level: '?'
  lon: -90.578548
  name:  '2d6f2b3aab164d31bf76bc3ee37a01b2.16'
- ap: 3474
  img: http://i.imgur.com/5j1qaiT.png
  lat: 40.116844
  level: '?'
  lon: -90.57905
  name:  'daf8a3879ac84969bda6530c089615a6.16'
- ap: 3474
  img: http://i.imgur.com/5j1qaiT.png
  lat: 40.459463
  level: '?'
  lon: -88.38208
  name:  '5100ed9a96a24e3cb28395a15427c8a4.16'
- ap: 3474
  img: http://i.imgur.com/5j1qaiT.png
  lat: 40.122172
  level: '?'
  lon: -90.564898
  name:  '6da2b3ab7d104379969fc710f1fa63a9.16'
- ap: 3474
  img: http://i.imgur.com/5j1qaiT.png
  lat: 40.121765
  level: '?'
  lon: -90.565387
  name:  '87f87355a69d4232b67135d067a85cbc.16'
- ap: 3474
  img:  'http://lh3.ggpht.com/j0Yx7yuvUTJbnHtY38VFaty8xpyZMMDS_bSmvbHQx_2nQBiLqF4PGpLNdTGXkRgA3-OANQgASvn1mPGcuJi6HA'
  lat: 40.131715
  level: 5
  lon: -88.31369
  name:  'Mark L. Rambow Tree'
- ap: 3474
  img:  'http://lh5.ggpht.com/TwKxvDv1ImbH5RTs7GHqqK_rPohVtqtgToH7YuDkkwa5BRFiMEcY1vWcFrJLkhaXW6cd2YVL0_Vro2JaA3K1'
  lat: 40.131575
  level: 6
  lon: -88.314062
  name:  'Mark L. Rambow Memorial'
- ap: 3474
  img:  'http://lh5.ggpht.com/ek0AuIkZd5CWKmIdjFjq5gOvptOzC8VJUnyatNG8ZyUoT8-mvkd4seW8Gpbl4kkgiatIbr57h5kK_5z6NSGD'
  lat: 40.131581
  level: 6
  lon: -88.312816
  name:  'Sunset Ridge Park'
- ap: 3474
  img:  'http://lh3.googleusercontent.com/vMuPZQrBjsuqibkb-FCbuVrZzyuUSOhjlXxxxRc9hq0Y7prkP-Fpk1Hh6o5Eq8BhT6s7GRP5S5z2KFUL7hJY'
  lat: 40.113606
  level: 5
  lon: -88.243766
  name:  'Mural on South Neil St.'
- ap: 3474
  img:  'http://lh5.ggpht.com/jz0XvZSSYKqKSa4lJDK-rludOns_o36jZ8ZTzfEr42piZamiTjSASTLdII6pkxgjZgnCwKirjhEouS77BPB8Dg'
  lat: 40.094288
  level: 7
  lon: -88.248914
  name:  'Boulware Trail'
- ap: 3474
  img:  'http://lh6.ggpht.com/C7ThuP5fwrDTu5cMDpoeGmRjotNh6eUnPf3ksvSsUj5NkHZ0yKbIUnF8cSikhX-I_7O42CTwqjhLq9z3jkIL'
  lat: 40.111844
  level: 7
  lon: -88.228609
  name:  'Talbot Labs '
- ap: 3474
  img:  'http://lh3.ggpht.com/gS3gT_deXzbDvejCL-5ygs31dw9bLQqYr2nDcLPZiv6nQzahJl12awG1a2pwKbFuoTlsHQYxQ2O7HDXL4-8'
  lat: 40.110358
  level: 7
  lon: -88.230181
  name:  'Murphy''s Pub '
- ap: 3474
  img:  'http://lh4.ggpht.com/2tHD_AHYQu0kWuwLX2HMYWBG4txVkuWsBEfzWLL39npWp8kMSHiUKxSJM1E7yhimuMVUJ-RIlSSKsgjETvtr'
  lat: 40.110524
  level: 6
  lon: -88.228706
  name:  'Leo Roy Tehon Memorial'
- ap: 3474
  img:  'http://lh6.ggpht.com/jEub4RTtKqfEcjYNQDMtrj2tUL_R6e1kqZRi-xU7lZ00Gkn309unaXkzNzft6a67crWBUzDCb21a5HTTuCc'
  lat: 40.113065
  level: 4
  lon: -88.207546
  name:  'American Legion Post 71'
- ap: 3474
  img:  'http://lh6.ggpht.com/FsUBggh0M3sjncoth6JaamkCglQtDsuiR89k30B2sMp7srgh0Hz6trgv7BhNRSJA6qI7OvipV8B3XEhzHmaNxA'
  lat: 40.113513
  level: 6
  lon: -88.207559
  name:  'Black Dog Smoke & Ale House'
- ap: 3474
  img:  'http://lh3.googleusercontent.com/I_CYGgoX5eWayBRAI_2QSZUA1sSjZM3mwS0L3JE6acDTyw7LZwi2Ba9dvUiI3pCqHTC_bfEtRl1xYh1JpY2x'
  lat: 40.111109
  level: 5
  lon: -88.209451
  name:  'Stack of Books Statue'
- ap: 3474
  img:  'http://lh6.ggpht.com/6yxAmr2FjIBpCnPpjbRv2_ffdjnZXpB2FX2OgDLnFT0Oay8HbNuXBErpWWje-HkjfKlf0OugYI9CAtbUcgPsA0B7aD9He4jy7otGJ1mBkF_9NwAA'
  lat: 40.111099
  level: 5
  lon: -88.209036
  name:  'Ibidem Statue'
- ap: 3474
  img:  'http://lh4.ggpht.com/g8tAznMB64NxNMd4eYtF27DhNprtAqnBEt_llGcKp1qpKQeUvyHBi8p5QuGURqAGieaeJscmQPi6Wosmutg'
  lat: 40.111328
  level: 5
  lon: -88.209207
  name:  'Urbana Free Library'
- ap: 3098
  img:  'http://lh3.ggpht.com/KxQsev6i7POmNh1IadCWwWQSMdCuLIYpPwIdenSlVtzum523D1R-1kfeTbuOGTkt_jDwn4jswCu1edkumm2-'
  lat: 40.110037
  level: 6
  lon: -88.23549
  name:  'Red Lion'
- ap: 2911
  img: http://i.imgur.com/5j1qaiT.png
  lat: 40.085959
  level: '?'
  lon: -88.508164
  name:  'da266d78e0ae434da37bca94fbf69ab6.12'
- ap: 2911
  img:  'http://lh3.ggpht.com/ehNwLdaa71H3Bylm063pawn4caIGz2rCdmmdBhAFWIuEt2kPjT8nWHDkSuoOidckWiM82FWpDSNGQqQMHiQ'
  lat: 40.098209
  level: 5
  lon: -88.28689
  name:  'First Church of the Nazarene'
- ap: 2911
  img:  'http://lh3.ggpht.com/RDi9dMy3Df-Cf9VWDSaCohsnVa-bidVWXN6ZXu_h9yJGuQ22MI8MFwt1iA55QHtTIq5sHU6hZWbydWYFqr5PqQ'
  lat: 40.077419
  level: 4
  lon: -88.208069
  name:  'Walker Grove'
- ap: 2911
  img:  'http://lh4.ggpht.com/ojeB36C4pFrkpUOLeRf1wlevsVasnc0hxMgCCqBw0bmWLkPKciRkj06rLhJaSpLFbnUhIn2WqKdmVVVYGBw'
  lat: 40.077334
  level: 4
  lon: -88.202929
  name:  '"Marker" at Meadowbrook Park'
- ap: 2724
  img: http://i.imgur.com/5j1qaiT.png
  lat: 40.196926
  level: '?'
  lon: -88.366258
  name:  'Filippos Pizza and Italian Food'
- ap: 2724
  img: http://i.imgur.com/5j1qaiT.png
  lat: 39.953922
  level: '?'
  lon: -88.574549
  name:  'fce2bfabd04b47c6bf10ed21d13b7f5b.16'
- ap: 2724
  img: http://i.imgur.com/5j1qaiT.png
  lat: 40.178857
  level: '?'
  lon: -88.389902
  name:  'Wesley Meadow United Methodist'
- ap: 2724
  img: http://i.imgur.com/5j1qaiT.png
  lat: 40.104593
  level: '?'
  lon: -88.42641
  name:  'Seymour Village Fire Department'
- ap: 2724
  img:  'http://lh4.ggpht.com/8Yhp3k9rCZps2AgalC_ip3F4DfS_sWuoDsILaXrP4RmZLhthvaiibjiEOn68zQ_QZyQu1Jyj8yb2lmNUNmrR'
  lat: 40.101186
  level: 6
  lon: -88.282524
  name:  'Rotary Shelter'
- ap: 2724
  img:  'http://lh3.ggpht.com/wkPcdDupubV3THJo6r2OpMtshziiIkqBISPTCPe8boa-8nH33u83Mznkr1yYWNR_l60RCy8HO_obqrdNGUI'
  lat: 40.093633
  level: 6
  lon: -88.246611
  name:  'Fountain at Illini Plaza'
- ap: 2724
  img:  'http://lh6.ggpht.com/tenpgw5pr4OCsrdIgmmHP_sx4RHH2ywHdbNxw556d5JpHC4u64HFYqCdRSeAJgfTN_7BcUv11v8NtBdlaUV8'
  lat: 40.100717
  level: 7
  lon: -88.243989
  name:  'Rainbow Garden'
- ap: 2724
  img:  'http://lh3.ggpht.com/qWqDj3Ws5ffRyIXG8XxFM41dBDTOBhjCkDgKebjiDFo-5Fyj_ssgLQ_wLM82uWwB2jVkNIYN4nc5U2E3wZoBNQ'
  lat: 40.111037
  level: 6
  lon: -88.245813
  name:  'Champaign Public Library'
- ap: 2724
  img:  'http://lh4.ggpht.com/x_fyYrN-YfUnpF38UMPMPIyK1ThV0rTPAz-5LMZToKmKVkfKUeOv6ZWafmef3MKmOBO59QDQUmr_CoCWsa4'
  lat: 40.121714
  level: 6
  lon: -88.222011
  name:  'Jettie Rhodes Pavilion'
- ap: 2724
  img:  'http://lh5.ggpht.com/Tn5ARN-X6VTc2q6atZ2WYq3c2g3gbSGXu6_vXf1MDwHfLpdTtnQ-CilBAVGvL6R-SHhq3fJ4WZI-yiJKmIId'
  lat: 40.110398
  level: 6
  lon: -88.235143
  name:  'US Post Office, E Green St, Champaign'
- ap: 2724
  img:  'http://lh6.ggpht.com/RW34ntixvJkg7fD71TPYo_4KIsBzA0-a-6yXO0jKPbpGxX5gIGC7kBI-pXEF9OHhuolcAGW2fxyK3Pt42Iev'
  lat: 40.110489
  level: 5
  lon: -88.227412
  name:  'Bus Stop - Illini Union, Westbound'
- ap: 2724
  img:  'http://lh3.ggpht.com/wOZOXhKOnhbKEPMQke-zGIG_vheDkHM8q19B1n_is5H7t1whBcQxBIGZI6VIPNw8mdCNXG6EUZeSjd1YLdngdg'
  lat: 40.108965
  level: 4
  lon: -88.227184
  name:  'U of I Mother''s Association Plaque'
- ap: 2724
  img:  'http://lh6.ggpht.com/pYay9oPZwUNKfLdWJ1JMI5tA9-Gd0vsBddLTz7fXN6wUW7F23hLMWRwFZNnXyomRkc2f9sqCGMxNWuYHPFZx'
  lat: 40.109142
  level: 6
  lon: -88.228748
  name:  'Kappa Alpha Psi Plaque'
- ap: 2724
  img:  'http://lh3.ggpht.com/bz4oo3jSLlJ5qqBYGa0PxySc94PdeXA_iAJpXuHQpMh_nxxmIIINM6cZeB6L9wkzZVFu9NkM5j2wSTSqPUs'
  lat: 40.114803
  level: 6
  lon: -88.207948
  name:  'The Station Theater'
- ap: 2724
  img:  'http://lh3.ggpht.com/N3joo2vGiOAq-hh0peo2upcDO7iyxx1XC_6L1CBWIQ2PhXEpR1UI3dtCOYHcM8pchVwGj0GyVko-qxrGx3Q'
  lat: 40.078315
  level: 4
  lon: -88.208939
  name:  'Sunstruck'
- ap: 2724
  img:  'http://lh5.ggpht.com/9T9y0bpvBrwNNyvb142IyTeakSgjhepOOFAf15hGx0cHg_jgDEhSwReqANYrDhl7giaXpGBSRLV2dRn0Or3R'
  lat: 40.077839
  level: 4
  lon: -88.209091
  name:  '"Niantic" at Meadowbrook'
- ap: 2724
  img:  'http://lh3.ggpht.com/SGh5Xw4MO1dVvrMemAzgB9RDDBXEv4yPJSQnS537XIPlaVnoge7FriTE0zXjRXDxMtFiaTHXXihwZpbush_dbg'
  lat: 40.077367
  level: 3
  lon: -88.203354
  name:  'Meadowbrook Trail Map'
- ap: 2537
  img: http://i.imgur.com/5j1qaiT.png
  lat: 40.54309
  level: '?'
  lon: -88.716455
  name:  'b066df9093c44522b31286625e7670d0.12'
- ap: 2537
  img: http://i.imgur.com/5j1qaiT.png
  lat: 40.123136
  level: '?'
  lon: -90.563386
  name:  '4a01fe6406044bf5bdb7e4ddd3e3c48a.16'
- ap: 2537
  img: http://i.imgur.com/5j1qaiT.png
  lat: 40.641568
  level: '?'
  lon: -88.781298
  name:  '306e2089178a442b8a2da3f9cdcb4f35.16'
- ap: 2537
  img: http://i.imgur.com/5j1qaiT.png
  lat: 40.238934
  level: '?'
  lon: -88.192727
  name:  '0a105a5ba80d4cc7a7f8434e0dc8effb.16'
- ap: 2537
  img: http://i.imgur.com/5j1qaiT.png
  lat: 40.285989
  level: '?'
  lon: -88.127072
  name:  'Paul Fraser Kent Memorial'
- ap: 2537
  img: http://i.imgur.com/5j1qaiT.png
  lat: 40.31059
  level: '?'
  lon: -88.346384
  name:  'AMVETS Post 52'
- ap: 2537
  img: http://i.imgur.com/5j1qaiT.png
  lat: 40.286148
  level: '?'
  lon: -88.126397
  name:  'b7462fe79c874282b8ca4240ac1d6f55.16'
- ap: 2537
  img: http://i.imgur.com/5j1qaiT.png
  lat: 40.565188
  level: '?'
  lon: -88.61306
  name:  '6ab35b80fa5949c990af0fe7eb3db8c8.16'
- ap: 2537
  img: http://i.imgur.com/5j1qaiT.png
  lat: 41.385176
  level: '?'
  lon: -89.46687
  name:  '58b8ebb6c5b14115a46f3be99062c74b.16'
- ap: 2537
  img: http://i.imgur.com/5j1qaiT.png
  lat: 41.177439
  level: '?'
  lon: -90.313572
  name:  '66e88363dcee42a59e3b98f4d18fbcdc.16'
- ap: 2537
  img: http://i.imgur.com/5j1qaiT.png
  lat: 40.010067
  level: '?'
  lon: -88.575316
  name:  'fcf57a81635d4831a6745902a1c88734.16'
- ap: 2537
  img: http://i.imgur.com/5j1qaiT.png
  lat: 40.122734
  level: '?'
  lon: -90.563683
  name:  '4a0d09e4d9a74c248eb883235ff67921.16'
- ap: 2537
  img: http://i.imgur.com/5j1qaiT.png
  lat: 40.040518
  level: '?'
  lon: -88.384748
  name:  'St Boniface Catholic Church'
- ap: 2537
  img:  'http://lh4.ggpht.com/q_3TPbqMU2mBbim_8VcSzRelOX4Q-vXphv_pi2EJl_eV-IlgOws-miPZ8zmUViRynx3TrvsbRYvi6_-6L9vc'
  lat: 40.10889
  level: 6
  lon: -88.311502
  name:  'Art in Motion'
- ap: 2537
  img:  'http://lh4.ggpht.com/Iw1zFYmvkp5-xEIthuGSfIqcCRd0lVw_uGS4y_I5DIg6xQ0CUp4_S4GL3JOWv7XFZLFqFH9O572bGCNhB78IMQ'
  lat: 40.102126
  level: 6
  lon: -88.283224
  name:  'Leonhard Recreation Center'
- ap: 2537
  img:  'http://lh5.ggpht.com/JWnYHkJG0nab4r1ficE77w9SnzFDf6DTZ-6WlD1TC1LZp1KDiEjRqUlET-pWAycwMENIelAYkMxQJCx4Niil'
  lat: 40.098104
  level: 5
  lon: -88.292802
  name:  'Stratford Park Bible Chapel'
- ap: 2537
  img:  'http://lh4.ggpht.com/T-65fHAmnGmht8xdcXCF8weDy3uDecS4uOASIFtQBn7v84jrUpS3m9_rbJ1MNz5Syzjr8g_zO6YPklMYjlZQ'
  lat: 40.13695
  level: 5
  lon: -88.259966
  name:  'Goodwill Donation Center'
- ap: 2537
  img:  'http://lh5.ggpht.com/oyiyn1Im-Ppa2y94WGbvZox7rcS2MMu45LOziU7yXZi4v2540YN6hgzBokVq2mxvpPtdDXpAwWD_vYWxjHcO'
  lat: 40.130238
  level: 6
  lon: -88.253835
  name:  'American Legion Post 24'
- ap: 2537
  img:  'http://lh6.ggpht.com/QhX7LQjknZJxL4GjIVRORINW4Ftw5F854uaMsoIWpHQNzoc_1c8nRxsoxw27U0InC7UZkcxueRyo8sqyTD7-iA'
  lat: 40.113262
  level: 5
  lon: -88.257966
  name:  'Grace Lutheran Church'
- ap: 2312
  img:  'http://lh3.ggpht.com/LI2lDP17lvIghR6Sltj6ECmzcCBHl8dTLBG7BVkPOqTkM9h8PGuXRp7mS8x3bxL-pbQzjV2HyP1y8XWbUzi4'
  lat: 40.100762
  level: 4
  lon: -88.282846
  name:  'Sholem Aquatic Center '
- ap: 2537
  img:  'http://lh6.ggpht.com/p2F3xw4xL4UdiMM9aSy628ISSglrvjPexpF3j340tMAP9MX07yh_sJv7kHVkeud8lyFf2ZwDohw3zsRS2PSd'
  lat: 40.093914
  level: 5
  lon: -88.281531
  name:  'Terry M. Warmbier Memorial'
- ap: 2537
  img:  'http://lh5.ggpht.com/tuo_ByFTbwLitFP5cBseOibqRxENxbCwOJ30dCnja5ijBI_qBv5vqNP7ZuZXnxhYM6ms_GbExZEwwKVUtwV2'
  lat: 40.093712
  level: 5
  lon: -88.281583
  name:  'Brownfield Dedication'
- ap: 2537
  img:  'http://lh3.ggpht.com/STEfnDDHEff3fffoWiEjvWm4SETgCRyRIvPgf92kzrsxo3sdh1SNg1AmGiFqvspDfSx0OXri-AXVfOZRWRMe'
  lat: 40.13156
  level: 6
  lon: -88.239027
  name:  'Human Kinetics Park'
- ap: 2537
  img:  'http://lh5.ggpht.com/nWEtxuKQdy0teBBue1DYmG7P3SF5-3A6zlB7GwVHBWlolAZYGq6Br78lWcF9ltFy-KeSlozXie2RmU6JfCUX'
  lat: 40.142673
  level: 5
  lon: -88.244603
  name:  'Italian Statue'
- ap: 2537
  img:  'http://lh3.googleusercontent.com/hJZWoErzM-MuXulq4FlhlZwMbJX1Isd81GBUBVKayd57jVIVxUle3itd-1DRKo2VaNXznWr1X639fa44Etk'
  lat: 40.141919
  level: 5
  lon: -88.244611
  name:  'Marketplace Mall Carousel'
- ap: 2537
  img:  'http://lh5.ggpht.com/H88EzgVTAsWrhBcyG4PwdAbPDu4BLlyXkVIBnJ6gtmNusC2MU2vLumSrYGbl_7GmGJ7f5kE-6ebyy_VokU0L'
  lat: 40.107512
  level: 7
  lon: -88.244964
  name:  'Fellowship Circle'
- ap: 2537
  img:  'http://lh3.googleusercontent.com/8-4OkyRuEuagHGkNAbCDDtz9k34_nWE1lFlUqdqVSLAtsWkVNv5G84IpnbtVcup3-x3u4q6_AJ0OxQdkdt1-'
  lat: 40.113304
  level: 5
  lon: -88.240009
  name:  'VW Bug On The Roof'
- ap: 2537
  img:  'http://lh6.ggpht.com/_rfJReDlJdrYezXwl9C7a4r7ZMCEE2RZ9dek5gQwKkC4sFtmFVfYF7S04SQXmjcksfbCvLWlOEuqOjxWnX4'
  lat: 40.12284
  level: 7
  lon: -88.246749
  name:  'Queen Smith Memorial Garden'
- ap: 2537
  img:  'http://lh4.ggpht.com/ik1uVZ-KWyRH4dh51LJI7gFmnM7bmfSZ-1YqfELbVQEvuo-gEx2QpG6jQpFPeAlFPi2rVPAuzRmXMD0Whsm2HA'
  lat: 40.122038
  level: 6
  lon: -88.245318
  name:  'The Old Residential Block'
- ap: 2537
  img:  'http://lh4.ggpht.com/XlTZ26_29c4-74t23p1lgghqNfLI7aS3_kradmcl7vVQzV9jJRu78D1HdzJf-sWibnak644kxCBJDnA594PVaw'
  lat: 40.092849
  level: 5
  lon: -88.251586
  name:  'Boulware Trail'
- ap: 2537
  img:  'http://lh3.ggpht.com/ugJXpaIWZ-wI1vpderJmQjM8r0T5_Li2j4hvvsu4fRM9k3MeBpETqj2LFNd1pEkcfH0I9bgZh--5g1AEJKkq'
  lat: 40.092745
  level: 6
  lon: -88.251235
  name:  'William C Fox Honorary Plaque'
- ap: 2537
  img:  'http://lh4.ggpht.com/SVmjitsTrPq194xydzMJYXMXGiUEcfEFfYF4e9GpsuZCQpCruqc3PtiXry3n1f4zH3XD-D7MsK5hMZuPUtpJ'
  lat: 40.121701
  level: 6
  lon: -88.221449
  name:  'King Park Pavilion'
- ap: 2537
  img:  'http://lh5.ggpht.com/EoSf8hHJu8u_sZNBmm3S1GHAWAxUzBsmXEWMMBkHb0fpzxtjz5RHwnclV42-DDwyDr2BION1zqJ4sLIkaiw'
  lat: 40.121818
  level: 6
  lon: -88.222608
  name:  'King Park Tennis Courts'
- ap: 2537
  img:  'http://lh6.ggpht.com/0IsQORyEW-bPA7sEbGspygtoI7ixEshm_2fUw5oeh9AeXg6JN5w0ypYIshpuKm-C0nG4Vm2XmpLvtWTZzWzd'
  lat: 40.111607
  level: 4
  lon: -88.233753
  name:  'Chabad Menorah'
- ap: 2537
  img:  'http://lh3.ggpht.com/OtT56RocwPxPgcve6b9P9h4GvUFT5XVlsBBqmCg-K8i6I1c-3RVRip5KtAoqlaUqE2BUkSwl8clISDit9EU'
  lat: 40.119453
  level: 5
  lon: -88.219746
  name:  'Family Video'
- ap: 2537
  img:  'http://lh5.ggpht.com/2PB1u3cNuASfw9D_MIUzI1JvNofebK7zsuGqKoUApr-nUWYZ8y5CzxH6g7CdcY7ShBaVGrBrurkbwrdUPD7JBk55TH0Ouao5b_g2jUI1saBNUE8'
  lat: 40.106744
  level: 5
  lon: -88.225347
  name:  'The Red Herring Vegetarian'
- ap: 2537
  img:  'http://lh5.ggpht.com/8OgQHnRehZt9nl_igzh_0k19Qp5vRgGVHo2IukHGLeEp0iNTb_YUZRDseHY39JvlTc0ROrDtbmt8SBAEFPOwpA'
  lat: 40.108965
  level: 5
  lon: -88.226465
  name:  'Harker Hall Fountain'
- ap: 2537
  img:  'http://lh5.ggpht.com/85X0vnlHzLPww3OziBoMSVfkwq66eKQNZ9Mn6qsjghvteOQZiAVlsY80NVcsErHao0QYd9IyF7PDJyp-jaQ'
  lat: 40.101632
  level: 4
  lon: -88.233133
  name:  'Sunken Cube at Art and Design Building'
- ap: 2537
  img:  'http://lh3.ggpht.com/by946OhJ5ooOkbG4f662qjbXqvrQAd98E36mSJLgTsLgL_tb8GDpNxTOEhtgsjEhY-OzKmRxAmLFbYPscSH6'
  lat: 40.101619
  level: 5
  lon: -88.233644
  name:  'Taft-Van Doren Hall'
- ap: 2537
  img:  'http://lh3.ggpht.com/1Z3mCRroEUysinW4hlDhAFNnfog3gwBM_aM8wYT6tQPiXMMmaRE9CrO5XM6QMe3UPHzMQSoxFmvWlkwOTRAv'
  lat: 40.111111
  level: 5
  lon: -88.230176
  name:  'U of I Mural'
- ap: 2387
  img:  'http://lh3.ggpht.com/3WnMbDq1Vm3HiqAM5qk1r9m3OqcO-YUN0nCOt2yRfUxVWLZ-8huxevlCI0JnIJgpSBZN4mtw0gxJnrGtuaS9iUf7k-JFfmRGRkBXQafWO9MIk_oJ'
  lat: 40.115491
  level: 4
  lon: -88.227358
  name:  'Arnold O. Beckman Statue'
- ap: 2387
  img:  'http://lh5.ggpht.com/4eagHlnlpVbtFi_knZN73PIs2A--Ipj6SOlkQADePlfnzfOnJn-cAv0IoNNv4qR8WrbUFImUKHBknyaoAewO'
  lat: 40.111383
  level: 4
  lon: -88.225675
  name:  'Only Rain Down The Drain'
- ap: 2312
  img:  'http://lh3.ggpht.com/LR76HrJqriPFUoc2XSs7jb2SotnStZv20kI7rgUx8B5HqhmetnTW4MA1tCp1ws4g5gw0sf9g7M3Lwq4VwfpD'
  lat: 40.111687
  level: 4
  lon: -88.225353
  name:  'Transportation Building - University Of Illinois'
- ap: 2537
  img:  'http://lh6.ggpht.com/yyeYUYh4CQUjDkChdMYxhBGtyVNFeOxie-Qo2rFmwnp6dxmIx6wYlfyU88vIxtwULKprz84mi2fmqu2vMOo'
  lat: 40.114764
  level: 6
  lon: -88.20772
  name:  'Station Theatre Memory Bench  '
- ap: 2537
  img:  'http://lh6.ggpht.com/UXx9XSWX3zuym6SdX68IXNFYcpnbhGuF7Zk3taO-TJ2VI_LvwmooNWjUHb8OIgKsjyto3PT7YU0D-Y7HW7c'
  lat: 40.077643
  level: 3
  lon: -88.208694
  name:  'El-Ahrairah'
- ap: 2537
  img:  'http://lh6.ggpht.com/ARxGPDwwD9zGWfT9onLvNXRMYpYW0G7tL4osRfuUfWaG2wAJR486QSRQ_1dw-pJZMHccKUnSShoDVMijLRTh5g'
  lat: 40.07961
  level: 4
  lon: -88.209169
  name:  'Wildflower Walk'
- ap: 2537
  img:  'http://lh6.ggpht.com/XqG3n3J3bCj61mM2c6ByPJaWYXv51nQkx7me8714asRsez8kx_rSW4mwH2Rm8Y6Yibx71YB6kMcbAYpGch4'
  lat: 40.079324
  level: 4
  lon: -88.209124
  name:  'Timpone Family Ornamental Tree Grove'
- ap: 2537
  img:  'http://lh3.googleusercontent.com/pYGYCzdOo2RX46MuyUVPGExxz3vVjAYCerSG06O3aGWbr302Vmw6bhoapK9LjwYEuZZ17xDHUfLw765dCYfRUA'
  lat: 40.080163
  level: 5
  lon: -88.207829
  name:  'Windmill at Meadowbrook Park'
- ap: 2537
  img:  'http://lh3.ggpht.com/gDP5JIyK5XQVuxzTukPDz7JRInXgVqjLvl1SZ1_m_ydC4VzlKAFaG92Jj7kHZGJrhTaK2-bslJBu3rBIoXOX'
  lat: 40.079519
  level: 4
  lon: -88.208849
  name:  'Pascaline Lutete Plaque'
- ap: 2537
  img:  'http://lh4.ggpht.com/Ad3EyxZM9v5cjmOiED5nr8Hf1mHtOMXrJtjU_U63YfE8lgUjAteiDYuYxND-ybx6tARUErULHJBDhgoDIblz'
  lat: 40.077349
  level: 4
  lon: -88.20659
  name:  'Bruno Schielzeth Plaque'
