- ap: 11718
  img:  'http://lh6.ggpht.com/hDt2TaWr_3Rxg4Ot6z4G0vCecWeK9M0gY7k4xNvazhxurVNbzjJQyYJcGFV025KR_YQ7X9F_9jS0q1-I_dtH'
  lat: 40.091552
  level: 6
  lon: -88.2924
  name:  'Samuel and Edith Alper Memorial'
- ap: 10596
  img:  'http://lh5.ggpht.com/yEiiHAgbSW12_Cpdb0_ksVrjWt6yb6BFtEwm3wjzPJN68wl0QhkI_oaTXxM__Dud8x9jZitaHmpZHZNxDHrD'
  lat: 40.099056
  level: 8
  lon: -88.249136
  name:  '"Cricket" and Bob Barger Memorial'
- ap: 10596
  img:  'http://lh3.ggpht.com/VLipBehsKPCp8ewQnBV1ZCz7uE75zcY46iGDyFfFHgX1o55t3DONb3wcBcL5RMYSqABRK0TgIW3DluNy8y6WaA'
  lat: 40.101131
  level: 8
  lon: -88.250539
  name:  'Hessel Park'
- ap: 10594
  img:  'http://lh4.ggpht.com/vKgqIecJshMQxrhO-ZhMjcIyARuJdyU63wKfzAG0wouZex6LVzO46Qi5zM1N3Jx8xyantDFk9sQGsSEBhb-y'
  lat: 40.101327
  level: 8
  lon: -88.251412
  name:  'Zeus Memorial'
- ap: 10594
  img:  'http://lh6.ggpht.com/NMgUdPOdhvhvKZh7ugwXgybshZBZ2mkaEWMNKYdFPX6cfIYENSCqE9YpAXSNVuq_9VVWXJB-ShCBAPfF2Yvs'
  lat: 40.102513
  level: 8
  lon: -88.243679
  name:  'Robert Hosier Memorial Garden'
- ap: 9846
  img:  'http://lh6.ggpht.com/BKeORacgeVrG8XzxTuXmpq5UxomWpK-I2n7Xy0PVbdSciNx9MJl869TcibnFIiV5PJHGv5R3QOpX6ZgLUwU'
  lat: 40.099706
  level: 8
  lon: -88.250065
  name:  'Lois Barham Memorial Tree'
- ap: 9846
  img:  'http://lh5.ggpht.com/-UWK84I78Sftf7yg-E2pg6xEAWTvyiThgJBJlxbqOZPYKNmzQ8uGgEEMetzplrG1HpXG5kQqNItUeXKxOHDsGA'
  lat: 40.100286
  level: 8
  lon: -88.251747
  name:  'Tennis Anyone'
- ap: 9659
  img:  'http://lh3.ggpht.com/sisvfsphxy7AK_2qrrqb7lNJk3_7ciHSVJyodINYITBc-UqugyNOooCxKupgJKEg5m_x95eZwouSO2WCmN60ew'
  lat: 40.098579
  level: 8
  lon: -88.249603
  name:  'Chef Ra Memorial Plaque'
- ap: 9096
  img:  'http://lh3.ggpht.com/rUgM7jkTqL0VHxvsSW0yWuNJF5UrU62ITflghfn4PfKjn6L4WGz0ALkv98fc_q9dmK9SSpU1PXIawGvcRwE'
  lat: 40.098246
  level: 8
  lon: -88.251974
  name:  'Hessel Park'
- ap: 9096
  img:  'http://lh5.ggpht.com/aeGh3iXJqJ7skg-2JHEpngMSfcp1qDIEPoLMxzQNqbS5Y7HcxN7oE789bXiVFoFIcdCn7-3AhLPtxT_WE2E'
  lat: 40.0985
  level: 8
  lon: -88.248681
  name:  'Siti Sculpture'
- ap: 9096
  img:  'http://lh5.ggpht.com/Q32BPmFRIQYqXI5gLOV9ifHvFlGdyD_yws2172-sHnSZ-StunhCM0Abqd9rBWSaKBWN7RPpa1h-nok4Mc23i'
  lat: 40.101062
  level: 8
  lon: -88.249275
  name:  'Narayan & Shanti Achanta Memorial Plaque'
- ap: 9094
  img:  'http://lh3.ggpht.com/2bCNiD7SWsS3uzFLMO2cZh-LpHUEMQGnfTmcNx5vJapXho2TuXke630-7zop2Sq4fuY8nWVqy4VCG23mvnIJ'
  lat: 40.104168
  level: 8
  lon: -88.238808
  name:  'Alpha Gamma Rho'
- ap: 8909
  img:  'http://lh5.ggpht.com/CRkkFx_9jq2hCt1HtflqZDqCdmSG5MN88FV0rLXk1PZm7maZWzLTKZhjqlSKUx1Tg0tSB62l75w2VFsyUZI'
  lat: 40.09991
  level: 8
  lon: -88.249899
  name:  'Benjamin Biddle Memorial Plaque'
- ap: 8909
  img:  'http://lh5.ggpht.com/T0WLAJf0s4nu2Phxax31eu6pO6zNoA4JpvHMLyfMKttzJALEWB8EAWOziQwgjdWE3YjBbG1XjGYsgihqCSX9'
  lat: 40.100414
  level: 8
  lon: -88.249061
  name:  'Randy William Auteberry Memorial'
- ap: 8722
  img:  'http://lh6.ggpht.com/3o0ObAARFV_8mBVCC_QD0iLOPVzNkakXybhLnSVEuXIJfDLKMxeYj-EkWIw9NPoZIVRf5Dkrid2yf_NEQ-iE'
  lat: 40.100347
  level: 8
  lon: -88.249385
  name:  'Travis Marmion Memorial'
- ap: 8533
  img:  'http://lh4.ggpht.com/Oy0NzvODUpd5270gnNUQqxf4w1YUNzMwDdncW6PvKUb3y_ptImObTW3rbbHp_OYEUKTR37L61q3yuYr1GRSV'
  lat: 40.090259
  level: 6
  lon: -88.295024
  name:  'Robeson Park'
- ap: 8346
  img:  'http://lh6.ggpht.com/YdeB0EKlsopL39a9YXWj4JBZgXNNLWHgfe4PQzdpWCNWc0fR1YTj8WjARDHnmrusvKWTqKLcGg8U9frhtsw'
  lat: 40.09821
  level: 8
  lon: -88.249879
  name:  'Hessel Park'
- ap: 8159
  img:  'http://lh4.ggpht.com/W2chhQwPqSJEkl57NVoIL-OE4KFvJfp7Bsrrxza1apCYltcT3npz95LJxqHxvT9ZZu7wxF2gQy-5bpKal2p2'
  lat: 40.115838
  level: 7
  lon: -88.241338
  name:  'Illinois Terminal'
- ap: 7972
  img:  'http://lh6.ggpht.com/YEHyAsx3ysK3IxTTbSx5dLEcHRtRVKQ4XTvE0Kvkd3iIW3mA6lplwojkVOpWCemyQS6G3JESxZnMFQtVf7V3'
  lat: 40.11652
  level: 7
  lon: -88.241845
  name:  'Mike ''N Molly''s'
- ap: 7972
  img:  'http://lh3.ggpht.com/lzCSS0_tjwUV7JQ2fgLI0e05IrzPxlVUs-6aEPOwUv67IanQJSTi71gkw0SGm8asmoE_r3Xoh048Fd9xRpE'
  lat: 40.099169
  level: 8
  lon: -88.251419
  name:  'Lyman Larson Memorial'
- ap: 7972
  img:  'http://lh6.ggpht.com/5CDidk0pqfUtSW_Yqouuf3diX8drdMu9DoT728QpSz8q6A-WxNhT0yLcgM_7gGpyIAeXrHiTkIzzaVJFgnN9WA'
  lat: 40.099852
  level: 8
  lon: -88.251947
  name:  'Our Friend Tim Palmer'
- ap: 7972
  img:  'http://lh4.ggpht.com/PHV-1ZpFzCAl_ViCKwBY_x2pIDbVyaT7wJH1sTvFJCxrSdRrO1x7NaXq9OdRGwz_Mls4iwk6wuGHMBArfV54'
  lat: 40.098688
  level: 8
  lon: -88.25063
  name:  '"New Holland Yellow Dinosaurs" at Hessel Park'
- ap: 7972
  img:  'http://lh4.ggpht.com/4LxsGZZMk3DnpJXUvqzrL54CHSP5TDXjUnDJyHmCCTtCJIjGEI7kxT9g4uxfSPh0X6yGLgQo1jfqbu7B8VEr'
  lat: 40.099084
  level: 8
  lon: -88.251826
  name:  'Irina P. Stewart Memorial Plaque'
- ap: 7972
  img:  'http://lh5.ggpht.com/q-mJ2EvrjGn2PfbBh3Pl3XIGUyzTqxGjZmTMhn3k9_2Qi0S2hs3k2ZvpKb4kvt60AXHiyQdxqft5ZecPcg7x'
  lat: 40.098959
  level: 8
  lon: -88.250141
  name:  'Bob and Wilma Tinkham'
- ap: 7972
  img:  'http://lh5.ggpht.com/N1cFx79JwZqPlYPDW3HkNwRX8N4Auriii45qzYkAx9l-cKeK81qgZ6nuBpTBEIOyLzy4aIIhQKt2E7ZiysSjkg'
  lat: 40.10036
  level: 8
  lon: -88.250515
  name:  'Mark Foutch Pavilion'
- ap: 7972
  img:  'http://lh5.ggpht.com/fDRifvVcFT_dKhPuNBN4rR9lNHL0Q6NvbMnGr2-ZdiirR2rJrBcWRi4vyM3-DYNHymUs7bWchaWRaUtBpg'
  lat: 40.098541
  level: 8
  lon: -88.250389
  name:  'Dennis Robert Costello Memorial'
- ap: 7972
  img:  'http://lh5.ggpht.com/4DJAFPeZ_w65Km7VDnsbOqouQaeBuPuxA0KHPQToT_B6o1hBxzdu3kn89UhHgv22Ygj52Fx9QqcbzOytuw'
  lat: 40.100078
  level: 8
  lon: -88.250683
  name:  'Brian Clark Memorial Plaque'
- ap: 7596
  img:  'http://lh3.ggpht.com/ZOALJqKi7gNpN7e2IXnkcpGhKdME-MIGNVz09KJfsruk0ix30Xa_lWaNAMj06IpkfgGbmbNvDXRdDkLgGGA9'
  lat: 40.090629
  level: 6
  lon: -88.29504
  name:  'Roby Recreation Trail'
- ap: 7409
  img:  'http://lh4.ggpht.com/MvwoDsxwfyNLHzfGkFJl-4VFeX7OvqB0hsMCrZ2D9Olh8GSghAJDfFfDh7a7cOtMIGwEDMyesZoKvKCXAGj4'
  lat: 40.116553
  level: 7
  lon: -88.242268
  name:  'Esquire Lounge'
- ap: 7409
  img:  'http://lh6.ggpht.com/o-Si4_DCq7Qwa_fFJhaTZ0-zCScbl7wDS4PHIFGMbnP9TuPVe9ZauXV3lAreyYvxN7B7n8mlrOR2SsPzXmU'
  lat: 40.115703
  level: 6
  lon: -88.239504
  name:  'Chester Street Bar'
- ap: 7222
  img:  'http://lh6.ggpht.com/-I0G2D5ab8mTsL7xqBbC8ncqUMD5VZFPzUxONYaTcbt6ogXQnVlPsaSqnh7NHJyo89tDr3WOfkV90Mdpo9UTfA'
  lat: 40.106457
  level: 5
  lon: -88.26247
  name:  'Clark Park South Entrance'
- ap: 7220
  img:  'http://lh6.ggpht.com/yoGdHEqpRRqOE5pA5wHdi_ismU_TrB-kTiqVV63EO630KsU608TIfjLijcqJ38At7MyyrE2urWFMPY1Sops'
  lat: 40.118121
  level: 7
  lon: -88.258039
  name:  'Mini Park V'
- ap: 7035
  img:  'http://lh6.ggpht.com/yjfa0jJLjsfLRf9Zn9iafMp3MuIhgCi0WiOCF8GqTGiGvzEnsPGrFa0H1n-uzWhVehLbt44ShthsA32VzHd5iQ'
  lat: 40.099737
  level: 8
  lon: -88.251157
  name:  'Tyler Van Atkins Memorial'
- ap: 7035
  img:  'http://lh4.ggpht.com/B_I1b0Jy3vW41RX8jjCNPP68AULplU0Pf8ddolyKmpEWCfBVShQkmjF1HfTPzDjmBBQGgOs0jHW-rUR0mv8BkA'
  lat: 40.098789
  level: 8
  lon: -88.251685
  name:  'Curtis William McKinney Memorial'
- ap: 7035
  img:  'http://lh5.ggpht.com/8zq5tMevCiipZK8N9-8SZw3vdsA2HwH0E02ormQshGxHVZrB2WPK7OPC8zt6pjLlgpXVuEYHVA_08_Q8fPw-'
  lat: 40.099647
  level: 8
  lon: -88.249648
  name:  'Max Overmyer Memorial Playground'
- ap: 7035
  img:  'http://lh5.ggpht.com/ENeQgqydWbi9-Oyf7vizunoRqJdsZV4o0RA_956wjGI8hqpTCHBPyWMpbTrrkwYpj5tgzDRvevGmvH4eFRU'
  lat: 40.099593
  level: 8
  lon: -88.251724
  name:  'Blessings from Devon Elaine Cattell'
- ap: 7035
  img:  'http://lh5.ggpht.com/HhVreJipNvxPRVFpmsh2BPo9PcpPO2Q2l3jCpDjIKgfKGycoTNPXR4DKiYccBXW4X-4dJf_vV0ESsWAWHcChsg'
  lat: 40.100936
  level: 8
  lon: -88.250855
  name:  'Donald F. Bresnan Memorial'
- ap: 7035
  img:  'http://lh3.ggpht.com/G1CvGhpethi5UmprDWxZN9rTblHa3anSsQz1UPgJtkREkfN7lDFoxFObst0609Cg5mofuZxJKr0ddNKhY4VL'
  lat: 40.098464
  level: 8
  lon: -88.251426
  name:  'Ruth Haasis Memorial'
- ap: 7035
  img:  'http://lh5.ggpht.com/C6wRSaEWO1NYGY5luyYZKHG3Z3aib4aflaPdV7B9G6N6adE890g3QuPRSvCUhsdFHqjoVUjo27mfz9WsjXyuhQ'
  lat: 40.100521
  level: 8
  lon: -88.250864
  name:  'Gabriel Patrick Maxeiner Memorial'
- ap: 7035
  img:  'http://lh5.ggpht.com/3t7XZHqwxLZ8Lc9YomR8FInm74U2PAA-DBk8kmdxXIrcXbKa1CoBDTlgdDJeO-_yVT3qNKRnNLzbdil1eH41iA'
  lat: 40.09935
  level: 8
  lon: -88.249766
  name:  'Jim Bickel Honorary Plaque'
- ap: 7035
  img:  'http://lh3.ggpht.com/8FqlniFErK7cq59awiT84u8KyV4FIRd5krZzfYa58zJToFps7whdBnriPqvO_kFKeLUE3SWbJhCOPuvUQzaGFA'
  lat: 40.100691
  level: 8
  lon: -88.251337
  name:  'In Loving Memory of Zeus'
- ap: 7035
  img: http://i.imgur.com/5j1qaiT.png
  lat: 40.204412
  level: '?'
  lon: -88.394094
  name:  '2a77bf7698f24379838733d064f5ce04.16'
- ap: 7033
  img: http://i.imgur.com/5j1qaiT.png
  lat: 40.152192
  level: '?'
  lon: -88.252279
  name:  'Toalson Park South Entrance'
- ap: 7033
  img:  'http://lh4.ggpht.com/0j8eeTKJgjnYhHpf4qH_70CZHLbujC5v-XP_ndcqh1xIR-5V2K_CGdjIe1ZfMbwvSyISxxYKoZynw1DaQcj8'
  lat: 40.105874
  level: 6
  lon: -88.230562
  name:  'St. John''s Rectory'
- ap: 7033
  img:  'http://lh4.ggpht.com/3_LELG2r-A5s2d-x2dWyz6h7HzfjVR_KZn9AG0vhih9EalQIG43iL6LdKqKNpnGdGwguP9ZfnGF0KMq_KDE'
  lat: 40.105799
  level: 7
  lon: -88.230188
  name:  'Color Glass Windows at the Newman Center'
- ap: 6846
  img:  'http://lh5.ggpht.com/M86zCVcXjmwIC0SQgJ3q_heSiWsj4BJoAcO4SpBWLGzt7XQ3kJMk_1GdLAM_SOt_OkZnGrAEV9_g2KSQCguZ'
  lat: 40.133808
  level: 5
  lon: -88.284367
  name:  'Dodds Park Softball Complex'
- ap: 6846
  img:  'http://lh5.ggpht.com/oCw3ZC6UKF3aiK6dkbz72dhzUsJNhOmfVjVsXJET_YP5e1p53pLTa8Dep24gLqeY9FghWE0kaAB64vvn7nq0'
  lat: 40.105008
  level: 8
  lon: -88.243265
  name:  'McCollum Park Peacock'
- ap: 6846
  img:  'http://lh3.ggpht.com/HX3mWBGofQk08Qdp7A6KMK1AnSXlLEPJR-n6oeX69Efiiss29GHsLiDsHhRS5K8DrXh-QXP1T0AMaOsJmx_w'
  lat: 40.106921
  level: 8
  lon: -88.230145
  name:  'University Lutheran Church'
- ap: 6659
  img:  'http://lh6.ggpht.com/WVVbmiu2GGTnPTszcnYYILHKlkZDoxB-QY6Yv7YPoUfdVn92jYnKjpVKNkfWdFrPjq-BaFeKGJWLZlE-bbA'
  lat: 40.120467
  level: 6
  lon: -88.2577
  name:  'Salvation Army Church'
- ap: 6659
  img:  'http://lh5.ggpht.com/dRrlHXlT2nMNgZNHiYo52ha9L-Xay9DyOJR2Cpqs74hgAJ09abn9OTAtMzRVedt1_R9ObZllLO98vRhNMfgTgVsJCk1S-HJwX_XgiGpG4lz3a328'
  lat: 40.11671
  level: 7
  lon: -88.24263
  name:  'Cafe Kopi'
- ap: 6472
  img:  'http://lh6.ggpht.com/y8bCBS3MGLa3XKiu6GIpVpygQ-RMlVpx9JsDGQx9PFP_EnpG9-XdSln0ZWMphq6YLmE6DSL0VsWnN9PpaHCYrA'
  lat: 40.091003
  level: 5
  lon: -88.290142
  name:  'Jim Harry Memorial Plaque'
- ap: 6472
  img:  'http://lh5.ggpht.com/tfAfnmo6mSMc6U0P533NMFJRGwn6lasmx-MLR2JJg1QOizMKkghFU8E7hb2zgYgdQEbgnCJUlvZIMdrrJe4'
  lat: 40.100822
  level: 8
  lon: -88.25193
  name:  'Seeds of Kindness Bench'
- ap: 6472
  img:  'http://lh4.ggpht.com/8Yhp3k9rCZps2AgalC_ip3F4DfS_sWuoDsILaXrP4RmZLhthvaiibjiEOn68zQ_QZyQu1Jyj8yb2lmNUNmrR'
  lat: 40.101186
  level: 7
  lon: -88.282524
  name:  'Rotary Shelter'
- ap: 6472
  img:  'http://lh5.ggpht.com/llyW63Gnxl-lT-L_MhXsl4mdbmv29RvYTWcLt1R7JxibVPORq5Wd_UHIdT-vQ0XaUqZVQiN2mXkV4KJpp5sm'
  lat: 40.1159
  level: 6
  lon: -88.238508
  name:  'Dallas & Co: Costumes and Magic'
- ap: 6285
  img:  'http://lh6.ggpht.com/aHhLEb8O6JqkElC1drnlJBmq8qeC2WzA4W48qkRQwuE9B6opSfHVKARNHu-uAZN-jvPRznVdmobggqRbw9E'
  lat: 40.100674
  level: 7
  lon: -88.281589
  name:  'Catherine Josephine Feinen Memorial'
- ap: 6285
  img:  'http://lh6.ggpht.com/2lDM_Uj6QcUJmWkmPhNWg-vfkJbBQAo6zb7eXC5qDTaJ5xAsoU7jPPqYmLo7zztC2Za1oH3QVrHQ78-XabqR'
  lat: 40.116398
  level: 6
  lon: -88.242485
  name:  'Champaign Servicemen and Women Memorial'
- ap: 6285
  img:  'http://lh4.ggpht.com/3gTAX6rKgNjLmBOYvAVTgSPQej5yRF_38uRllp9H4n5N6pvwWo5kDMDwlIkFVPPl30BXPSGAlZ9pO9B4DMk'
  lat: 40.116218
  level: 7
  lon: -88.242141
  name:  'Live Action Games'
- ap: 6285
  img:  'http://lh6.ggpht.com/ea6HxAw7m0OhhPqJJkZR9u60pR1sab_JdxaOyEltqmQd-63FFJzPY72jEnu08g9Gcjjj5cf3jyyS_M1E7OIbfg'
  lat: 40.11616
  level: 6
  lon: -88.241422
  name:  'It''s A Mistree'
- ap: 6285
  img:  'http://lh6.ggpht.com/n0f7lyo15OzZn5IJHsohIGAA58iioentPZGEY4zeMZCCoX4GjEEkqfaTCIbrx9OnezriThnbFV14kYcwKTgL1g'
  lat: 40.098444
  level: 8
  lon: -88.248167
  name:  'Healthcare Not War Mural'
- ap: 6285
  img:  'http://lh3.googleusercontent.com/vJ_iyOb44eFzOJUNpRouOPDI8rKgOESn7TWw9U9BR3OcWsb6Oak-SSfVH4iPPmtXJdk30rqet1D0KxVohiBC'
  lat: 40.114712
  level: 7
  lon: -88.238392
  name:  'Mexico Mural'
- ap: 6285
  img: http://i.imgur.com/5j1qaiT.png
  lat: 40.203721
  level: '?'
  lon: -88.39221
  name:  'dd9c9d84f4934d84a0769ff14c381db2.16'
- ap: 6285
  img: http://i.imgur.com/5j1qaiT.png
  lat: 40.203973
  level: '?'
  lon: -88.393369
  name:  'Mabery Gelvin Botanical Garden'
- ap: 6285
  img: http://i.imgur.com/5j1qaiT.png
  lat: 40.205076
  level: '?'
  lon: -88.39379
  name:  '88b22f723d954699bdb089ff05d12bf6.16'
- ap: 6283
  img:  'http://lh6.ggpht.com/BzDhCANV_iNTHhKFBGLuaUqOvChRZtPWnJ2Xk4h7NsKJHmTGgCWtFHWv2PpDA2fCsHHKSCRTrUNK8AKrLRnS'
  lat: 40.108066
  level: 7
  lon: -88.230687
  name:  'Community United Church of Christ'
- ap: 6098
  img:  'http://lh4.ggpht.com/g_stLAWJt4vh6oSK-cYOomfGV2PYXeZ-z4kRS0wAL0-3T-fr7DmmTloLnVl7__jD0xt28syhYVcTKRBjGI0'
  lat: 40.09139
  level: 6
  lon: -88.290052
  name:  'Robeson Park'
- ap: 6098
  img:  'http://lh4.ggpht.com/H1kV6JSczzSbcCblAHg5ZOgITW1mBAz0_oLbqbzxBlijGTBn7TP6KwA6UI0AAGrCN4VF0DAF79Vcj6_2R4dsB8LRTq6tud6v'
  lat: 40.116164
  level: 7
  lon: -88.241661
  name:  'Zipcar-45 E. University Avenue'
- ap: 6098
  img:  'http://lh4.ggpht.com/4fOkmPX5YOrfNgs98zKNwIv5kRHJEUoIYouducEDloHlUY2wGAFlCNQxybwM9YRZZEKCxTucl0tqg2eqiW0'
  lat: 40.108017
  level: 5
  lon: -88.262076
  name:  'Clark Park'
- ap: 6098
  img:  'http://lh3.ggpht.com/KzADjdPRAvwycpfTBdAeDwFJ0AxZJG2dPmbPWkXq55QLV9PfpJ_-DsXWIlVgsISUApRdJ5cAxRWx0k0W2hI'
  lat: 40.09979
  level: 8
  lon: -88.249107
  name:  'Jerome Cook Memorial'
- ap: 6098
  img:  'http://lh3.ggpht.com/VrbXGwlUosNLEkVdshWUFoVa3KtlJQoEU4yLYygvftYbPCmxo644Uvar_v8Kb9RS53hB0tXgvV44GotrxZyu'
  lat: 40.098592
  level: 8
  lon: -88.251676
  name:  'Ruth and Fred Steigmann Plaque'
- ap: 6098
  img:  'http://lh6.ggpht.com/S7Utf4_59vQkAP5JhC3mdbzVLKBTt-0zoJ2UjfxUnN10VBbixO-_VwvssWd1LbFSx_yafaijd_U0wTGo870'
  lat: 40.100941
  level: 8
  lon: -88.251314
  name:  'Gabriel Patrick Maxeiner Memorial Plaque'
- ap: 6098
  img:  'http://lh3.ggpht.com/GXyi2ghi2DR3h7uIHNYiEZPYixRhDo7LO0WHQ0PyEzb-150r7ar7JGeVjUoPuObC-GFWf22UWqnYCMtED0M-'
  lat: 40.100341
  level: 8
  lon: -88.249937
  name:  'Alice Marie Weber Plaque'
- ap: 6098
  img:  'http://lh4.ggpht.com/Nh7M4_i-advmuf0RWReev2TeUAZ57VTRzcf56-U_TuHsKcjIdqXGvbxpOccEx1CaYHKzGwI9mZVmnLdmhryGng'
  lat: 40.115557
  level: 7
  lon: -88.239009
  name:  'Honesty Best Policy  - Vernon A. Roland Building'
- ap: 6098
  img: http://i.imgur.com/5j1qaiT.png
  lat: 40.205206
  level: '?'
  lon: -88.393464
  name:  'ffb1c8830f184f8b9886fbf7c7604a37.12'
- ap: 6096
  img:  'http://lh5.ggpht.com/6-orj1GyBCNo5--9rpQzjPVywlT09WmTnpyDc3jTbZjIGW1Rquy_keKtkNflBWVf4R6UVZFmPJt9z2KrBYKH'
  lat: 40.08947
  level: 6
  lon: -88.289609
  name:  'Robeson Meadows Trail'
- ap: 6096
  img:  'http://lh4.ggpht.com/DKqCX7ekIzT953BiW_t-Oe0jBg-GV5rCptYhvQqlLpQdaRpMxnNfMXekcxHT3XIhqCgskbqRwa-YofxMh71Q'
  lat: 40.090655
  level: 5
  lon: -88.289418
  name:  'Peter Taylor Lewis Baseball Field'
- ap: 6096
  img:  'http://lh5.ggpht.com/k_9eqZVvGcr3ZNyeeSNDM1-Y7od35KmnQQptB9usrdpTdpGW2c_5-12rYy9hGazdx7qhlYrEXxaJ_ZIVFywlcA'
  lat: 40.106706
  level: 7
  lon: -88.232116
  name:  'Illini Tower'
- ap: 5909
  img:  'http://lh3.googleusercontent.com/hvoLMUc9UoNVVPttxWTc8PzOWdu5MBmPETnBexH7Alyl20WGCrNa0G_j7DwvD3qbhqpTaeThFhGDV2rCtp8'
  lat: 40.107629
  level: 7
  lon: -88.224484
  name:  'Bucky Balls'
- ap: 5909
  img: http://i.imgur.com/5j1qaiT.png
  lat: 40.20265
  level: '?'
  lon: -88.393912
  name:  '9c9b58d1e22949bc983b080f051d97d6.16'
- ap: 5722
  img: http://i.imgur.com/5j1qaiT.png
  lat: 40.312242
  level: '?'
  lon: -88.201368
  name:  '2012 Employee Dedication Bench'
- ap: 5722
  img:  'http://lh5.ggpht.com/ZfmaOk3UM4PNzP-z0AvBPFqYLc6wAEDSPhL1cSVjXMAFSv4Jadm-hV--eP3OaJuaksphYKN5s6bhWhluTGs'
  lat: 40.133327
  level: 6
  lon: -88.280335
  name:  'Prairie Grid'
- ap: 5722
  img:  'http://lh6.ggpht.com/JQ7YB5Jml3yo1T0ij3FonGpXBxfsXGarZwcVNWiU0AcnenMw0YmeojaU8vVbH0HmaPmr7PQb7Hr1SnXtXA9J'
  lat: 40.092604
  level: 6
  lon: -88.28972
  name:  'Phinney Creek Bridge'
- ap: 5722
  img:  'http://lh4.ggpht.com/Iw1zFYmvkp5-xEIthuGSfIqcCRd0lVw_uGS4y_I5DIg6xQ0CUp4_S4GL3JOWv7XFZLFqFH9O572bGCNhB78IMQ'
  lat: 40.102126
  level: 7
  lon: -88.283224
  name:  'Leonhard Recreation Center'
- ap: 5722
  img:  'http://lh5.ggpht.com/vYay8RKsCV_BP_MkeFm7se0VZoYthm-1pThiATAADleBlTsPowobgZyUoU7DUto6p5cpg9adpCcTgNR6iop0Jw'
  lat: 40.120121
  level: 5
  lon: -88.251967
  name:  'Sesquicentennial Neighborhood Sign'
- ap: 5722
  img: http://i.imgur.com/5j1qaiT.png
  lat: 40.203562
  level: '?'
  lon: -88.395264
  name:  'Blue Star Memorial By-Way'
- ap: 5535
  img: http://i.imgur.com/5j1qaiT.png
  lat: 40.152342
  level: '?'
  lon: -88.252345
  name:  'Toalson Park Basketball Hoop'
- ap: 5535
  img: http://i.imgur.com/5j1qaiT.png
  lat: 40.152792
  level: '?'
  lon: -88.253532
  name:  'Toalson Park'
- ap: 5535
  img:  'http://lh5.ggpht.com/FEi_8ic1_FXYTyUlXgNz6IOiBsLCPTURCMQCXc2T-lpcQV-d_wdBC3YEDYltNn09_oi76voYbhGSi8P6r6QZ'
  lat: 40.141914
  level: 5
  lon: -88.235279
  name:  'Judson Chapel Baptist Church'
- ap: 5535
  img:  'http://lh4.ggpht.com/lpJC8CMq12VKjzn5jKxDzhuO6-wy48dUIJ1qAD7jiTQom4qZYFUDgxd3-1wexag_aT8akZC3P7VTqei0H48YKQ'
  lat: 40.100482
  level: 7
  lon: -88.281627
  name:  'Henry Bradbury Memorial'
- ap: 5535
  img:  'http://lh5.ggpht.com/_9uqsDQROIwqIhKx_URY4DdZAapoZBEWK6Eaclt5mM5vPsjwQAD-v8Bv-4b-Smq2F8X4zOgzLx2KwySkFWc'
  lat: 40.118448
  level: 6
  lon: -88.25211
  name:  'First Church of Christ, Scientist'
- ap: 5535
  img:  'http://lh3.googleusercontent.com/8-4OkyRuEuagHGkNAbCDDtz9k34_nWE1lFlUqdqVSLAtsWkVNv5G84IpnbtVcup3-x3u4q6_AJ0OxQdkdt1-'
  lat: 40.113304
  level: 4
  lon: -88.240009
  name:  'VW Bug On The Roof'
- ap: 5535
  img:  'http://lh4.ggpht.com/mlUN5QXAR7rKFvUg7yhxcae3udkR7zCJVaWt5sq_YA47piV6tRi42RNN9fEtT_FafT7lhqg26WM1VETbz5E'
  lat: 40.098239
  level: 7
  lon: -88.25376
  name:  'Hessel Park Christian Reformed Church'
- ap: 5535
  img:  'http://lh4.ggpht.com/AC0e3VVFenyh_tf4lpcee6alCTlto3O4cqychnUlTFCiLaMi6RUVh6BAC1-pjf7f7foTLFALejQiRxf1kKtS'
  lat: 40.104417
  level: 8
  lon: -88.24332
  name:  'Wayland Smith Estate Garden'
- ap: 5535
  img:  'http://lh4.ggpht.com/1LUozaukItxu6cHk_7wORzYYNvskCHi_wUxbNOAcIXNbgLuYn7VElFG0tzY02e6pY-AEL8nNHAL6ewLCaLMH'
  lat: 40.10567
  level: 5
  lon: -88.228634
  name:  'Public Broadcasting Plaque'
- ap: 5535
  img: http://i.imgur.com/5j1qaiT.png
  lat: 40.203785
  level: '?'
  lon: -88.390448
  name:  '3e498955983f48bbb55d0e1fae996ef2.16'
- ap: 5535
  img: http://i.imgur.com/5j1qaiT.png
  lat: 40.203703
  level: '?'
  lon: -88.394049
  name:  '1ab1edcdd05447019675c2b4b0d30cbb.16'
- ap: 5348
  img: http://i.imgur.com/5j1qaiT.png
  lat: 39.966802
  level: '?'
  lon: -88.34467
  name:  '4559bb0f45f9470b8b155f0f3b6c9056.12'
- ap: 5348
  img:  'http://lh3.ggpht.com/R9_j6Ix3G4wIobXVuK6nhjPbwc4K59mAiAEYBNzlpbhK11ILWcjzXIpL90el567VJkxLA0oHXb244mi3pMUk'
  lat: 40.106459
  level: 5
  lon: -88.262082
  name:  'Everette Rock Garden'
- ap: 5273
  img:  'http://lh5.ggpht.com/0m1i3CJSj3bKhLj5BgXi8SFpgoihNsBoN6fpccgDU2tjtPcA5BqB1IxvR0yAX9FWkgt3_Q8gbAyGfdJDliGP'
  lat: 40.115142
  level: 5
  lon: -88.238658
  name:  'First Street Antiques'
- ap: 5346
  img:  'http://lh6.ggpht.com/pxaCt7clhIXc1RVGMMJZsmnbEWNWjFYJiUrQMev_SeOmXBothvOzmfnirQ5_W8CMa7hpigqydQhKMa4XFCAi'
  lat: 40.108173
  level: 7
  lon: -88.230209
  name:  'Mural on South Sixth Street'
- ap: 5161
  img:  'http://lh3.ggpht.com/ROImDYnOqzAZ2JsC6d1BbHEDHBXtQwcT1EblsUkMVTN5M_E6B0WeKd76CdFWHsT-I6vOqYd46_0mo3qWslBI'
  lat: 40.09118
  level: 6
  lon: -88.29329
  name:  'Prayer for Peace'
- ap: 5161
  img:  'http://lh5.ggpht.com/FSk5On23hkt2tKQwxmnQmTBsfFpI2Fo62zmSDud2TYOwYe4SjDViMIp_ehdmFSJM-i4vLJr7i74gM7L7FXNR'
  lat: 40.107119
  level: 5
  lon: -88.26221
  name:  'Fraker Memorial Fountain   '
- ap: 5161
  img:  'http://lh3.ggpht.com/J_h4tdb4wqy8bmmQfDuy5yqTR2IlkzKojfvsMOvlD-3tf1pKxbDlhA6W9Q8RX-JaSxhItMr4bmCxiUQXTLbz'
  lat: 40.10064
  level: 8
  lon: -88.24958
  name:  'Edward A. Cousins Plaque'
- ap: 5161
  img:  'http://lh3.googleusercontent.com/Tixp17uCaP682s77UzvCwWCOE6vg7iB2qEFLjACq7xtVJdHE0K3yKYsl3_SwKbiUfQWwgTQRbvfka3U0NvNc'
  lat: 40.098819
  level: 8
  lon: -88.249214
  name:  'Bette McKown Honorary'
- ap: 5159
  img: http://i.imgur.com/5j1qaiT.png
  lat: 41.886514
  level: '?'
  lon: -87.613201
  name:  '5efc6c0ab2684acd9b39968d45364fa9.16'
- ap: 5159
  img:  'http://lh5.ggpht.com/Sgu5qG2Ltp9axQc8nEr3fJ_qvNo6-gwd5TuKMrk2LM9d5P7DDy0oCoWiGnr6Ybp84FGMh9DQYLnFtBTZtBIm'
  lat: 40.113606
  level: 8
  lon: -88.243766
  name:  'Mural on South Neil St.'
- ap: 5157
  img:  'http://lh5.ggpht.com/AmsS7GEfFX-_Icem2DP6mjQahV1jeut1CGdeqLqfpyzx0m5SqhVY4eoAohizF0xsevPQufmLRMoVj2rW7Fe8'
  lat: 40.111689
  level: 5
  lon: -88.231193
  name:  'Koi Building Art'
- ap: 4972
  img:  'http://lh6.ggpht.com/SCYK-XeMmOyfRrTt1-aQNoDA-2Sib4m5Ch26mTwo6XNdVeVnfi7W74Ik6IRLAPSoKzSS97pgwt50Jl9oSgGfP029USxZzQWKNJo3rbs-6YHBPBif'
  lat: 40.116792
  level: 7
  lon: -88.241752
  name:  'WEFT 90.1 FM Community Radio'
- ap: 4972
  img:  'http://lh4.ggpht.com/mHAXKPtOyg_DWRs5A_0yhGeDsfU4f4o3xJvzziri7o3ksPPKtMAHUkUBOb0JJ78gArdP5Q6O-UiXNDG3RHaIYQ'
  lat: 40.109339
  level: 8
  lon: -88.234149
  name:  'Alpha Delta Phi Fraternity House'
- ap: 4972
  img: http://i.imgur.com/5j1qaiT.png
  lat: 40.205583
  level: '?'
  lon: -88.394066
  name:  'Champaign Countys Lincoln'
- ap: 4785
  img: http://i.imgur.com/5j1qaiT.png
  lat: 40.245226
  level: '?'
  lon: -88.3081
  name:  'Jersey Cemetary'
- ap: 4785
  img: http://i.imgur.com/5j1qaiT.png
  lat: 40.200642
  level: '?'
  lon: -88.296708
  name:  'Mt. Vernon United Methodist Church'
- ap: 4785
  img:  'http://lh3.googleusercontent.com/dnlQAi9ftw9Nx79Zq-2jo6-EvJCMD8vcxJZcy5NWGDJ3iOxzhM2gXtGvrqke6-N3F3kKBkK5Bev6RRF5RS7y'
  lat: 40.08375
  level: 7
  lon: -88.294948
  name:  'Park District Flower Island'
- ap: 4785
  img:  'http://lh3.ggpht.com/fALAYK0M4imvlOA0vpJd8uOXpb0SvXft0NJmoF1vWieQ3g-Ps3CF7wgfjFiy1v81v26SbN5Rquo5697dHPPT'
  lat: 40.083666
  level: 6
  lon: -88.296083
  name:  'Village at the Crossing Tower'
- ap: 4785
  img:  'http://lh6.ggpht.com/wk0l8Qe7j_Ph_LhyPvdNO6g8nwrxpswodrbNuOzLa3K1QNBrIVidi9iztmDXu3HtCWo5TpqDDjPsEbSl2aWUKg'
  lat: 40.144554
  level: 5
  lon: -88.248689
  name:  'Town Center Park Champaign Park District'
- ap: 4785
  img:  'http://lh4.ggpht.com/yi9OPnLGsLTvtOMNuOUfed6edO9tB6h0QmSHJaKKaiMyEXC8Aj2hz9hIvgh8C2DY76mVgNHw4S0gsYpkPpkt'
  lat: 40.148692
  level: 7
  lon: -88.248724
  name:  'Fountain Town Center'
- ap: 4785
  img:  'http://lh4.ggpht.com/h3t9nwbrudSHJ4Ll-zBceLi_U0iwpgbsVd8Wjzy_JgqMiXIqIu4CILUiFnKdayIi0htMXQ5CNowcXO7XUqI'
  lat: 40.13401
  level: 6
  lon: -88.28239
  name:  'Eddie Albert Gardens'
- ap: 4785
  img:  'http://lh4.ggpht.com/ZEK-DXu7TJqsrt7cbLRjXyr3JbENJCn1FaKxH4Oi6kEvo4K0Yzm5qzMddhRLNlXvokAwQoeG4EKaNkXnJDA'
  lat: 40.114015
  level: 7
  lon: -88.245256
  name:  'Firefighters Park'
- ap: 4785
  img:  'http://lh5.ggpht.com/H3lz_PbTP4RFYuRMUyZuMouxslODKZQ3RjFiZrITFZcpj2FuEb1K2VVlveQtOyUHG2rYZ114AGuGqK4rATI5jg'
  lat: 40.097868
  level: 6
  lon: -88.242344
  name:  'Campus Information Booth '
- ap: 4785
  img:  'http://lh6.ggpht.com/yUOWOqDbf6AO83PFdgc9HePIDDDb-Ti1NAzLec_4AwYrO5NsnWsGH7K7MDb5q22wdtUh6uqekxpMHYjlnfRLEQ'
  lat: 40.104673
  level: 6
  lon: -88.233278
  name:  'University of Illinois Armory'
- ap: 4598
  img: http://i.imgur.com/5j1qaiT.png
  lat: 40.152871
  level: '?'
  lon: -88.253305
  name:  '50197185529145c883d36b74db0ec522.16'
- ap: 4598
  img:  'http://lh5.ggpht.com/zdaFJ-aI4Re55DtEiADt-qd1MMBuWZqEByU3BbT-0eYI80maTD-8JB5vJgtwKPFsFk-V75s-itU-cBisa-W9'
  lat: 40.132819
  level: 4
  lon: -88.286151
  name:  'Dodds Park'
- ap: 4598
  img:  'http://lh5.ggpht.com/UTu16bRRNKyJj2cFsU4mRCMkGJbH7YCAm0gQdiJKjnnZtB00kMEb_-Lhf6AnAXRia4MH6FBrWQGkBCrMUz8'
  lat: 40.120135
  level: 6
  lon: -88.253121
  name:  'Rain Garden'
- ap: 4598
  img:  'http://lh5.ggpht.com/g7QDa6-HDyxpwueVfcxh6KOOM1S5jAd2MOOL2H5PYpeafOfFl-8hbijtMhWLHWrvlOdKqglGRiiaWMsEWLN4vw'
  lat: 40.116989
  level: 7
  lon: -88.242255
  name:  'Blind Pig'
- ap: 4598
  img:  'http://lh6.ggpht.com/PXc3YHSOsx0c_WrfpzvHHiHEl1FSv5RvbgXj7Ji3-xS7oBwJIkFCD8eQySiUega_iQvX8FiUBuDhXdK9l9QWIA'
  lat: 40.116623
  level: 7
  lon: -88.240844
  name:  'R. Forrest Colwell Memorial'
- ap: 4448
  img:  'http://lh4.ggpht.com/uAYfykn0e2h2UqP-anbYfkJNa38P0L1WY8FpF-CwRCPklg5wL1xYFkpGOCMt7SJ37qO8PGVE42nYX9Ba_-jG'
  lat: 40.105025
  level: 5
  lon: -88.243919
  name:  'Mural on Good Fellas'
- ap: 4598
  img:  'http://lh4.ggpht.com/9hzMj8KV-HraIucojjHAEgyMZsJAR9TWvNS-QSBB5LTYBOTwwqfTQySJ_Sz88eP3eyFWFYhx5qDVY93t8fk'
  lat: 40.108032
  level: 7
  lon: -88.225702
  name:  'Centennial Court'
- ap: 4598
  img:  'http://lh3.ggpht.com/2LmoiHH6s6FrGUTRiNNoF0WIY5lVvkXP3CTOxQjNjG2_jrgsDmaxyIZxewF_wa8mFgO41Avi733oq5-CVio'
  lat: 40.10631
  level: 6
  lon: -88.228952
  name:  'Pi Beta Phi Sorority'
- ap: 4598
  img:  'http://lh4.ggpht.com/EsyXMnqVMX7wQ4YmoCFRiNljaJqaXrQvzyzzooqx2fPxCSkJMkdEssTbf618D8Qp9hh3E4Ud3hL1M3v-TsbO'
  lat: 40.104688
  level: 7
  lon: -88.230676
  name:  'Sousa Archives Center-Amer Music'
- ap: 4598
  img: http://i.imgur.com/5j1qaiT.png
  lat: 40.203752
  level: '?'
  lon: -88.38859
  name:  'Covered Bridge Bike Trail Entrance'
- ap: 4411
  img: http://i.imgur.com/5j1qaiT.png
  lat: 39.987482
  level: '?'
  lon: -88.269801
  name:  'df77244c1c974712aa97b436f767a677.16'
- ap: 4411
  img: http://i.imgur.com/5j1qaiT.png
  lat: 39.986869
  level: '?'
  lon: -88.266876
  name:  'c0c561eb8ffb4ac380cc6b9b8cdafde8.16'
- ap: 4261
  img:  'http://lh6.ggpht.com/D-AymiJdf5gt94o_wgUJbOD9Fpl4V7PijJOjkztpP0_J2k82i1TBLDAaqcH_SUTUFe9VlllfQCsXFg_J0uAPeA'
  lat: 40.11569
  level: 5
  lon: -88.243433
  name:  'Christ Community Church'
- ap: 4411
  img:  'http://lh6.ggpht.com/4K7T7_gGrfag_-Hep7ygH_rklKsjale4oo2CqJAFTpPB5EM4Dv8ZGyz7i_qUOuLnt16GWxDSJWCS8TZYyGY'
  lat: 40.115421
  level: 6
  lon: -88.243168
  name:  'Walnut Street Tea Co.'
- ap: 4411
  img:  'http://lh6.ggpht.com/cZVUlNaHjfsB6Lu5hnj8JjUk4lvsgOV7DFz4Nl47-RaQObW1VPRpos6hTDD6WgYrNxCh9UKfn5DFU-K7lRe9pQ'
  lat: 40.1164
  level: 7
  lon: -88.242747
  name:  'Sidewalk Art'
- ap: 4336
  img:  'http://lh4.ggpht.com/9dqmZPc9OI1ON-iEnfXAxSAMX2M07pEgKUsb47vLrTrW2BW61siFLquk1fXbldWXGPg69XGdSG4wKPGS5rI'
  lat: 40.113521
  level: 5
  lon: -88.244122
  name:  'Artistic Graffiti at MCS'
- ap: 4411
  img:  'http://lh5.ggpht.com/zk2PoLrNJK2jAfA0HGQo37eMuSz1YwubD7DuFfadgkLsY_DmoY37jprPnm75I212dvrFjl_O2PQbZOLJL4Y'
  lat: 40.107914
  level: 5
  lon: -88.262811
  name:  'Russell and Louetta Reed Memorial in Clark Park'
- ap: 4411
  img:  'http://lh6.ggpht.com/YVbqGVTjJuDMDdj71CP2mWvnUIdgO25PgoDdJwEGnEE_M9I1aDgKyjSr9JOZVU6UQTZQtfUo9RAWyz92n3jtCQ'
  lat: 40.098475
  level: 8
  lon: -88.249208
  name:  'In Fond Memory of William Moore Jr'
- ap: 4411
  img:  'http://lh5.ggpht.com/dgQfoxxVeHT5ODqLiUYHV45qvkC_BMS0kIFRqvHvE2GO0TduZ0-XzhW8RE80LtPDK0Ay5xwA6PtjM7G3C9U8'
  lat: 40.108947
  level: 7
  lon: -88.232251
  name:  'McKinley Church'
- ap: 4411
  img:  'http://lh6.ggpht.com/c2I39IJvSBKmCLonmhP_RN1vLEpYY1recBXFm8xpGHxES4bAN2kvAcda8ZzvT75uq0yWQCv7N_dzP6ce5-Tu'
  lat: 40.108043
  level: 6
  lon: -88.22469
  name:  'Building of Molecular and Cellular Biology Sculpture'
- ap: 4411
  img: http://i.imgur.com/5j1qaiT.png
  lat: 40.202918
  level: '?'
  lon: -88.394249
  name:  'c47c86e036934462bff379850cb47aca.16'
- ap: 4411
  img: http://i.imgur.com/5j1qaiT.png
  lat: 40.204153
  level: '?'
  lon: -88.394092
  name:  'c956d501b48c44ec99467b20bfadc850.16'
- ap: 4222
  img:  'http://lh5.ggpht.com/hjAc940kWyt9QT4G_BJyJKaTef3jL_Njnm8ubUtQD7u6qVsD9_7TiJbgZpKeqAv60kNw8FYspVxkn-Bt1cxYBw'
  lat: 40.109959
  level: 7
  lon: -88.24318
  name:  'Mini Park II Sculpture'
- ap: 4222
  img:  'http://lh6.ggpht.com/Jz3ahY5LQ13wKWLY9SEvexiinJa3GeO1eB_FynplikRpa77swLST6cUAJjPpqKDSq2KU4Dcyui-QBstz_Z3k'
  lat: 40.094624
  level: 5
  lon: -88.282953
  name:  'Greenbelt 2'
- ap: 4035
  img:  'http://lh3.ggpht.com/NN6RkPjzu0pZ6JauW9eKN-KWuNlwHaRQ0_uMQvlrQTjZZ87KcW1-QHyqEy7ECKLDIzzsRcmsrDfbmDALT5e6'
  lat: 40.083988
  level: 7
  lon: -88.287936
  name:  'Flower Island'
- ap: 4035
  img:  'http://lh5.ggpht.com/NUOCD82iNRGW1NGqEC4FKet1u5_cm4WRNc2c9_YABAjGf6-OSCLz7HgYkP1ZuVAbpMl6Qi10HRW16Oc9jNM2'
  lat: 40.106401
  level: 7
  lon: -88.236182
  name:  'Washington Park'
- ap: 4035
  img:  'http://lh3.googleusercontent.com/ZEt3dzGoBmn_BW1MwPTE7MY4Jcoj66UkwEA7wA7H40hbb-SwJheC1V67Dh89eAbpG6H_SeWDV3E0X5lRAkQ'
  lat: 40.111342
  level: 6
  lon: -88.23557
  name:  'Boneyard Greenway'
- ap: 3848
  img:  'http://lh4.ggpht.com/gduQJyd_w8B-OfSBc3f2WHXTDEQS6LrCw1u2Q4UN45Hy4u63pJbPd7WDChrtwQg-YY3ghtec_Gy78xppTAfo3w'
  lat: 40.111153
  level: 6
  lon: -88.28617
  name:  'O''Malley''s Alley '
- ap: 3848
  img:  'http://lh5.ggpht.com/e0BZy-ClP4miKQ9vYfkRIgxEUrpGMn9VCB-nRa_Kj579pT19ZzPuvvL1MRfd1Xu_pzF1eA-hvVhF6zLxaUTCsA'
  lat: 40.104118
  level: 5
  lon: -88.285677
  name:  'Mike Phillips Memorial Plaque'
- ap: 3848
  img:  'http://lh3.ggpht.com/LI2lDP17lvIghR6Sltj6ECmzcCBHl8dTLBG7BVkPOqTkM9h8PGuXRp7mS8x3bxL-pbQzjV2HyP1y8XWbUzi4'
  lat: 40.100762
  level: 7
  lon: -88.282846
  name:  'Sholem Aquatic Center '
- ap: 3848
  img:  'http://lh3.googleusercontent.com/erdNDM4HaNMn_EeFz0IoM_0LQWykLGJ1Y7-URXSvEithPHs8Rnwf7oWZyxVKu7qOpPdKjeeCy3dkywZ7n6KrsA'
  lat: 40.111615
  level: 6
  lon: -88.235593
  name:  'Fred B Lamb Trail'
- ap: 3848
  img:  'http://lh4.ggpht.com/PmGpygZ2fBs43twk2Y44XZbgGcHWv0YimAq7Fp3vlIRRqUyLpSmDmFwcn1ucfmJarcQrAAXJjYAXAhNyxSrz'
  lat: 40.110049
  level: 7
  lon: -88.231968
  name:  'Potbelly Mural'
- ap: 3848
  img:  'http://lh3.googleusercontent.com/EwXPPCiuVPRkECPKlJtyqReSySoJKEdwrx1MkNVUy6EM9xWU_fet1Z-sLfx_P2_c54DeJcApxdl-hKg9vGVEtw'
  lat: 40.108224
  level: 5
  lon: -88.223549
  name:  'Colwell Playhouse'
- ap: 3661
  img:  'http://lh4.ggpht.com/iF9ok9WK8tu0rwNJsbJggC_OqQxiqKIF9QRpGOgIrlZa4Dr4JYrLxWeFDe43Js9WGFiKCOlMNMZapd_SBQ5T'
  lat: 40.111945
  level: 5
  lon: -88.282707
  name:  'Champaign Cycle'
- ap: 3661
  img:  'http://lh5.ggpht.com/-aOZyLFNK96FhUdQBYhmRPZrs_PB1oiLRcrPjKwFBANQ42LxLbbHfTZVw_F01meecQXfNQwJYy7qqVh8Q0gR9g'
  lat: 40.133768
  level: 4
  lon: -88.281275
  name:  'Butterfly'
- ap: 3661
  img:  'http://lh4.ggpht.com/-3OGrQoPMUHMTXGrQd8VSoFpu2nJzMezJO7qlgOrkiAgRUQ9cB8Ga3vnp5RecAdoF0N9PpnJ-x4nBpeoRXI'
  lat: 40.129194
  level: 7
  lon: -88.262938
  name:  'A.C. HumKo Mural'
- ap: 3661
  img:  'http://lh5.ggpht.com/9VuH5-qaoobAtdEZFkn2uoAcJS5Luq9QLXRevRpv9WAzkjoAB_9hftbELGCCm8M4rxAJ5xTfJWd6E6kb0Or7'
  lat: 40.102016
  level: 5
  lon: -88.281983
  name:  'Centennial Park'
- ap: 3511
  img:  'http://lh5.ggpht.com/wX6-mbTE7nT00T6ildapKbI5ZrnhPIt4l91DhMseyo3GYFrgQIuqbjh8ntZY6NxGZ-qa6fKWlyoBOPdIdNIt'
  lat: 40.114653
  level: 5
  lon: -88.243729
  name:  'The Phoenix'
- ap: 3661
  img:  'http://lh3.ggpht.com/-MRGQEVV5mNMzB4sb8JAsgVC56kTzYaFEf3mpRsfXAiO4KIrLw3LGFkt7Au97yDwY-AUSfghHcri53Zpmn-Z4Q'
  lat: 40.11621
  level: 7
  lon: -88.242535
  name:  'Inman Building Historic Plaque'
- ap: 3361
  img:  'http://lh4.ggpht.com/1BgYrJYdcGdepVZ6ibhTjtjZ6MyzKnQzLL4wxEnn_CEPnrJmOKHzPXm1qinGRA78MqKq11gKRlprm3Z7mDr0'
  lat: 40.115645
  level: 2
  lon: -88.243036
  name:  'The Art Party Studio'
- ap: 3661
  img:  'http://lh4.ggpht.com/zZ2YpVpDiI1KdIQ9iI7mGJD_VtwFztJ4ZF1vRehD9OSnQ2K3433SIg22svwcqDJVfeO2fjE3fdT4eHAJWGpi'
  lat: 40.104339
  level: 6
  lon: -88.234788
  name:  'Pi Kappa Phi Fraternity'
- ap: 3661
  img:  'http://lh3.ggpht.com/lSr_gDGX9o1BHZX9FUPCKAO2VVQjZ_NwTBaSNhNgjVyJ2p6BnLDByC_vIkhu637-W5nKMW2SShi0gXOlXNqY7A'
  lat: 40.097979
  level: 8
  lon: -88.247785
  name:  'Jarling''s Custard Cup'
- ap: 3661
  img:  'http://lh4.ggpht.com/Gyz7BDhWdUinBQfD8duByX5-aBgPmB9oSesH20dH8uGJnTiaIHkeRJARtH6YQUUD5A5X2IjPTlT989AfutNc'
  lat: 40.092773
  level: 6
  lon: -88.250951
  name:  'William C. Fox Waterway'
- ap: 3661
  img:  'http://lh3.ggpht.com/KxQsev6i7POmNh1IadCWwWQSMdCuLIYpPwIdenSlVtzum523D1R-1kfeTbuOGTkt_jDwn4jswCu1edkumm2-'
  lat: 40.110037
  level: 8
  lon: -88.23549
  name:  'Red Lion'
- ap: 3361
  img:  'http://lh3.ggpht.com/fxsMa6MK6sWcY8fyTRPmRixomHagKag2YrMZjovxjujmavVawLdmU0Mi0HpNq5kH7UUoXfELEoBOFTkzeRwV2hp9PknjajWlvhX6jYIyUSrrH76k'
  lat: 40.10952
  level: 1
  lon: -88.228288
  name:  'Altgeld Hall'
- ap: 3661
  img:  'http://lh6.ggpht.com/q48Oqk2mm3dXQ2ppK-aYGXKjIiTAOEZfrFkiLK9LXRz2uN9hSKihKeCwfg33q1Z2zMTIMjqJRjPA1U_V3pbR6Q'
  lat: 40.104417
  level: 8
  lon: -88.231962
  name:  '1926 Sigil'
- ap: 3474
  img: http://i.imgur.com/5j1qaiT.png
  lat: 41.796394
  level: '?'
  lon: -86.745611
  name:  '08e5828680624a99a6350cc749a1eed9.16'
- ap: 3474
  img: http://i.imgur.com/5j1qaiT.png
  lat: 41.796572
  level: '?'
  lon: -86.745894
  name:  'd4d0d35bf19f4e9a8de23e22350393e7.16'
- ap: 3474
  img: http://i.imgur.com/5j1qaiT.png
  lat: 40.196926
  level: '?'
  lon: -88.366258
  name:  'Filippos Pizza and Italian Food'
- ap: 3474
  img: http://i.imgur.com/5j1qaiT.png
  lat: 41.797062
  level: '?'
  lon: -86.74637
  name:  'c3ef5a564286419fb438f3d1b199239c.16'
- ap: 3474
  img: http://i.imgur.com/5j1qaiT.png
  lat: 41.797543
  level: '?'
  lon: -86.746098
  name:  '7010f46e7b8a4af3a125f743e5c7aa59.16'
- ap: 3474
  img: http://i.imgur.com/5j1qaiT.png
  lat: 40.589703
  level: '?'
  lon: -88.383298
  name:  '1283fc2d103c4463811120816366ad3e.16'
- ap: 3474
  img: http://i.imgur.com/5j1qaiT.png
  lat: 40.749295
  level: '?'
  lon: -88.511856
  name:  '7434631923f14660b419ff4535a6d72d.16'
- ap: 3474
  img: http://i.imgur.com/5j1qaiT.png
  lat: 40.586402
  level: '?'
  lon: -88.383916
  name:  'd642f015efd04fc7a35f14dfc2c894d0.16'
- ap: 3474
  img: http://i.imgur.com/5j1qaiT.png
  lat: 39.966649
  level: '?'
  lon: -88.345263
  name:  'f91d12c0ef074e13a5978fa658722945.16'
- ap: 3474
  img: http://i.imgur.com/5j1qaiT.png
  lat: 39.984882
  level: '?'
  lon: -88.258895
  name:  '0532d10ca76f4f4a899fb08a14bf968f.16'
- ap: 3474
  img:  'http://lh5.ggpht.com/XSTOU98iZoBFcDNR_YYJQfmQaiD_vXAP5Z7R79nVC7k06VMhH8tHSb9Yb9Pe8OnV1svwvlvy6iyz6vMjg3_EzA'
  lat: 40.132804
  level: 5
  lon: -88.285013
  name:  'W Glenn Karr Memorial Plaque'
- ap: 3474
  img:  'http://lh6.ggpht.com/ukIJOts1W6BPpII4XC4_Q5Wh8Gz8aCNeGUuAtaLknm7OKhNYvlDd71ZN8hcxCRcJDhDjV0qBZgFRyYMGNeS6'
  lat: 40.100203
  level: 7
  lon: -88.281602
  name:  'Karlee Elizabeth Feinen Memorial'
- ap: 3474
  img:  'http://lh6.ggpht.com/bFwJFYYW2YoT3hMGr1ejzv_Vuifm5-ZJzMPcWnpZkQQ9dQSdupKPZDVNHvroawUBMuTAHOJBxvmai305qSe31Q'
  lat: 40.097523
  level: 7
  lon: -88.281912
  name:  'Westminster Presbyterian Church'
- ap: 3474
  img:  'http://lh5.ggpht.com/tuo_ByFTbwLitFP5cBseOibqRxENxbCwOJ30dCnja5ijBI_qBv5vqNP7ZuZXnxhYM6ms_GbExZEwwKVUtwV2'
  lat: 40.093712
  level: 5
  lon: -88.281583
  name:  'Brownfield Dedication'
- ap: 3474
  img:  'http://lh6.ggpht.com/p2F3xw4xL4UdiMM9aSy628ISSglrvjPexpF3j340tMAP9MX07yh_sJv7kHVkeud8lyFf2ZwDohw3zsRS2PSd'
  lat: 40.093914
  level: 5
  lon: -88.281531
  name:  'Terry M. Warmbier Memorial'
- ap: 3474
  img:  'http://lh6.ggpht.com/XsUl74M1oxj6ptAvGEBOMH2wivRhxBNns62UJSGcPiQkuJIgPrmUYxMpSZZUfXRMMjrwoxlFK_DbAM78UrOh'
  lat: 40.113499
  level: 7
  lon: -88.244374
  name:  'Shatterglass Studios Mural'
- ap: 3474
  img:  'http://lh4.ggpht.com/ryDcZUJK2aQ_fI0-hY850_t4ZmG2hNmtCx7cxbX83w3cnUWdI-ywpTuQrUVQNxGl3_DcxxNr6bupfDTsagRa'
  lat: 40.117107
  level: 6
  lon: -88.242467
  name:  'Radio Maria'
- ap: 3474
  img:  'http://lh5.ggpht.com/KadNuhjGK6FUXezGHW1W1kfPOQV5l7gJP594EQm5nPZFLTgcTsjl4ixa-j7XitgtyJyou3q0pTfMr4i2E_avIA'
  lat: 40.118013
  level: 1
  lon: -88.243445
  name:  'Clock at Neil and Main'
- ap: 3474
  img:  'http://lh4.ggpht.com/tLO2wjyCgyune3KDOlQMV_oiDRxVsHqO1gAG_0xs9TvKOiuWRVmJcO29WI7jELxoxncaXpy91kMa89Uj65JVNw'
  lat: 40.11784
  level: 2
  lon: -88.24286
  name:  'Kaufman Memorial'
- ap: 3474
  img:  'http://lh5.ggpht.com/KYppjeOoIlb4lbowRrrC5qRdYW7_KU8rzjtDMpvhh-Q_c6VZOTtVmOqmmxChJA2hjlpS5dJ1JnhUQcKUAXDWHA'
  lat: 40.117976
  level: 2
  lon: -88.242642
  name:  'Stevick Building'
- ap: 3474
  img:  'http://lh3.ggpht.com/EGYOVzf1FmU6Mz8ck5GAJFFgeuTA6oTO3IOT84oXeO7EDtQ1lVD7VMiAxfWmaaW4Tg0x8IJ3GJnW-66LEgTN'
  lat: 40.107237
  level: 5
  lon: -88.262891
  name:  'Donna & Otis Myers Memorial'
- ap: 3474
  img:  'http://lh4.ggpht.com/maBwz4G9LJZ5aVuX_WF1Z73xSbqoFsm3l6oyrNQ16LkJMvaEbFa-amdfCpKDVDe7NzjReNu8IGnn7BAI8yef'
  lat: 40.103534
  level: 8
  lon: -88.243478
  name:  'McCollum Park'
- ap: 3474
  img:  'http://lh4.ggpht.com/XlTZ26_29c4-74t23p1lgghqNfLI7aS3_kradmcl7vVQzV9jJRu78D1HdzJf-sWibnak644kxCBJDnA594PVaw'
  lat: 40.092849
  level: 4
  lon: -88.251586
  name:  'Boulware Trail'
- ap: 3474
  img:  'http://lh3.ggpht.com/ugJXpaIWZ-wI1vpderJmQjM8r0T5_Li2j4hvvsu4fRM9k3MeBpETqj2LFNd1pEkcfH0I9bgZh--5g1AEJKkq'
  lat: 40.092745
  level: 4
  lon: -88.251235
  name:  'William C Fox Honorary Plaque'
- ap: 3474
  img:  'http://lh3.ggpht.com/tXDyz6XRrR2AKSg9Rrj1z6jBG4dz7uR9qFmSUO1bWljMEw67ncNiq-2Hx3O9Fs029iRtvCV1gdlGN7pG69L0'
  lat: 40.114104
  level: 7
  lon: -88.237694
  name:  'Lo Park Fountain'
- ap: 3474
  img:  'http://lh3.ggpht.com/u-v3itkeM0VuM3kSQsa0wO5TAPiR3fou2d-_1ukh5ZZQlHVDJyJ6vyb3Q3ONlRDfvaHf2Nw-aWwerNtqz3rH'
  lat: 40.106197
  level: 5
  lon: -88.228614
  name:  '1913 Pillars'
- ap: 3474
  img:  'http://lh6.ggpht.com/cYQLNtCsiRGXd_y7-ZdI4jGlNRpC4oiy2Z7UT7etDH3FBvBRQDtOW_rY0NBvKLJMnTw_EXH75NDGMcI6UkeV'
  lat: 40.105618
  level: 5
  lon: -88.229005
  name:  'The Chapel of St. John the Divine'
- ap: 3474
  img:  'http://lh4.ggpht.com/7U0YXCB_DIhnqPJyjyLpNn6kg4lU8HvKL87ddBKWq1sptvVLvCEiCuNEnghQtqDGSN2OBNcOUK9nZcYjY4Vr'
  lat: 40.107887
  level: 6
  lon: -88.225998
  name:  'Lifesaving Antibiotic Plaque'
- ap: 3399
  img:  'http://lh5.ggpht.com/VYMooLhz51W3fCgti3L9LEQNMJjmFeW30saxIYK34yGEReG1naEKEd3eW1uyFgSlzpu-P5KertNDe4Z6qu8'
  lat: 40.109913
  level: 5
  lon: -88.228393
  name:  'Alma Mater Statue'
- ap: 3474
  img:  'http://lh5.ggpht.com/1yq3oFq9p_Yl5cUf5h7IEfZPAbae2MT7lA0DFo1DHwPWPZJJ-Ez-2AE2oTzHEHWsEJQVUcUwh3j_d3kOYgDS'
  lat: 40.110095
  level: 7
  lon: -88.22862
  name:  'Alma Mater Plaza'
- ap: 3399
  img:  'http://lh6.ggpht.com/64IV2qUnTMiqle4uf3QZ1RdIJnGJem9Xw1SXDvegN5IpDzOnXxPexG5rW5aPWKQFH2uzgbGOdRcAIHEHWkNtkA'
  lat: 40.116363
  level: 5
  lon: -88.210407
  name:  'Leal Park'
- ap: 3474
  img:  'http://lh4.ggpht.com/od-YwvgDUh147ERgyvR4ZvVNnvSUJwZb_q94O_n0xbffXg01CMZd6RCZwCJ6GgTpW-ex3M0C8w0k6USjhZ-g'
  lat: 40.115915
  level: 5
  lon: -88.210027
  name:  'Darius E Phebus Administration Building'
- ap: 3399
  img:  'http://lh6.ggpht.com/C_toB9OzPQfQlIsaofeLapNvJVZ1oyDCghG_zzygf8kBY7AiN-utXz8pmgHfwdbakaJplnCeNXbXzEd-VvI'
  lat: 40.116152
  level: 5
  lon: -88.210122
  name:  'Arborist Society Plaque'
- ap: 3474
  img: http://i.imgur.com/5j1qaiT.png
  lat: 40.199222
  level: '?'
  lon: -88.382509
  name:  'baa170273cd749acb5338139770e8f70.16'
- ap: 2911
  img:  'http://lh5.ggpht.com/pSVHjk6puyYdv3ztHlpJGnbkZyGsGsirMnxkDhlt8UMko4AhtTQbrzwInBCu5lK4Ttf7furE5pNW2AZh8HuSZQ'
  lat: 40.138109
  level: 6
  lon: -88.270158
  name:  'Glory Center International Church'
- ap: 2911
  img:  'http://lh5.ggpht.com/GN_FYcjKjamCNlfD8yA995MpcEHa9gIZVV6FBYtdeiNr_XgtCIN6gnN6_dSKwt-DenNMN_ZiJaG12iLuY6wt'
  lat: 40.103588
  level: 6
  lon: -88.233095
  name:  'Huff Hall'
- ap: 2724
  img: http://i.imgur.com/5j1qaiT.png
  lat: 40.454401
  level: '?'
  lon: -88.098157
  name:  'Just Hamburgers'
- ap: 2724
  img:  'http://lh3.ggpht.com/STEfnDDHEff3fffoWiEjvWm4SETgCRyRIvPgf92kzrsxo3sdh1SNg1AmGiFqvspDfSx0OXri-AXVfOZRWRMe'
  lat: 40.13156
  level: 7
  lon: -88.239027
  name:  'Human Kinetics Park'
- ap: 2724
  img:  'http://lh3.ggpht.com/psgrRGIt786cUSq8EV7SBSDsS-aptrUKjaCXWv864H7OaJL2K71qJpxU9Iw-acwFMi52ZN2qpEmicGmlmhJq'
  lat: 40.121061
  level: 5
  lon: -88.250227
  name:  'Curtis F. Columbia Legacy Plaque'
- ap: 2724
  img:  'http://lh5.ggpht.com/j6Gqd19ib1ziWv7UKoq4_fMXeXtxxdV85TchQ49_mIgeJYs7oUWOj860aB2Ok8NGNY5wNfMqDn7zeSKOgpxEzQ'
  lat: 40.108781
  level: 6
  lon: -88.271694
  name:  'Champaign Church of Christ'
- ap: 2724
  img:  'http://lh5.ggpht.com/H88EzgVTAsWrhBcyG4PwdAbPDu4BLlyXkVIBnJ6gtmNusC2MU2vLumSrYGbl_7GmGJ7f5kE-6ebyy_VokU0L'
  lat: 40.107512
  level: 7
  lon: -88.244964
  name:  'Fellowship Circle'
- ap: 2724
  img:  'http://lh5.ggpht.com/8M0cUsd4eq3jg7zuefsRRnxKhwn5q8xipPHTaf8z-o4xdGPYl0NgpiXIMDSknrQjcvRUOzyzWYsXHRqlfOY'
  lat: 40.102064
  level: 7
  lon: -88.284067
  name:  'Lindsey New American Gardens '
- ap: 2724
  img:  'http://lh5.ggpht.com/9XV46K2cUd84oc6HPyqlj53LKJS8lVs0f0gPHSCBkkTwiHaxivu36dlAj5M38EzK-2U4xhvZJ7AiVvGM5yk'
  lat: 40.118175
  level: 7
  lon: -88.244562
  name:  'The Russell Building'
- ap: 2724
  img:  'http://lh4.ggpht.com/ik1uVZ-KWyRH4dh51LJI7gFmnM7bmfSZ-1YqfELbVQEvuo-gEx2QpG6jQpFPeAlFPi2rVPAuzRmXMD0Whsm2HA'
  lat: 40.122038
  level: 7
  lon: -88.245318
  name:  'The Old Residential Block'
- ap: 2424
  img:  'http://lh5.ggpht.com/XQVr2AUWddJQMpYbapEIpcTLBeBvcpgmW016VjkAOXrp8_P2VsMxQY8FVhtDhA73iTCXCPiydjFIJcbcSa8_'
  lat: 40.116206
  level: 3
  lon: -88.24306
  name:  'Indigo Art Gallery'
- ap: 2724
  img:  'http://lh6.ggpht.com/_k_xJSt6mwst9haWnz5tw__yVrH9BLFSKnCMCEw9V271FMTnmEoDA4E6HprjvPTSiaBeKZmxdG3waPIapBMa'
  lat: 40.125369
  level: 2
  lon: -88.250074
  name:  'Mini Park VIII'
- ap: 2724
  img:  'http://lh4.ggpht.com/HEEvU2OlgWiV5huAu3cvNKaI-C8YKYTO3qB8WMTO7EbsjTO84KS6jLjbGCq7THZq6l63UiUKCSEqY2IADYns'
  lat: 40.091766
  level: 5
  lon: -88.250003
  name:  '"The Cranes" at Fox Corporate Center'
- ap: 2724
  img:  'http://lh5.ggpht.com/Tn5ARN-X6VTc2q6atZ2WYq3c2g3gbSGXu6_vXf1MDwHfLpdTtnQ-CilBAVGvL6R-SHhq3fJ4WZI-yiJKmIId'
  lat: 40.110398
  level: 8
  lon: -88.235143
  name:  'US Post Office, E Green St, Champaign'
- ap: 2649
  img:  'http://lh4.ggpht.com/l4w3T1e27S5zPAMN3Mr-LqJ51cbm26ThR-ubvfUFHpl28dkeRb_CQThuhJ_HSNhdYt_dX9NTAN9hKFsDeWJQ'
  lat: 40.108295
  level: 6
  lon: -88.224083
  name:  'The Landing'
- ap: 2724
  img:  'http://lh3.ggpht.com/A87H2Ev-nSq_HCpnUCxDLdRG04MKhj9Uap_0Ii4kdUx_db5SwcKhAAOey5ls43XiDLYaw7uYymdNMcsAXfNo'
  lat: 40.106182
  level: 7
  lon: -88.235521
  name:  'Evans Scholars'
- ap: 2724
  img:  'http://lh6.ggpht.com/yYW6Egg1lWn6UqqLzlgqwCQhtbuxiZSW4TmvI1XBPs33OTTJ0oh51XZXOIILxGI2juoO-E_YfG5UHmeb34rSOw'
  lat: 40.109165
  level: 6
  lon: -88.230269
  name:  'John Street Plaque'
- ap: 2724
  img:  'http://lh5.ggpht.com/fGRHfMAqdWrUnPE8GStKSdMkgQmu9qvuxAC4VzcU1v2KyxQu2BeuJKhvhefSeFNTkgFh6YdR-F4P6plMbh0'
  lat: 40.110194
  level: 5
  lon: -88.231488
  name:  'Fighting Illini Memorial'
- ap: 2724
  img:  'http://lh6.ggpht.com/-flzg4lDDrUKk9tz52QmAPy1_59-9KbIO96Br3rNDxK1nmopyzD21z31JQVdJNJHB-Cy6IsEX0VwBbVwvd5r'
  lat: 40.104256
  level: 6
  lon: -88.225268
  name:  'Institute of Genomic Biology Gateway'
- ap: 2649
  img:  'http://lh3.ggpht.com/jnMeoF6SBZ0Iinf5GnB2N90IMGTEQdGggLITfjWcIY6d5yipHaBN52a1NPxmn-VFwc_G1cHiMmyEDGg5nkwo'
  lat: 40.101623
  level: 5
  lon: -88.231761
  name:  'Metal Spire'
- ap: 2724
  img:  'http://lh4.ggpht.com/pWMrJGcrxdHbkyzK9GJLFBQdvgWtZzdJOIMHr66tCffHpsZd5e8NTrSPkYm0T9i4vtEVhARdLo6tZ7xLadU'
  lat: 40.108294
  level: 6
  lon: -88.224348
  name:  'Bird Of Prey Statue'
- ap: 2724
  img:  'http://lh6.ggpht.com/hPutcAvS7zQN-tagfEY-fvkvdlgj7j5sZwUSLY883Twc7tHyslIAp7lzWYciJmCytDfsbFQtavAlzqGwCgFZkw'
  lat: 40.105562
  level: 7
  lon: -88.234991
  name:  'Acacia House'
- ap: 2724
  img:  'http://lh4.ggpht.com/S734i_6SihPtJW8WdegLb3gEuKeNx8e1qDm6CXjREzYHohw7XqL82m4EF2K5nS2TixHweLn3EuJ4YoQnrsw'
  lat: 40.107751
  level: 7
  lon: -88.231532
  name:  'Graduate School of Library and Information Science'
- ap: 2724
  img:  'http://lh3.ggpht.com/gS3gT_deXzbDvejCL-5ygs31dw9bLQqYr2nDcLPZiv6nQzahJl12awG1a2pwKbFuoTlsHQYxQ2O7HDXL4-8'
  lat: 40.110358
  level: 7
  lon: -88.230181
  name:  'Murphy''s Pub '
- ap: 2724
  img: http://i.imgur.com/5j1qaiT.png
  lat: 40.204951
  level: '?'
  lon: -88.384876
  name:  'b0532370be9c4b2585b6d599e0b06ad9.16'
- ap: 2724
  img: http://i.imgur.com/5j1qaiT.png
  lat: 40.203922
  level: '?'
  lon: -88.387753
  name:  'Covered Bridge'
- ap: 2537
  img: http://i.imgur.com/5j1qaiT.png
  lat: 41.793359
  level: '?'
  lon: -86.743359
  name:  '2e0e01fd74be47beb0e95386d18b204d.16'
- ap: 2537
  img: http://i.imgur.com/5j1qaiT.png
  lat: 40.392777
  level: '?'
  lon: -88.872222
  name:  '457d173f728846fbaf0e7d83f3625cba.11'
- ap: 2537
  img: http://i.imgur.com/5j1qaiT.png
  lat: 40.160669
  level: '?'
  lon: -88.314706
  name:  'Grandview Memorial Gardens'
- ap: 2537
  img: http://i.imgur.com/5j1qaiT.png
  lat: 41.795015
  level: '?'
  lon: -86.744547
  name:  'aaeb2654deff48c0beaadeede8d1424b.16'
- ap: 2537
  img: http://i.imgur.com/5j1qaiT.png
  lat: 40.026865
  level: '?'
  lon: -88.535309
  name:  '978bef9392354bf895fe9c00c1cf2a7f.16'
- ap: 2537
  img: http://i.imgur.com/5j1qaiT.png
  lat: 39.923213
  level: '?'
  lon: -88.572156
  name:  'Bryant Cottage'
- ap: 2537
  img: http://i.imgur.com/5j1qaiT.png
  lat: 41.419337
  level: '?'
  lon: -88.766333
  name:  '3ecfdcb85aff46958565089bec8689b3.16'
- ap: 2537
  img: http://i.imgur.com/5j1qaiT.png
  lat: 41.021083
  level: '?'
  lon: -87.73164
  name:  '9d279ed96cef4c29bbd549a689956180.16'
- ap: 2537
  img: http://i.imgur.com/5j1qaiT.png
  lat: 40.39473
  level: '?'
  lon: -88.872321
  name:  'c89035b00e8f49cd9942782aefaa86de.16'
- ap: 2537
  img: http://i.imgur.com/5j1qaiT.png
  lat: 40.113034
  level: '?'
  lon: -88.040717
  name:  '78c54d4314e947eea4e767ed107071ad.16'
- ap: 2537
  img: http://i.imgur.com/5j1qaiT.png
  lat: 41.05025
  level: '?'
  lon: -88.095201
  name:  'f04e1119fcb441a091d6d7c3866cbfee.16'
- ap: 2537
  img:  'http://lh6.ggpht.com/ZpJuVeWuDsVo9oPzh9mGzFjeTz2FQluKlriJijNL29HFEEWmMBqok5fCxVis8MpHqJYCBQUhRLNU9yuE7luP'
  lat: 40.129233
  level: 6
  lon: -88.238696
  name:  'Bristol Park'
- ap: 2537
  img: http://i.imgur.com/5j1qaiT.png
  lat: 41.79207
  level: '?'
  lon: -86.750434
  name:  '1698a60ec48543f7b804c12aa32f3409.12'
- ap: 2537
  img:  'http://lh5.ggpht.com/8EXhrgcMBH0nDBQWTAlAwNIhxzaY7maIjYjg3fJnzGIp6_FNs98dPrYY4mtl4vhkPI5WQ1Xp8_V4vj2hAb9a'
  lat: 40.112026
  level: 5
  lon: -88.295327
  name:  'Carpenter''s Union Hall'
- ap: 2537
  img:  'http://lh3.ggpht.com/eFFdc4ogWkS9n6Texp4aw9BhK-M6FRxwvMRH-YkXj7JP7qSRQdo7E0-0O4P7NawgvduxpxgjnbGHbN1BjW2_'
  lat: 40.114585
  level: 5
  lon: -88.311371
  name:  'Joe''s Park'
- ap: 2537
  img:  'http://lh5.ggpht.com/auV57ljlnFqueFTLTeFUjp6iIJxsNFs7P_alBDZ2FNvEvUPvRMBhZCrgQOVfMPf7RIyYAHZLElyAiVoJXCFYkw'
  lat: 40.135716
  level: 4
  lon: -88.291946
  name:  'Campus Solar System - Jupiter'
- ap: 2537
  img:  'http://lh4.ggpht.com/0UzQDuaKLiiPhEgEmKghfkzvXj6lROhxPIDJuI4nWLJFvdxJwGNcJZ1va0K_9cy4L2u0Zyeqv_qlIAwch5o'
  lat: 40.133475
  level: 4
  lon: -88.293988
  name:  'Parkhill Applied Technology Center'
- ap: 2537
  img:  'http://lh4.ggpht.com/vKkSwERLa3zQO2UUIiYl1AEruAx1QTPcP4jSmPt89PG4AviJ1WhlVVH8qmqJ0aY2gqJmHcqdZFcM2pQconc'
  lat: 40.139375
  level: 5
  lon: -88.272793
  name:  'Salt And Light Ministries'
- ap: 2537
  img:  'http://lh4.ggpht.com/T-65fHAmnGmht8xdcXCF8weDy3uDecS4uOASIFtQBn7v84jrUpS3m9_rbJ1MNz5Syzjr8g_zO6YPklMYjlZQ'
  lat: 40.13695
  level: 6
  lon: -88.259966
  name:  'Goodwill Donation Center'
- ap: 2537
  img:  'http://lh5.ggpht.com/d_xORafhhRGmWQQYxORFs1dW_6uXGimDkw117yVoO46fU96UHRY1GWk3ln65AsNRtevh1vFgECrCK8gJD4Y'
  lat: 40.133113
  level: 6
  lon: -88.279062
  name:  'Champaign County Workers Memorial'
- ap: 2537
  img:  'http://lh5.ggpht.com/BoAN9OSCH5u7G1sestzZaXjjik82i-SteF6-r5KTTyl530q9H5G3ibjJdqpGGY-nL8MypRXn2twwvn_y5nMmug'
  lat: 40.133159
  level: 3
  lon: -88.28778
  name:  'Campus Solar System - Saturn'
- ap: 2537
  img:  'http://lh6.ggpht.com/f3cOUn1gqLkJZQzs4-Y9j6j2ZXbb1Kmzf3klCFzF8zmFSlZZ-B6O4-5t1KIX95jbYUjeqMgOohEf1ilF75Uqyw'
  lat: 40.132777
  level: 3
  lon: -88.287351
  name:  'Parkland College Prairie Restoration Reserve'
- ap: 2537
  img:  'http://lh6.ggpht.com/fucvhGlnRoH9QYMkBK1r2Qy9oOUZI9LZdwLXsHqHS7XxfmsgA664AxnJIiuZbPqBqjL4bEh26NiX3a3QfkoIY--DKozCDKry192H0Pl_l_XL4Mk'
  lat: 40.118481
  level: 5
  lon: -88.268463
  name:  'Huber''s Antique Street'
- ap: 2537
  img:  'http://lh6.ggpht.com/rbEeQxbZyvrUu5nCQma0PzHtlA4cmaa9jItLke0b5KBmVlYP0q0d9OYg0_jrSi-8RiYOSdJklSevnYpoyjBWgA'
  lat: 40.118265
  level: 5
  lon: -88.268383
  name:  'Hays Recreation Center'
- ap: 2537
  img:  'http://lh4.ggpht.com/PfcTU4XsA06ThtmCWydIWhTsN3gR4jrqnrKxu0O5lhyibhRdKMEaf3jM8VNhViF8qLf13b01E71wr_ajxn0'
  lat: 40.118465
  level: 3
  lon: -88.245077
  name:  'Mural at Nitaya'
- ap: 2537
  img:  'http://lh4.ggpht.com/rQD_MUFUx5IX5GhvurUrhiG2rCDy2Aiq_hvzN0YySpYA9cIb_aEAyBhyeFhFL7B0LdpEAAIDkqGcOv4wsVM2'
  lat: 40.077891
  level: 5
  lon: -88.259583
  name:  'Noel Park'
- ap: 2537
  img:  'http://lh3.ggpht.com/BTOxkIG5jV6VaSJtyt1Kge-WlIsvddZuz7YzzqkQhAMWxgfE71ab2wqWdKY20M9-6zbGlVq43XMJ2CrZDqU'
  lat: 40.127246
  level: 8
  lon: -88.276738
  name:  'Kraft Giant Macaroni'
- ap: 2537
  img:  'http://lh6.ggpht.com/_MJDV4NA2u24dbhr1ulyabSdnTuUBUv1xFpOPKbit_dHtoaRkFxqDHaRZBZ196LNyiSHUE5lNT4MCbhqCrzh'
  lat: 40.098459
  level: 8
  lon: -88.282083
  name:  'Flower Island'
- ap: 2537
  img:  'http://lh5.ggpht.com/_quRYtw1nQsDlSn7VjdJ72LlgiwnF7tlWU9s2H40vdM6ILPMiOgmzt_fUXz7ocFI5MT7YWs-smZ9a6H7XR0'
  lat: 40.101822
  level: 5
  lon: -88.282612
  name:  'Winifred Nielubowski Memorial Plaque'
- ap: 2537
  img:  'http://lh5.ggpht.com/uICg1AgxErKugaXSVrAGclLigtqDUyOsaOIldV_S086SuGvckMN90PIxdZehZMktOsdxW3Ok9k7Hcx5UJSd9ZA'
  lat: 40.102217
  level: 7
  lon: -88.283855
  name:  'Lisa Dodds Memorial'
- ap: 2537
  img:  'http://lh6.ggpht.com/A3o1Nm3JPbfRGX8fs0D87GlAc2sSTKVl6IimAZxRyIfLyPcsMcbx7s4WqUTkMcz70wzyETv1zaJZtlBTRdBG'
  lat: 40.083723
  level: 5
  lon: -88.288027
  name:  'Windsor Road Christian Church'
- ap: 2537
  img:  'http://lh3.ggpht.com/m6U-TO88Q5GMQfUN_VkhxMau1rCnKRk4Cq4wo4AL6VjfkLQYyM81LdKWD18uetEmGbgMRpaIUgSu68ybtTVr5Q'
  lat: 40.124442
  level: 5
  lon: -88.260589
  name:  'C Richard Vogel Memorial'
- ap: 2537
  img:  'http://lh3.ggpht.com/7sJlWdBFFcLCXWnnfB6SVTzCCDM0Q7KyV5jALfrWG3ICtkw7HXrjzaRrnzSiv19wIswpZoTxKYudzYiZnT9Shg'
  lat: 40.112536
  level: 5
  lon: -88.256779
  name:  'Framer''s Market'
- ap: 2387
  img:  'http://lh6.ggpht.com/QhX7LQjknZJxL4GjIVRORINW4Ftw5F854uaMsoIWpHQNzoc_1c8nRxsoxw27U0InC7UZkcxueRyo8sqyTD7-iA'
  lat: 40.113262
  level: 4
  lon: -88.257966
  name:  'Grace Lutheran Church'
- ap: 2537
  img:  'http://lh3.ggpht.com/Vcus4uEIgRrZOTuMTz10IGc3qhU5MdpmGnEzN_IiBQrVm1M6Q26geFSgc4VIbgx12Utl9V52J1Y4g35V3MneDg'
  lat: 40.117215
  level: 1
  lon: -88.245551
  name:  'The Virginia Theater'
- ap: 2537
  img:  'http://lh5.ggpht.com/2jocF-ooKfacyT7HSwrwNcZTSN02yFkcmXBkPx777CYuD5O6sHPHwyUabblNOl_37YOxba1Gjid-TOwLVBlJ8g'
  lat: 40.116448
  level: 2
  lon: -88.248459
  name:  'Uppercutted Sculpture'
- ap: 2537
  img:  'http://lh6.ggpht.com/Jj5dr0C8flwov23nPbKRDVme7HOE0xZvNC6JkRscLlNqRr6uxkxBExdu-rQUdt9kZtd9e5dvHsv6Vs1Hdtd9'
  lat: 40.117186
  level: 5
  lon: -88.241556
  name:  'Champaign Limestone Sidewalk'
- ap: 2537
  img:  'http://lh6.ggpht.com/BANSBFfuZ3_0ya-JodV7jEB1a-DwSOyegBwPKAODSUFHLmvI7b8zwSiLUAvvqIAYjpU6S_Lm8XRBJ30KDGCIEg'
  lat: 40.116917
  level: 6
  lon: -88.24078
  name:  'North Star Sculpture'
- ap: 2462
  img:  'http://lh3.googleusercontent.com/oYQaQpOQ2HICancOs0DcaCqX1KiTJEoAeKp6EUWBs5u-TjTKqJlzTSzA0QMldAg6HLWb3rX4m4_cwKwGCtpV'
  lat: 40.118684
  level: 6
  lon: -88.244894
  name:  'Farren''s Pub and Eatery'
- ap: 2387
  img:  'http://lh3.ggpht.com/urNQaRe_wrjSAoW-Iis4CKHBvHhg6xwTvUcQPw4MqlQNK9ZuhMKEVtca2hGJnOCbyCC7ehJNuG00XZlaGXo'
  lat: 40.118898
  level: 5
  lon: -88.247032
  name:  'First Presbyterian Church'
- ap: 2237
  img:  'http://lh3.ggpht.com/GGBe9Hug3fUbRCRAMs_kO1fg2HHQ95ZDBdW0S2tAHakvhQbWxlttanjhGNJJcyVRruUlL7zjQnPGI2bu8Wc4'
  lat: 40.117905
  level: 3
  lon: -88.242149
  name:  'Read All About It'
- ap: 2312
  img:  'http://lh6.ggpht.com/eeOtj4-6PU8Dt6QXk_TJjgkoEGRW9L8YzUqZE8QV5ZMCHnqA5CzoQoxKpnjCvXwaIflUUvPJmO_S7BdvMhcuzw'
  lat: 40.117588
  level: 3
  lon: -88.241787
  name:  'Adam & Eve Mourning Over the Soul of Abel'
- ap: 2537
  img:  'http://lh3.ggpht.com/9aQBG-poFARclK9XL7iFIvWePkawZwWhv4Sh0zQhQ0Sy9gdDD508d4gCtpcUP9UNoYM6uztea0aQ05RPd9rZLg'
  lat: 40.115412
  level: 8
  lon: -88.245046
  name:  'Eddie Thorpe''s Memorial Rock And Tree'
- ap: 2537
  img:  'http://lh3.googleusercontent.com/SjusdEZ1n6AkcvHdrM3TfGAqP_W5LJRmm4qEdm5xmdvHcBejD6Jg0kXCZaHyUk5WGeE8Zu0RrSSq_1VDXFU'
  lat: 40.117419
  level: 3
  lon: -88.240991
  name:  'Old News Gazette Offices'
- ap: 2537
  img:  'http://lh6.ggpht.com/yoVMhDWju7bkAa8CImnlTqi4n2uH0odsX-LgEGeq_lqcXSmf2HQxX-c00NB1noOlmnFs51tZqBQXBLIJRfr8'
  lat: 40.117495
  level: 6
  lon: -88.241616
  name:  'Lincoln Building'
- ap: 2537
  img:  'http://lh6.ggpht.com/yQPHFh4brRKGyXx9PtGN3hQza65T2PIyjArUf9NgW5fqFvx9m22oY2acMcEwFcVRNh0MTfGqc0WfMJFOt1io'
  lat: 40.10725
  level: 7
  lon: -88.244219
  name:  'Titan Games'
- ap: 2537
  img:  'http://lh6.ggpht.com/qSCp5fQMlyCQ-GOAgiSFy5gaHJei705Pa3eOlJiYO5wGjZTYtjA8q7QWWfAWcLKjxZSaFiMfXOPR8SO7rWU'
  lat: 40.099353
  level: 8
  lon: -88.251876
  name:  'Raymond B. Cattell Memorial'
- ap: 2537
  img:  'http://lh4.ggpht.com/L3_3bdFGcwi5zvNhxvPnMFZZEm1bKFSEVI3DOlF-FaUcX4jDGEwZ8xezrXUq6-71tbPP7kIe9PT1CTTY-ZjJ7A'
  lat: 40.114539
  level: 5
  lon: -88.224663
  name:  'Bench of Opportunity'
- ap: 2537
  img:  'http://lh3.ggpht.com/LR76HrJqriPFUoc2XSs7jb2SotnStZv20kI7rgUx8B5HqhmetnTW4MA1tCp1ws4g5gw0sf9g7M3Lwq4VwfpD'
  lat: 40.111687
  level: 6
  lon: -88.225353
  name:  'Transportation Building - University Of Illinois'
- ap: 2537
  img:  'http://lh4.ggpht.com/eoFw5gx9tcBj51FvuWLBsaFZ7TdxW0i1ez8HiVWtHsPE262Fcf5-fE7MAIzvgDr2tLCZzG79np6cdQDZzWou'
  lat: 40.112029
  level: 5
  lon: -88.23655
  name:  'Scott Park Bridge'
- ap: 2537
  img:  'http://lh4.ggpht.com/ETgOsKlMmsv5wRT-aM33VVVEgFvp3ZoMxqXmYKxROpFAYnfPqjWhltqYBG7ajEuM8XKf3mVeSaF7r9grm2t8'
  lat: 40.113448
  level: 5
  lon: -88.237188
  name:  'Boneyard Creek Second Street  Basin'
- ap: 2537
  img:  'http://lh6.ggpht.com/WtqWBwqpYTSw3g9ru5NwcFn5iK5STxWgy2kv4OUTWqwtzx76-9Msz0eqoiw0qpEYE1U4zdt9rzzNZMDNagNg'
  lat: 40.107943
  level: 7
  lon: -88.226751
  name:  'Class Of 1917 Plaque'
- ap: 2537
  img:  'http://lh3.ggpht.com/5OA9gBD9HJe7pZRJ6DjHOGIbC9paid10T5gOLcZS91YP3V0eTMGqvFmPtvp6UtWzb1w2sOV5dbYmxDUFnQ0x'
  lat: 40.101862
  level: 5
  lon: -88.231737
  name:  'Krannert Art Museum'
- ap: 2537
  img:  'http://www.panoramio.com/photos/small/52867363.jpg'
  lat: 40.101676
  level: 6
  lon: -88.231098
  name:  'Sculpture, Krannert Art Museum'
- ap: 2312
  img:  'http://lh5.ggpht.com/3RfiPeOzF67ubNX-vkwUJ6-EYld6BKuoBernq0_9kOjlIsSPr3saR9FIQzN7uiw7ouF0CpNflOnL0mUj9zbqdQ'
  lat: 40.109452
  level: 4
  lon: -88.229031
  name:  'Illini Hall'
- ap: 2462
  img:  'http://lh4.ggpht.com/CuRKYla63wCvLaTdKqGMMAd1Mr0_HK3v2iQjltrJwmsOownFtry6TsHMkAeHmOP6ULUYA53u4MUP61rgLzs6'
  lat: 40.1097
  level: 4
  lon: -88.228059
  name:  'Liza Kotz Memorial Plaque'
- ap: 2537
  img:  'http://lh6.ggpht.com/y10QgRCNt0Bsefqp3olKgJp98whQkS0-vWqPskj3421hcSq96BG-b_KROqsO1mBEcNiYtAKhXuXG0EV0eaUW'
  lat: 40.107152
  level: 7
  lon: -88.235244
  name:  'Bromley Hall'
- ap: 2537
  img:  'http://lh5.ggpht.com/85X0vnlHzLPww3OziBoMSVfkwq66eKQNZ9Mn6qsjghvteOQZiAVlsY80NVcsErHao0QYd9IyF7PDJyp-jaQ'
  lat: 40.101632
  level: 7
  lon: -88.233133
  name:  'Sunken Cube at Art and Design Building'
- ap: 2537
  img:  'http://lh3.googleusercontent.com/XQb7KWjSJlhbfrYsW2727_AeRoEQ5BbG0fRTTY5js_4zRdArbiRhCRkXunVa81rQpk9yX4RB6x1dV97DnYN7'
  lat: 40.104722
  level: 6
  lon: -88.223683
  name:  'Louise Freer Hall'
- ap: 2537
  img:  'http://lh4.ggpht.com/lQtf71rwzXt5zHafbKPm8Czz3n2KwBWlEaNUh3-2JKrXTDueZ_JerHOPeSecqLaxLBWC09dTlPizrDMTafpT'
  lat: 40.105618
  level: 6
  lon: -88.230986
  name:  'Alpha Phi Sorority'
- ap: 2537
  img:  'http://lh4.ggpht.com/bYrhTw8QophdiqDG-upqJ6JX2g2tZYX4N1jC4d_cciIj4ep8oQvIgjJlfge2VCmzSZe9irj-BTpbj9Jcv7U'
  lat: 40.103009
  level: 6
  lon: -88.233215
  name:  'Mac and Diana Garret Memorial Tree'
- ap: 2237
  img:  'http://lh6.ggpht.com/yE7aPklOUj6Y4vlNLUrqm7uJbj0TAVjhl_vSEgy7CHGlkTo5yyJGeTCUnRsHYe2UAZq2h_Y3AD_m3y3i2B8'
  lat: 40.106876
  level: 3
  lon: -88.228565
  name:  'Lincoln Hall Sigil'
- ap: 2237
  img:  'http://lh3.googleusercontent.com/0sr-qQ4Z1TW1AZ62RFHko9Cbb8g36Renb3nRyxFJr_r68iVMsuh_EwrbThhXg2hVyqNQSjX7rFVvrWpfHS4'
  lat: 40.103958
  level: 3
  lon: -88.240451
  name:  'Bruce D. Nesbit African American Cultural Center'
- ap: 2537
  img:  'http://lh3.ggpht.com/V-oTVbkji_q7V9k0WGhQyDum7PEtruXdbp6e-PzZq3sFNxGWdA79FLEv8uGaZrcSwWE15UhTtBB0ZMW0Ig3j'
  lat: 40.127466
  level: 5
  lon: -88.216274
  name:  'Lincoln Bindery'
- ap: 2537
  img:  'http://lh6.ggpht.com/RR0i4QdfoY8NkTQtssdOtDLhAEaCR7e-R4ipk5NzdKe9lTGDq2nyKI_7sF2BCXrgCZAZ2zEEtIzS7vg6Pu0hzA'
  lat: 40.126458
  level: 6
  lon: -88.218544
  name:  'The Vineyard Church'
- ap: 2537
  img:  'http://lh4.ggpht.com/QGRtYb5gsWsiyn9EznIJ0ApB7yWv-SWBAH6CKgO9JRg3PCgn-s8yQMtXPkMDht8dNjPchkCRleUIBT-DnYXh'
  lat: 40.112928
  level: 2
  lon: -88.209039
  name:  'Courier Cafe'
- ap: 2537
  img:  'http://lh6.ggpht.com/do_DYaj2kuC0reA8E9rCQLDp9K62ZQd4qfV0SBSo8iPPupN2U8_deQ7GHA4zS42XaiZnPqoObG_y_dRCUwNa'
  lat: 40.11283
  level: 2
  lon: -88.209282
  name:  'Cycling Mural'
- ap: 2537
  img:  'http://lh5.ggpht.com/snSXlo68vFp7EOytyhI8zy8PbfwsZfFHRMNYCJ-JhFU9iMUCrtZtkttGM-OCUaRrii_tc-QAVgJCvD7gDv8'
  lat: 40.20083
  level: 4
  lon: -88.395676
  name:  'Mahomet Township Military Memorial'
