- ap: 6434
  img:  'http://lh6.ggpht.com/BY965mN-IwRRa-jZ2gbLPDtjHyKpATG3VbP3LyHuDo6pU0R8wDi5gANnRox6DEA_ZgB0Xqi-p6k0SYPnSIs'
  lat: 40.115883
  level: 1
  lon: -88.232238
  name:  'Artwork at Fifth'
- ap: 6472
  img:  'http://lh5.ggpht.com/ftmAzbnKocZkda7k1ZC-3gMqr3UiOKXsS9qFSxN8V4C6_DEZr79lkSpPL00EmiZn50-ZPzTQZZlBLlOdL4Rd'
  lat: 40.116219
  level: 5
  lon: -88.23253
  name:  'Skyward Railway'
- ap: 6096
  img:  'http://lh6.ggpht.com/Nv0tMktEkkuoGtg1QEPS1N2nTcBPg8ipu31i72XPDTGQ4HQI5oL58Ig8kofXUH_aCC2aaJ-NylWKPkC3hIBS'
  lat: 40.116218
  level: 6
  lon: -88.228757
  name:  'The Presidents'' Walk'
- ap: 5348
  img:  'http://lh3.ggpht.com/NuEE1yevEulYAFm9UHYKLrX8fVNrXyLgFXbQ8kTjAKuT9w-Fkj18Pop2B2wikf21LHDU24uSUkIvXbfKyvy2'
  lat: 40.11738
  level: 2
  lon: -88.250259
  name:  'Heath & Vaughn Funeral Home'
- ap: 5348
  img:  'http://lh4.ggpht.com/ETgOsKlMmsv5wRT-aM33VVVEgFvp3ZoMxqXmYKxROpFAYnfPqjWhltqYBG7ajEuM8XKf3mVeSaF7r9grm2t8'
  lat: 40.113448
  level: 5
  lon: -88.237188
  name:  'Boneyard Creek Second Street  Basin'
- ap: 4972
  img:  'http://lh6.ggpht.com/duOeXcOSQLWosdD0JJXg3pWWQp4t5sL0x9qDHoTIBFNOzEW0t53Lt2cnwgV2E_Su0l1ajIQxPtVbbK_sDRaS'
  lat: 40.141775
  level: 6
  lon: -88.242671
  name:  'Marketplace Mall Fountain'
- ap: 4785
  img:  'http://lh4.ggpht.com/lpJC8CMq12VKjzn5jKxDzhuO6-wy48dUIJ1qAD7jiTQom4qZYFUDgxd3-1wexag_aT8akZC3P7VTqei0H48YKQ'
  lat: 40.100482
  level: 3
  lon: -88.281627
  name:  'Henry Bradbury Memorial'
- ap: 4785
  img:  'http://lh3.googleusercontent.com/EvLov_3eYLGHotkWec9w3T1VCPQri5SR8JLZjbJUaxRsyGPLS4YQNXf90xlPoKjxGYlml9N8IDYKwpNvVIWlVA'
  lat: 40.114563
  level: 5
  lon: -88.228735
  name:  'End Caps Sculpture at ECE'
- ap: 4598
  img:  'http://lh4.ggpht.com/x4szinl46UCjQ4FiOKdsQrr5OuNhuiDz-N7Hudes1XwubFw49qnWwOghJQ2JU1MSNUX_GD0u0pzbSP3sHwM4yw'
  lat: 40.082475
  level: 4
  lon: -88.313826
  name:  'Zahnd Park'
- ap: 4598
  img:  'http://lh3.ggpht.com/07XrBN-er6Ecleor0n9RJ4DfGO6B2yn-ZxjI-Uy8Ba46Jtb6cXNVmATPiPiGyk-1jZ4wxa7-EeIWbWUqArCG'
  lat: 40.142554
  level: 6
  lon: -88.243468
  name:  'Dog Heart'
- ap: 4598
  img:  'http://lh5.ggpht.com/k51dyIcq_VT8S0cGsHhfgbItaWCMpBfJ9wjHrms0zYNSVH5gfV5-gmxjVatlchfenHsCBRl1uE8AzYJTf8dN'
  lat: 40.117449
  level: 3
  lon: -88.23557
  name:  'Park Avenue Seventh Day Adventist Church'
- ap: 4411
  img:  'http://lh4.ggpht.com/Tpl5ga1h9vBjG88A6xRDnvBxx7F1epdVZYUY-FNnoOS6H_0OkWXC-RqCtNsk5WSZcOBwMvdY56QCHo0hvoE'
  lat: 40.102744
  level: 5
  lon: -88.277916
  name:  'Church of God in Christ'
- ap: 4411
  img:  'http://lh4.ggpht.com/LukOnZPQdxTvyW2kKwpCrzH9PWuOtO6LZyu0jeZSt8ijAhlA0l-3oYZ_m0HbPoF316Mhgbh-SaZNKtmX82c'
  lat: 40.11814
  level: 2
  lon: -88.249887
  name:  'Silver Cloud Oakley Washburn, Jr.'
- ap: 4411
  img:  'http://lh4.ggpht.com/6iTxW6HC8WFx3nf6xEGhZryWVxW9NNijqTsEKvcBCBkmkmLZdUjaDHKReKT58cl8RUaCwDCL7pMFmBEyj3Fc'
  lat: 40.117602
  level: 2
  lon: -88.249943
  name:  'Megan Schneider Patel Honorary Plaque'
- ap: 3848
  img:  'http://lh4.ggpht.com/ykcBOYTGpoR392b8KhoJ1HeCMQKdls6__qGzmBtOaVho1L5T2KYhV8130wLVGDT_Hr-dhJX4tl1qSQdDtLZj'
  lat: 40.085955
  level: 2
  lon: -88.332754
  name:  'Robert C. Porter Family Park'
- ap: 3661
  img:  'http://lh3.ggpht.com/mH9oKWk-phPYmQF0ge48xB3OAch9161ZF0yJS5uGLtF8Hv4c7JZjcHweRyEF7yWhjzuN4sLJzH5MIu2dLa_F'
  lat: 40.084503
  level: 2
  lon: -88.332162
  name:  'Flamenco Revisited'
- ap: 3661
  img:  'http://lh6.ggpht.com/aHhLEb8O6JqkElC1drnlJBmq8qeC2WzA4W48qkRQwuE9B6opSfHVKARNHu-uAZN-jvPRznVdmobggqRbw9E'
  lat: 40.100674
  level: 4
  lon: -88.281589
  name:  'Catherine Josephine Feinen Memorial'
- ap: 3661
  img:  'http://lh6.ggpht.com/ukIJOts1W6BPpII4XC4_Q5Wh8Gz8aCNeGUuAtaLknm7OKhNYvlDd71ZN8hcxCRcJDhDjV0qBZgFRyYMGNeS6'
  lat: 40.100203
  level: 3
  lon: -88.281602
  name:  'Karlee Elizabeth Feinen Memorial'
- ap: 3661
  img:  'http://lh4.ggpht.com/CYtXDlK6MB-Yl-FmKw6yaRt-LGUdQqAdRp3LsWV1JUYwC8qrVWWJaGEaqMtMtRpANFpNeD4z82iGL54nIARL'
  lat: 40.141919
  level: 5
  lon: -88.244611
  name:  'Marketplace Mall Carousel'
- ap: 3661
  img:  'http://lh3.googleusercontent.com/3nkY0B9PDqzlWJ_EKh5GnTZ8z0U6X9-2dI5dapKA5Q3F4iKrE99AJZoy6NSvh2nU1WTG2hL70276yJjJ0G8'
  lat: 40.141598
  level: 5
  lon: -88.238817
  name:  'Red Shield Center'
- ap: 3661
  img:  'http://lh4.ggpht.com/lmmAipLLlemZCx_GvFWKPFhu7DSZrKSc3OxReeZJ15aabG51w3_L9IdcpKrku-QUoKanND7aZEBZIToeu8ha'
  lat: 40.120805
  level: 3
  lon: -88.201892
  name:  'American Veterans Memorial'
- ap: 3661
  img:  'http://lh6.ggpht.com/s0NjKuARUySFKyN76g9Vr1UymiO5a-Ev822C0UEiLqAFzFggW39lRKoYierDtj89xVWRDioyodaQ1Ve0SGBBXA'
  lat: 40.121861
  level: 2
  lon: -88.198042
  name:  'Chief Shemauger Park'
- ap: 3661
  img:  'http://lh4.ggpht.com/vKiU-Z9PbuWMTBST_ry96h11Nf1d5ooex1Fl5imVUtCPpaeGwy3JDVmhziEnAAySe8NXWHfT5stQGA2BQg9J1g'
  lat: 40.122111
  level: 4
  lon: -88.200203
  name:  'Dane Michael Sherr Memorial '
- ap: 3474
  img:  'http://lh4.ggpht.com/nYT8xXu54e_RpOMwge0741LJV8TXmsU6JtJkw4-eNbTQlG51DA0s20v0xTmtkvREh1GrXuaasrkSJL5c3E_K2Q'
  lat: 40.082248
  level: 4
  lon: -88.312376
  name:  'Pony League Field'
- ap: 3474
  img:  'http://lh5.ggpht.com/cu2etg0fuCXE5105PXn-TXZ8NCus2roavRLIVgCeWnpc1cWicMkM7GVERquc10f1XdnsU66f9JYV86pKL3RC'
  lat: 40.082596
  level: 3
  lon: -88.312425
  name:  'Kiwanis Sports Complex'
- ap: 3474
  img:  'http://lh3.ggpht.com/K-b9T4FjMxrtkS2Awkze3fELfwY2Va92gMQloHtHf4bfeKPPRzOUJxaSYYi6-OHHQbpDVY3ONWwPgIa78fBX'
  lat: 40.118332
  level: 2
  lon: -88.250276
  name:  'Mckinley Aquatics Center'
- ap: 3174
  img:  'http://lh3.ggpht.com/l6drxc16dn91XarTz8Tkkeerjhu28Hf3x7nh-pHe05BLyOA6fuV75A5gB8UdUNt3cRN_eXIHmTE8c5Ypvcw'
  lat: 40.117248
  level: 1
  lon: -88.249929
  name:  '"Tootsie" at West Side Park'
- ap: 3474
  img:  'http://lh4.ggpht.com/W2chhQwPqSJEkl57NVoIL-OE4KFvJfp7Bsrrxza1apCYltcT3npz95LJxqHxvT9ZZu7wxF2gQy-5bpKal2p2'
  lat: 40.115838
  level: 6
  lon: -88.241338
  name:  'Illinois Terminal'
- ap: 3174
  img:  'http://lh6.ggpht.com/ea6HxAw7m0OhhPqJJkZR9u60pR1sab_JdxaOyEltqmQd-63FFJzPY72jEnu08g9Gcjjj5cf3jyyS_M1E7OIbfg'
  lat: 40.11616
  level: 3
  lon: -88.241422
  name:  'It''s A Mistree'
- ap: 3099
  img:  'http://lh4.ggpht.com/H1kV6JSczzSbcCblAHg5ZOgITW1mBAz0_oLbqbzxBlijGTBn7TP6KwA6UI0AAGrCN4VF0DAF79Vcj6_2R4dsB8LRTq6tud6v'
  lat: 40.116164
  level: 2
  lon: -88.241661
  name:  'Zipcar-45 E. University Avenue'
- ap: 3474
  img: http://i.imgur.com/5j1qaiT.png
  lat: 40.199222
  level: '?'
  lon: -88.382509
  name:  'baa170273cd749acb5338139770e8f70.16'
- ap: 3474
  img: http://i.imgur.com/5j1qaiT.png
  lat: 40.199138
  level: '?'
  lon: -88.385786
  name:  'dbf3b4e9041a4a01af2e803c4a7296c6.16'
- ap: 3474
  img: http://i.imgur.com/5j1qaiT.png
  lat: 40.197114
  level: '?'
  lon: -88.38528
  name:  'Elks Lake Pavilion'
- ap: 2724
  img: http://i.imgur.com/5j1qaiT.png
  lat: 40.011563
  level: '?'
  lon: -89.278425
  name:  '93ee049f33d544d78fc4ce1dc2b491fc.12'
- ap: 2724
  img: http://i.imgur.com/5j1qaiT.png
  lat: 39.985257
  level: '?'
  lon: -88.259769
  name:  'daadc7b7a95447cab0d5353a7f7c6b46.16'
- ap: 2724
  img:  'http://lh6.ggpht.com/0IsQORyEW-bPA7sEbGspygtoI7ixEshm_2fUw5oeh9AeXg6JN5w0ypYIshpuKm-C0nG4Vm2XmpLvtWTZzWzd'
  lat: 40.111607
  level: 4
  lon: -88.233753
  name:  'Chabad Menorah'
- ap: 2537
  img: http://i.imgur.com/5j1qaiT.png
  lat: 39.405035
  level: '?'
  lon: -88.79382
  name:  'f72aba674dac4a16992c5a05c398375e.16'
- ap: 2537
  img: http://i.imgur.com/5j1qaiT.png
  lat: 39.407259
  level: '?'
  lon: -88.793832
  name:  'd4bd15de84eb48f5983ff1ef09eb8246.12'
- ap: 2537
  img: http://i.imgur.com/5j1qaiT.png
  lat: 39.912869
  level: '?'
  lon: -88.271225
  name:  '7ae31819d59a42a286e4aba7926a74ac.16'
- ap: 2537
  img: http://i.imgur.com/5j1qaiT.png
  lat: 39.91497
  level: '?'
  lon: -88.273264
  name:  '5d2d71d0f909459c9004cd99890c964c.16'
- ap: 2537
  img:  'http://lh4.ggpht.com/1LzO6yLZvWb6_g3FLduNKYb6d5TVljqsdNnQggC6Idh7XbUSLf4TOcuWChcYsVve_pt7N5f77mEJLTqUmA'
  lat: 40.085878
  level: 2
  lon: -88.331166
  name:  'Porter Family Park Dedication'
- ap: 2537
  img:  'http://lh3.googleusercontent.com/ryRMzj5c3ls-s5Gocd2-IM_oonInNzjPIbCGJVps6JmZxYcG165NabHKNZW7wAepNc8rtLf3A3E0U1mbq-I'
  lat: 40.109923
  level: 6
  lon: -88.239141
  name:  'Circle K 59 E. Green'
- ap: 2537
  img:  'http://lh6.ggpht.com/BANSBFfuZ3_0ya-JodV7jEB1a-DwSOyegBwPKAODSUFHLmvI7b8zwSiLUAvvqIAYjpU6S_Lm8XRBJ30KDGCIEg'
  lat: 40.116917
  level: 2
  lon: -88.24078
  name:  'North Star Sculpture'
- ap: 2162
  img:  'http://lh3.ggpht.com/WDQ55kRMYCIrw9Pm69IuV6cBTI2nx7Z1gU9yxX2oE2oH9EdPnO1ltxSROAjUmHmBu84SEtHmLKregkDqlLYzUg'
  lat: 40.117126
  level: 1
  lon: -88.240623
  name:  'Depot Barber Shop'
- ap: 2537
  img:  'http://lh5.ggpht.com/AmsS7GEfFX-_Icem2DP6mjQahV1jeut1CGdeqLqfpyzx0m5SqhVY4eoAohizF0xsevPQufmLRMoVj2rW7Fe8'
  lat: 40.111689
  level: 5
  lon: -88.231193
  name:  'Koi Building Art'
- ap: 2162
  img:  'http://lh5.ggpht.com/BKHQBYKq1WHplCUxjyl6ZyElMZVN9SFIPmdKwffI6avqoyvbXRxFSFwn-RrmpqLRdSu6LntKwTDnQvCc1n0x'
  lat: 40.110358
  level: 2
  lon: -88.230181
  name:  'Murphy''s Pub '
- ap: 2237
  img:  'http://lh3.ggpht.com/1Z3mCRroEUysinW4hlDhAFNnfog3gwBM_aM8wYT6tQPiXMMmaRE9CrO5XM6QMe3UPHzMQSoxFmvWlkwOTRAv'
  lat: 40.111111
  level: 2
  lon: -88.230176
  name:  'U of I Mural'
- ap: 2312
  img:  'http://lh3.googleusercontent.com/ryRMzj5c3ls-s5Gocd2-IM_oonInNzjPIbCGJVps6JmZxYcG165NabHKNZW7wAepNc8rtLf3A3E0U1mbq-I'
  lat: 40.116071
  level: 3
  lon: -88.229243
  name:  'Circle K 609 E University'
- ap: 2537
  img:  'http://lh6.ggpht.com/iVHoGDIqnjdRupoPTpZLPtrzaCpEGW6HV4QHZ5WW185rmkrOxvl-C7uIN_gNZnCrm-djktoPC1J-9vjBZfCb1w'
  lat: 40.115718
  level: 4
  lon: -88.228521
  name:  'Red Lines Sculpture'
- ap: 2537
  img:  'http://lh5.ggpht.com/ZBaYXHOKUz2Vxe_dieY9xFrO4KgTUtaLB91ggoRg5ypkxwdZOdAbLLO0ZJl8gH1FuR5TuvtWg0i5GJI4_TmiCw'
  lat: 40.11676
  level: 5
  lon: -88.194563
  name:  'Pavilion in the Woodland'
- ap: 2537
  img:  'http://lh5.ggpht.com/IPe0K-5UxhP3pBLFh-Gt_TFpL9lqI4nyU9X57bSopcI-Ihm44-ebzRJG7oR76nOD5yRHtqc_x87jC08KCoqG'
  lat: 40.115697
  level: 5
  lon: -88.214703
  name:  'Mills Breast Cancer Institute'
- ap: 2387
  img:  'http://lh4.ggpht.com/6sd473amShrc5AbDY3boNt-doAq8N_YEx8X1JWONSkGRN7Vi_E7bLrbm-PazRpo77BY0-B27NdIBBwTiscfH2Q'
  lat: 40.113857
  level: 4
  lon: -88.213838
  name:  'The Marriott Residence'
