- ap: 8159
  img:  'http://lh4.ggpht.com/ryDcZUJK2aQ_fI0-hY850_t4ZmG2hNmtCx7cxbX83w3cnUWdI-ywpTuQrUVQNxGl3_DcxxNr6bupfDTsagRa'
  lat: 40.117107
  level: 6
  lon: -88.242467
  name:  'Radio Maria'
- ap: 7035
  img:  'http://lh4.ggpht.com/xS51--rXA9M_IHpXWgFQxKZU-YbD-1zk-nug6k7RyKl8rYeam_YFwMmLNWRRHHzI-rOTGyhTJQQ314WudSQJ'
  lat: 40.117132
  level: 5
  lon: -88.243009
  name:  'Fountain in the Alley'
- ap: 6285
  img:  'http://lh3.googleusercontent.com/tWUxy7KQ-q_qBBIgLzTjjezrBpWPSJ_z3FWnvbB8Y5wIiYZW1I5ioL0Tzq60VyalCaIwOk4UI3agM8tFaykY'
  lat: 40.117427
  level: 5
  lon: -88.243235
  name:  'Cowboy Monkey'
- ap: 6098
  img:  'http://lh5.ggpht.com/KYppjeOoIlb4lbowRrrC5qRdYW7_KU8rzjtDMpvhh-Q_c6VZOTtVmOqmmxChJA2hjlpS5dJ1JnhUQcKUAXDWHA'
  lat: 40.117976
  level: 5
  lon: -88.242642
  name:  'Stevick Building'
- ap: 5160
  img:  'http://lh6.ggpht.com/MsCeiBKy8tV3-ziINPCBPzkisfwOnBClSPr68FUxT1uMHlVmqtyTYYxNAZapU8bvWdcmm0lsmIzjMyv0CTJ2tQ'
  lat: 40.095364
  level: 2
  lon: -88.217386
  name:  'Miles C Hartley Selection Garden'
- ap: 4972
  img:  'http://lh4.ggpht.com/Iz-O9-kJLlEdRO9osaqkCvLRsSNF24c95jHG0lhtE95b99-cC2bKuCEiznIs1-ytpoCITEwQ7s5VuyURgrpM'
  lat: 40.117288
  level: 4
  lon: -88.248506
  name:  'Prayer for Rain  Fountain'
- ap: 4598
  img:  'http://lh5.ggpht.com/BUGNnLReyCBJJj9_zpqgwv5_CAyiW8fWBpyVs0ip1hT5NEE6YKCYzlc8ahldKzk_xv-4uckNJNb6NrJd6r33qg'
  lat: 40.116989
  level: 6
  lon: -88.242255
  name:  'Blind Pig'
- ap: 4598
  img:  'http://lh3.ggpht.com/bVNaflT1bCgFsUDizKeHZFExlTyUFdVVpjEqrpacNh843YeRnU98IEQb8a02eE36XmEJXAkBC-FG1_3ezYP7'
  lat: 40.095365
  level: 5
  lon: -88.216784
  name:  '1867 Garden'
- ap: 4411
  img:  'http://lh4.ggpht.com/tLO2wjyCgyune3KDOlQMV_oiDRxVsHqO1gAG_0xs9TvKOiuWRVmJcO29WI7jELxoxncaXpy91kMa89Uj65JVNw'
  lat: 40.11784
  level: 4
  lon: -88.24286
  name:  'Kaufman Memorial'
- ap: 4411
  img:  'http://lh4.ggpht.com/_jAAuDi8SO5uupi8JlB3HZaFG40S15izNv_3vqOt7ro2rRHuXrfdEKfEFvRESdAjCEz3RVDpyrxJGSIrju5d'
  lat: 40.117916
  level: 5
  lon: -88.243087
  name:  'Sholem Building'
- ap: 4411
  img:  'http://lh3.googleusercontent.com/M1BXbCtfOfi1ipACxyQaE2jCbcLCxQTsJVIUli8GgprQaS2WmnVuSsqMoFaWub8LM6VF7KK4wSH9SSGdrXM'
  lat: 40.117287
  level: 4
  lon: -88.242984
  name:  'Mural for the Blind Pig Brewery'
- ap: 4411
  img:  'http://lh4.ggpht.com/wbrbzDCo3C4qFJyHTWOST5o8B7kwZSWePUWOboIlYrdvxjrhWLqVQ1MqUF5-Hy4nt26x_oHQq9f8EbfdEjVK'
  lat: 40.117382
  level: 4
  lon: -88.243748
  name:  'Days of Venus'
- ap: 4186
  img:  'http://lh4.ggpht.com/ZIOjKYlH2wMvdRD5A5HKGJPgBUYAaA7xHjGYnoXNzhzPIE6KR05FBciTJcN-AojoLyuwRlp3SF3TR1PXBrUPjw'
  lat: 40.094935
  level: 3
  lon: -88.216986
  name:  'Leroy Hubble Honorary Bench'
- ap: 3960
  img:  'http://lh4.ggpht.com/kZm6lbk07IpQebQBqqCODikSi-pOMHQhQ7-c0xNGM6vqUskWUftXV4L3ymEbT0T5IELGgfJ2vrxTZvmgP9D_'
  lat: 40.117118
  level: 4
  lon: -88.248618
  name:  'Lieut. E.G. Stillwell Memorial Tree'
- ap: 4033
  img:  'http://lh4.ggpht.com/kikXgFanbehTzblqLlN2WzEcVgfnP2HD4JE7GI1GOKTu44g13lknkSsdu9prj71y0zKIBFJv_0RIkFW3vXY'
  lat: 40.117574
  level: 5
  lon: -88.247603
  name:  'Travis Marmion Memorial Tree'
- ap: 3661
  img:  'http://lh3.ggpht.com/l6drxc16dn91XarTz8Tkkeerjhu28Hf3x7nh-pHe05BLyOA6fuV75A5gB8UdUNt3cRN_eXIHmTE8c5Ypvcw'
  lat: 40.117248
  level: 5
  lon: -88.249929
  name:  '"Tootsie" at West Side Park'
- ap: 3661
  img:  'http://lh3.ggpht.com/NuEE1yevEulYAFm9UHYKLrX8fVNrXyLgFXbQ8kTjAKuT9w-Fkj18Pop2B2wikf21LHDU24uSUkIvXbfKyvy2'
  lat: 40.11738
  level: 5
  lon: -88.250259
  name:  'Heath & Vaughn Funeral Home'
- ap: 3661
  img:  'http://lh4.ggpht.com/u_MtizNv_keIXM4ITgtjqC8nr5JvB8UpDBg_5_08uQDTsQr44mwr6ZlkhTp0iKbvcV9xCJqXDeN66xYWaI0'
  lat: 40.116227
  level: 1
  lon: -88.233833
  name:  'Haley-Walker-Ginza Building'
- ap: 3661
  img:  'http://lh5.ggpht.com/ftmAzbnKocZkda7k1ZC-3gMqr3UiOKXsS9qFSxN8V4C6_DEZr79lkSpPL00EmiZn50-ZPzTQZZlBLlOdL4Rd'
  lat: 40.116219
  level: 5
  lon: -88.23253
  name:  'Skyward Railway'
- ap: 3474
  img:  'http://lh4.ggpht.com/6iTxW6HC8WFx3nf6xEGhZryWVxW9NNijqTsEKvcBCBkmkmLZdUjaDHKReKT58cl8RUaCwDCL7pMFmBEyj3Fc'
  lat: 40.117602
  level: 5
  lon: -88.249943
  name:  'Megan Schneider Patel Honorary Plaque'
- ap: 3474
  img:  'http://lh3.ggpht.com/CwgYIhVaivHHg_U6yqu5KSGhSh9ipRBDu7G192KiQfrnXc7C8uh7UOh6MP91vhZJ3LZdiTaFwpvFukvIaj6J'
  lat: 40.117445
  level: 5
  lon: -88.243409
  name:  'From Swords to Plowshares'
- ap: 3474
  img:  'http://lh6.ggpht.com/wucaQM-REDZu6ZBHVOIE5T1apjBrc_Fk_qdbyLPPCmXafFHKlIC0w--Wrd507L8Jh2CgIKpFz9loqhrmmVzG'
  lat: 40.117429
  level: 2
  lon: -88.231914
  name:  'Salem Baptist Church'
- ap: 3099
  img:  'http://lh5.ggpht.com/W2upB0MQ9l_1Z1JYjKFslTSSU-oi3b_kOidwTlG4pOCZRHWiD52CzcX2WMquuVEnMpxhtSRQOuAdLgDn8rs'
  lat: 40.096671
  level: 2
  lon: -88.217873
  name:  'Skull And Wagon Wheel'
- ap: 3474
  img:  'http://lh4.ggpht.com/jEbgkWj4jIpuTGF0BsLL3Qhx62u2Xh7IFfVmCspv6e6FjmSfbeTYkwQgAZ75wN8NpO2Lus14Khr5O4f9jvup'
  lat: 40.094517
  level: 5
  lon: -88.217269
  name:  'White Oak'
- ap: 3135
  img:  'http://lh6.ggpht.com/rjO65LTfxlehqnFITx_AAA2JKpsmpj8hWVQifyHaji2E1suLvQntKGeHtT8TjDg7CZ94W3wDKW2MrfGY45k'
  lat: 40.11699
  level: 4
  lon: -88.247796
  name:  'Feathergill Honorary Plaque'
- ap: 3098
  img:  'http://lh3.ggpht.com/K-b9T4FjMxrtkS2Awkze3fELfwY2Va92gMQloHtHf4bfeKPPRzOUJxaSYYi6-OHHQbpDVY3ONWwPgIa78fBX'
  lat: 40.118332
  level: 5
  lon: -88.250276
  name:  'Mckinley Aquatics Center'
- ap: 3098
  img:  'http://lh3.ggpht.com/8Nxm7sw1mIfTkxKb-GsE_e5DuPgup8SmX1SJRLGZmvopdsQsPx8E9eDzuISKXBjwveamwn6H26EmIJZzVwkr'
  lat: 40.117449
  level: 5
  lon: -88.246902
  name:  'Champaign Park District Flower Island'
- ap: 2798
  img:  'http://lh6.ggpht.com/tEtHQ3gjXHp940OLn9txVBSOCdT8UfYUs3C29Cgx6HiCLrS3KBboU3Wms2rEVMQWEf7lf67xfK7MIUmimDw'
  lat: 40.116631
  level: 3
  lon: -88.247334
  name:  'Jack C. Richmond Lion''s Club Bench'
- ap: 2836
  img:  'http://lh3.googleusercontent.com/L3lfMswaooWEA3nJNFGES354rtENCzxYkoWuVLXEXaTiXbqTNnsl34TRd8tbMwnGQHkAnr37-HLMutIe3_Uz'
  lat: 40.117254
  level: 4
  lon: -88.247074
  name:  'Westside Park Double Dutch-A Jump For Joy'
- ap: 2911
  img:  'http://lh6.ggpht.com/ZB8W5NNUt_ghaLF4gE_7_e_uguOocj1k6qCQvq2eAsayVQyZFUsUA3H5SFkHOwg20GluChbe2MSO_xWoB0bk8g'
  lat: 40.11813
  level: 5
  lon: -88.247413
  name:  'West Side Park'
- ap: 2499
  img:  'http://lh5.ggpht.com/I3HJjY6jOYl6ivwUaejRmReBjka9NyCW1ufaILf7cfo4VGwjX6kNB9J6PlIZCBIuTfI1jb9arxjssMTa_hisxr2ObqDCJ55lCxXFccxme5erNEY2_g'
  lat: 40.116859
  level: 3
  lon: -88.249043
  name:  'Bilbrey Bandstand'
- ap: 2574
  img:  'http://lh4.ggpht.com/7jfpHo9VtrONulGtzUfsP3lI3AsKBnUxCQaLU9xAMpVCQbWD24db4z9Otn0Sfz_OnEXSbdwKUGm3MZBV6QZrhQ'
  lat: 40.117194
  level: 4
  lon: -88.247472
  name:  'Rebecca Mabry Memorial Tree'
- ap: 2724
  img:  'http://lh6.ggpht.com/EiNXerTyRNFVC9pti48SExCtqR9p6t3-Xne_jw2YB90-VjUeJ3KGX8Se436SNVkFb5wOw0N7CKCz9brOeVg6WQ'
  lat: 40.117802
  level: 4
  lon: -88.249547
  name:  'Warren and Mary Filer Memorial'
- ap: 2724
  img:  'http://lh3.googleusercontent.com/DwFkTAALlFYHbNZRm7nULpzdG3LphD5i1GvYkulC_sCN6b5-EGy8LIb8OoPSv7D4NpAJXrtCyZklagh5Mkov'
  lat: 40.11786
  level: 5
  lon: -88.248031
  name:  'Lincoln Megalith'
- ap: 2499
  img:  'http://lh4.ggpht.com/ULEhKlvERD4aidwSKPhLFujl0N0mZWcHPxtcJ7hNJkyDjYek9yrB4UD_G8bU-O9-12L1LYpDkM068BiYmpm9weZeGJsz-K5whCvUYTfmDqaIp1Fp'
  lat: 40.117
  level: 3
  lon: -88.247111
  name:  'Wesley Robert Weedman Memorial'
- ap: 2724
  img:  'http://lh3.ggpht.com/0IkSOblVdAgYOJ2Bk2QqvqWjdstWNQgp7g9oSz1Sq70jG6cLusjwYW76irF9h-c7cafatMcyGsjw85xwYgPQyw'
  lat: 40.118353
  level: 4
  lon: -88.246658
  name:  'First United Methodist Church'
- ap: 2724
  img:  'http://lh3.ggpht.com/rm0mJKw5ksUEH6_YQLi-f3uo56Wv-4h1P-Q_Ws61holRtnLG9Qt0NObbSBzDxPm3tvIhWgzHLvftIMBC_5dZ'
  lat: 40.118435
  level: 4
  lon: -88.247677
  name:  'Burnham Athenaeum'
- ap: 2537
  img: http://i.imgur.com/5j1qaiT.png
  lat: 41.835853
  level: '?'
  lon: -89.480623
  name:  '17882b9b6e3140739dc93df9bd849dec.12'
- ap: 2537
  img: http://i.imgur.com/5j1qaiT.png
  lat: 41.360718
  level: '?'
  lon: -88.991258
  name:  'bd5ea812a7ab407fad92afc09c9bc4b0.16'
- ap: 2537
  img: http://i.imgur.com/5j1qaiT.png
  lat: 39.912869
  level: '?'
  lon: -88.271225
  name:  '7ae31819d59a42a286e4aba7926a74ac.16'
- ap: 2537
  img: http://i.imgur.com/5j1qaiT.png
  lat: 40.273821
  level: '?'
  lon: -88.676394
  name:  'Blue Star Highway Memorial'
- ap: 2537
  img: http://i.imgur.com/5j1qaiT.png
  lat: 40.86138
  level: '?'
  lon: -90.201604
  name:  '21befeffc8ca4d52ae74cf7ceebe32c8.11'
- ap: 2537
  img: http://i.imgur.com/5j1qaiT.png
  lat: 40.369421
  level: '?'
  lon: -89.829628
  name:  '1267f54e38494144b3d14ea0b00e516f.12'
- ap: 2537
  img: http://i.imgur.com/5j1qaiT.png
  lat: 40.152737
  level: '?'
  lon: -88.962796
  name:  '390e5deafc2d49f8a5a35fe8bfa5cbe1.16'
- ap: 2537
  img: http://i.imgur.com/5j1qaiT.png
  lat: 40.477976
  level: '?'
  lon: -89.797635
  name:  '4c524c84bbb547f59b1ea35096b4e9ae.16'
- ap: 2537
  img: http://i.imgur.com/5j1qaiT.png
  lat: 41.961753
  level: '?'
  lon: -87.635149
  name:  '6c2507186ab34c85872712308bb809fe.16'
- ap: 2537
  img: http://i.imgur.com/5j1qaiT.png
  lat: 42.781053
  level: '?'
  lon: -87.757742
  name:  '9a047756efef4b0b809bdb07c058c4b5.16'
- ap: 2537
  img:  'http://lh6.ggpht.com/ka79B_ahK9kHLiOCOnKsp3SooZlPGgMuIOO25OaqPU7eoUALOBzaa40ZCStdo4v6rCYW0VS_pNgW3PJyUDKxpXI-n55zohIxJwRJEq5gslJKwS5ykQ'
  lat: 40.11794
  level: 4
  lon: -88.248679
  name:  'Fonderia'
- ap: 2237
  img:  'http://lh4.ggpht.com/DXAAQEV-pW-laeGTPphalYn5MoUFYMOyKbjs7rL1bBgkOlCxtaEH7bLcuvNbiQTWzFZK1ZPcNbwuEjw20-od'
  lat: 40.116869
  level: 3
  lon: -88.249849
  name:  'Don and Ruth Dobbins Memorial'
- ap: 2537
  img:  'http://lh6.ggpht.com/NXptd9bdifQT6cVxz-SPGUsryPaznp8rV3omDk0J50MnN5Mmu6oiYNa0FXIgG8FnFreUVsSPzRvQNZXYcO6G'
  lat: 40.11817
  level: 4
  lon: -88.249381
  name:  'Bicentennial Tree'
- ap: 2312
  img:  'http://lh6.ggpht.com/9IW6Hm5bd65CbdAqPB8OgjAYQoF7CaPE37U44dbXIYzTWE7ulgSEzfxqVTOGVqCglU_0W2iHo9ZjRqRefq27'
  lat: 40.116904
  level: 3
  lon: -88.249558
  name:  'Gerald Guest Memorial Tree'
- ap: 2537
  img:  'http://lh4.ggpht.com/Ow-wdEqY3uMRz8f_iGkOY7s4f79TTfxQK15aQu3wgtzRssq6mUqmxZcJDjfC4fO2y4Qt69U2jdahRt-Ald53'
  lat: 40.118119
  level: 5
  lon: -88.24714
  name:  'Police and Firefighters Memorial'
- ap: 2537
  img:  'http://lh3.ggpht.com/5iH9kzVECg-dsKRPYTzLzAT5eoYnDhGrcJB1N-hLShal9eEun1_Ml0oFX2c42cGNjKj8-yvsEnUn2j4C_90'
  lat: 40.11792
  level: 4
  lon: -88.249845
  name:  'Thomas R. Sandrock'
- ap: 2162
  img:  'http://lh6.ggpht.com/uAhsK1gCBrCPvIEZ8lZRhDGbO9Q75uu9su3qhSkktViExCuvIvXGCLwZXT-_riPd4rI3tTvsLqqn6XO3msF4'
  lat: 40.116558
  level: 2
  lon: -88.249136
  name:  'Babe and Gene Wilder Memorial Plaque'
- ap: 2537
  img:  'http://lh5.ggpht.com/c-upLAoA6V12_Enn5doC2Hqtp3W9dLMIb34VHt0aVni2lW2OF5Lddn2c-1XcxmmaN7um9eyxqOF5c3c0hs4'
  lat: 40.118139
  level: 5
  lon: -88.248407
  name:  'The Americans Creed'
- ap: 2537
  img:  'http://lh4.ggpht.com/GO8F5d9Gz5q0tize1_1NxJ51SfmjJESFilw1OhfyI3I0RcdLFN2uKHr8prPX1KAdmabYL8PNJNjyqlgn7r9o'
  lat: 40.117537
  level: 5
  lon: -88.249445
  name:  'Buerkett Family Memorial'
- ap: 2537
  img:  'http://lh4.ggpht.com/5E71LpfYxV2zsihdsTCShjy9NN6ksITFjXz6GSYwP8EKVJEuhrWOJKGGr6nfCT99QLgs4K6HHrqQn6ta1Vw'
  lat: 40.117349
  level: 5
  lon: -88.24917
  name:  'Ruth Whitney Memorial Plaque'
- ap: 2462
  img:  'http://lh6.ggpht.com/5NJ7qgqdGdq2TNgKDadFhTo4SudsgsHoSbhrgyc2axnUeV_4VOo4bzyr40gIwc1T_AvyH47lClwrz_V8Mtg'
  lat: 40.117008
  level: 4
  lon: -88.249287
  name:  'Terry R Bilbrey Memorial Bench'
- ap: 2162
  img:  'http://lh4.ggpht.com/EN7YTfA2hkKHBgucyx2FudbTwod0dGUfuekb2VFLAjuj-emNpWEKKgAPi1SN_vsdkbJblYOm5aYiA7MF8CA13A'
  lat: 40.116655
  level: 2
  lon: -88.24954
  name:  'John Patrick Sherlock Memorial Plaque'
- ap: 2537
  img:  'http://lh5.ggpht.com/arF148UpHKIzlt5NezBSpFkItJk3gWq__xkPolNCeVTwHNpQNm1rzIwSdA2oAJBPtaLhpTHcVdAFFdHAXm8k'
  lat: 40.118383
  level: 5
  lon: -88.247003
  name:  'T E Berger Memorial Plaque'
- ap: 2537
  img:  'http://lh6.ggpht.com/QKHOcl5WKE1EB7Y8PfPqhuJQN7SxpWIvLb13vJp2KJC61ToSi1evTEpgeOtPjAfKuIlQnBq1tApVM5TwJHI'
  lat: 40.118042
  level: 5
  lon: -88.248912
  name:  'Indian War Memorial'
- ap: 2537
  img:  'http://lh4.ggpht.com/hJDi8J7CZU-933hT0Culp2nhslv6p8rDRPdTFz6FwNaAjB5CmfkaQzj9sM--E-QBvI8yvIJn1F2jxy7ZKWlh'
  lat: 40.10816
  level: 5
  lon: -88.234245
  name:  'Stratford House'
- ap: 2537
  img:  'http://lh4.ggpht.com/OFVPvdgB3GVpaQknHdnt2okgP3xcQksAH3wvOGYVuP85MMlxo3bQ2SRpBb0hzNfjQoC_5LlRqaE6jLB-h9Gr'
  lat: 40.108092
  level: 5
  lon: -88.234589
  name:  'Koinonia Plaque'
