- ap: 16968
  img:  'http://lh5.ggpht.com/Q32BPmFRIQYqXI5gLOV9ifHvFlGdyD_yws2172-sHnSZ-StunhCM0Abqd9rBWSaKBWN7RPpa1h-nok4Mc23i'
  lat: 40.101062
  level: 8
  lon: -88.249275
  name:  'Narayan & Shanti Achanta Memorial Plaque'
- ap: 15470
  img:  'http://lh5.ggpht.com/C6wRSaEWO1NYGY5luyYZKHG3Z3aib4aflaPdV7B9G6N6adE890g3QuPRSvCUhsdFHqjoVUjo27mfz9WsjXyuhQ'
  lat: 40.100521
  level: 8
  lon: -88.250864
  name:  'Gabriel Patrick Maxeiner Memorial'
- ap: 15470
  img:  'http://lh5.ggpht.com/CRkkFx_9jq2hCt1HtflqZDqCdmSG5MN88FV0rLXk1PZm7maZWzLTKZhjqlSKUx1Tg0tSB62l75w2VFsyUZI'
  lat: 40.09991
  level: 8
  lon: -88.249899
  name:  'Benjamin Biddle Memorial Plaque'
- ap: 14907
  img:  'http://lh5.ggpht.com/q-mJ2EvrjGn2PfbBh3Pl3XIGUyzTqxGjZmTMhn3k9_2Qi0S2hs3k2ZvpKb4kvt60AXHiyQdxqft5ZecPcg7x'
  lat: 40.098959
  level: 8
  lon: -88.250141
  name:  'Bob and Wilma Tinkham'
- ap: 14720
  img:  'http://lh5.ggpht.com/4DJAFPeZ_w65Km7VDnsbOqouQaeBuPuxA0KHPQToT_B6o1hBxzdu3kn89UhHgv22Ygj52Fx9QqcbzOytuw'
  lat: 40.100078
  level: 8
  lon: -88.250683
  name:  'Brian Clark Memorial Plaque'
- ap: 13783
  img:  'http://lh3.ggpht.com/G1CvGhpethi5UmprDWxZN9rTblHa3anSsQz1UPgJtkREkfN7lDFoxFObst0609Cg5mofuZxJKr0ddNKhY4VL'
  lat: 40.098464
  level: 8
  lon: -88.251426
  name:  'Ruth Haasis Memorial'
- ap: 13407
  img:  'http://lh6.ggpht.com/YdeB0EKlsopL39a9YXWj4JBZgXNNLWHgfe4PQzdpWCNWc0fR1YTj8WjARDHnmrusvKWTqKLcGg8U9frhtsw'
  lat: 40.09821
  level: 8
  lon: -88.249879
  name:  'Hessel Park'
- ap: 13407
  img:  'http://lh5.ggpht.com/tfAfnmo6mSMc6U0P533NMFJRGwn6lasmx-MLR2JJg1QOizMKkghFU8E7hb2zgYgdQEbgnCJUlvZIMdrrJe4'
  lat: 40.100822
  level: 8
  lon: -88.25193
  name:  'Seeds of Kindness Bench'
- ap: 13218
  img:  'http://lh5.ggpht.com/xcqe13f85fuXohGUUBZkNrUU1PunkcZ6xMNmHpAp0GJBtydVqCCGj5MqP3Uax4M7Qq4JzDFGqICFrFb6PNEXRw'
  lat: 40.08932
  level: 6
  lon: -88.251883
  name:  'Boulware Trail'
- ap: 13033
  img:  'http://lh5.ggpht.com/DFa-Mh8ldMlU5wGTYmJIGYKPoSYUfYebRpnom9j15NFNRkwMdU5kDME0GYQUyA_LXnsNi9Jka-xidd302s93'
  lat: 40.099056
  level: 8
  lon: -88.249136
  name:  '"Cricket" and Bob Barger Memorial'
- ap: 12846
  img:  'http://lh3.ggpht.com/rUgM7jkTqL0VHxvsSW0yWuNJF5UrU62ITflghfn4PfKjn6L4WGz0ALkv98fc_q9dmK9SSpU1PXIawGvcRwE'
  lat: 40.098246
  level: 8
  lon: -88.251974
  name:  'Hessel Park'
- ap: 12842
  img: http://i.imgur.com/5j1qaiT.png
  lat: 41.142471
  level: '?'
  lon: -89.066295
  name:  'ec5b40c6672749e6b738b2f789ea2969.16'
- ap: 12657
  img:  'http://lh4.ggpht.com/vKgqIecJshMQxrhO-ZhMjcIyARuJdyU63wKfzAG0wouZex6LVzO46Qi5zM1N3Jx8xyantDFk9sQGsSEBhb-y'
  lat: 40.101327
  level: 8
  lon: -88.251412
  name:  'Zeus Memorial'
- ap: 12096
  img:  'http://lh5.ggpht.com/T0WLAJf0s4nu2Phxax31eu6pO6zNoA4JpvHMLyfMKttzJALEWB8EAWOziQwgjdWE3YjBbG1XjGYsgihqCSX9'
  lat: 40.100414
  level: 8
  lon: -88.249061
  name:  'Randy William Auteberry Memorial'
- ap: 11718
  img:  'http://lh4.ggpht.com/mlUN5QXAR7rKFvUg7yhxcae3udkR7zCJVaWt5sq_YA47piV6tRi42RNN9fEtT_FafT7lhqg26WM1VETbz5E'
  lat: 40.098239
  level: 7
  lon: -88.25376
  name:  'Hessel Park Christian Reformed Church'
- ap: 11346
  img:  'http://lh6.ggpht.com/5CDidk0pqfUtSW_Yqouuf3diX8drdMu9DoT728QpSz8q6A-WxNhT0yLcgM_7gGpyIAeXrHiTkIzzaVJFgnN9WA'
  lat: 40.099852
  level: 8
  lon: -88.251947
  name:  'Our Friend Tim Palmer'
- ap: 10596
  img:  'http://lh6.ggpht.com/yjfa0jJLjsfLRf9Zn9iafMp3MuIhgCi0WiOCF8GqTGiGvzEnsPGrFa0H1n-uzWhVehLbt44ShthsA32VzHd5iQ'
  lat: 40.099737
  level: 8
  lon: -88.251157
  name:  'Tyler Van Atkins Memorial'
- ap: 10592
  img:  'http://lh3.ggpht.com/lSr_gDGX9o1BHZX9FUPCKAO2VVQjZ_NwTBaSNhNgjVyJ2p6BnLDByC_vIkhu637-W5nKMW2SShi0gXOlXNqY7A'
  lat: 40.097979
  level: 8
  lon: -88.247785
  name:  'Jarling''s Custard Cup'
- ap: 9844
  img:  'http://lh5.ggpht.com/KuDVZqnpBQnne0a_UqpN4wpsQFlw3nVXAWtRKP_AdZ3CjQ0MHUBgU_2hE8hb71h31FTQbduYmB6DNuVKA0s'
  lat: 40.116822
  level: 7
  lon: -88.243445
  name:  'Remembering Horeb'
- ap: 9659
  img:  'http://lh3.ggpht.com/JM911OdVKmQnAXjY3hLL0qd5NnPCgPAmJ9aMYF-_9aptS_7NkLgtsMyPBHibRhomXqfXCtcHURyAdGxRVMBhXT2_HvtezfKyLBCQf_idvcHp6RfTkA'
  lat: 40.117427
  level: 7
  lon: -88.243235
  name:  'Cowboy Monkey'
- ap: 9657
  img:  'http://lh5.ggpht.com/9XV46K2cUd84oc6HPyqlj53LKJS8lVs0f0gPHSCBkkTwiHaxivu36dlAj5M38EzK-2U4xhvZJ7AiVvGM5yk'
  lat: 40.118175
  level: 7
  lon: -88.244562
  name:  'The Russell Building'
- ap: 9472
  img:  'http://lh6.ggpht.com/YVbqGVTjJuDMDdj71CP2mWvnUIdgO25PgoDdJwEGnEE_M9I1aDgKyjSr9JOZVU6UQTZQtfUo9RAWyz92n3jtCQ'
  lat: 40.098475
  level: 8
  lon: -88.249208
  name:  'In Fond Memory of William Moore Jr'
- ap: 9283
  img:  'http://lh5.ggpht.com/dRrlHXlT2nMNgZNHiYo52ha9L-Xay9DyOJR2Cpqs74hgAJ09abn9OTAtMzRVedt1_R9ObZllLO98vRhNMfgTgVsJCk1S-HJwX_XgiGpG4lz3a328'
  lat: 40.11671
  level: 7
  lon: -88.24263
  name:  'Cafe Kopi'
- ap: 9283
  img:  'http://lh4.ggpht.com/xS51--rXA9M_IHpXWgFQxKZU-YbD-1zk-nug6k7RyKl8rYeam_YFwMmLNWRRHHzI-rOTGyhTJQQ314WudSQJ'
  lat: 40.117132
  level: 7
  lon: -88.243009
  name:  'Fountain in the Alley'
- ap: 8909
  img:  'http://lh4.ggpht.com/W2chhQwPqSJEkl57NVoIL-OE4KFvJfp7Bsrrxza1apCYltcT3npz95LJxqHxvT9ZZu7wxF2gQy-5bpKal2p2'
  lat: 40.115838
  level: 7
  lon: -88.241338
  name:  'Illinois Terminal'
- ap: 8909
  img:  'http://lh4.ggpht.com/aQomBYYXuWBUbnpgDH92zk4VBmLMOuf5n6WXkMHGTzf1DUlyXL-u4a9ulFUrqE5AO82s_LFM126E-B0HqONp'
  lat: 40.088127
  level: 6
  lon: -88.253036
  name:  'Peggy and Robert White Garden'
- ap: 8909
  img:  'http://lh5.ggpht.com/BkbaZlRlq44d6DiMOVuIlrel2Hsi_RzzHhhdmJH6BLzJk5RKxAcvh2mMd93BFhKgTKLk-yZsNLTaJiTbZsk'
  lat: 40.086686
  level: 6
  lon: -88.252282
  name:  'Elsie Mattis Springer Memorial'
- ap: 8533
  img:  'http://lh4.ggpht.com/Gyz7BDhWdUinBQfD8duByX5-aBgPmB9oSesH20dH8uGJnTiaIHkeRJARtH6YQUUD5A5X2IjPTlT989AfutNc'
  lat: 40.092773
  level: 6
  lon: -88.250951
  name:  'William C. Fox Waterway'
- ap: 8533
  img:  'http://lh5.ggpht.com/Lup2et0i5h8oHqtBffIdoyX5uclC2MBn9ZnnKnYPr4RIFSflf9bi78zBHK7QqycA0qgEev9qOk0zU-1o1hg'
  lat: 40.108451
  level: 6
  lon: -88.228733
  name:  'The Centennial Colophon'
- ap: 8346
  img:  'http://lh4.ggpht.com/HEEvU2OlgWiV5huAu3cvNKaI-C8YKYTO3qB8WMTO7EbsjTO84KS6jLjbGCq7THZq6l63UiUKCSEqY2IADYns'
  lat: 40.091766
  level: 7
  lon: -88.250003
  name:  '"The Cranes" at Fox Corporate Center'
- ap: 8346
  img:  'http://lh4.ggpht.com/lHmHpXRMH_OkQ_ZaCBKOe_1H4uKjbGtrlIrp1IWJE3ziHuH5jCVNEfDGTtuhBxGehg_MsT9WcAUXhpI692Y6_Q'
  lat: 40.103269
  level: 4
  lon: -88.231487
  name:  'Culture on the Prairie'
- ap: 8344
  img:  'http://lh6.ggpht.com/PXc3YHSOsx0c_WrfpzvHHiHEl1FSv5RvbgXj7Ji3-xS7oBwJIkFCD8eQySiUega_iQvX8FiUBuDhXdK9l9QWIA'
  lat: 40.116623
  level: 6
  lon: -88.240844
  name:  'R. Forrest Colwell Memorial'
- ap: 7972
  img:  'http://lh3.ggpht.com/lzCSS0_tjwUV7JQ2fgLI0e05IrzPxlVUs-6aEPOwUv67IanQJSTi71gkw0SGm8asmoE_r3Xoh048Fd9xRpE'
  lat: 40.099169
  level: 8
  lon: -88.251419
  name:  'Lyman Larson Memorial'
- ap: 7972
  img:  'http://lh5.ggpht.com/_gJqtOHLZ9UHsmd_iLjxMsPw5eF5YzqE63qEAzURvSp_3OL9ZrPjM-usiUeYx95b7zTdNodab42cQiyiRRja'
  lat: 40.087835
  level: 6
  lon: -88.251299
  name:  'Amdocs Shelter'
- ap: 7972
  img:  'http://lh5.ggpht.com/6MHa8mHyPoZr8QcAXRVJp6cTJ-Besa5bB801GzhlToXL5ff4Zg6U6VtnrbMINQ441jCzYNZDWNxHIBtf7VXvVw'
  lat: 40.087719
  level: 6
  lon: -88.253446
  name:  'Milla Gross Memorial'
- ap: 7970
  img:  'http://lh5.ggpht.com/BK5TjuMzuJgDVPz4C8HRjfZKeaoISnPJ-H7VaYeMNUYmxvvUY7RzIIlR13FjW9HHF_i5-znqs3O6nMxKPfcj'
  lat: 40.102188
  level: 6
  lon: -88.251507
  name:  'Little Free Library Charter 5753'
- ap: 7970
  img:  'http://lh6.ggpht.com/pxaCt7clhIXc1RVGMMJZsmnbEWNWjFYJiUrQMev_SeOmXBothvOzmfnirQ5_W8CMa7hpigqydQhKMa4XFCAi'
  lat: 40.108173
  level: 7
  lon: -88.230209
  name:  'Mural on South Sixth Street'
- ap: 7785
  img:  'http://lh4.ggpht.com/wbrbzDCo3C4qFJyHTWOST5o8B7kwZSWePUWOboIlYrdvxjrhWLqVQ1MqUF5-Hy4nt26x_oHQq9f8EbfdEjVK'
  lat: 40.117382
  level: 7
  lon: -88.243748
  name:  'Days of Venus'
- ap: 7785
  img:  'http://lh5.ggpht.com/3t7XZHqwxLZ8Lc9YomR8FInm74U2PAA-DBk8kmdxXIrcXbKa1CoBDTlgdDJeO-_yVT3qNKRnNLzbdil1eH41iA'
  lat: 40.09935
  level: 8
  lon: -88.249766
  name:  'Jim Bickel Honorary Plaque'
- ap: 7783
  img:  'http://lh6.ggpht.com/tenpgw5pr4OCsrdIgmmHP_sx4RHH2ywHdbNxw556d5JpHC4u64HFYqCdRSeAJgfTN_7BcUv11v8NtBdlaUV8'
  lat: 40.100717
  level: 7
  lon: -88.243989
  name:  'Rainbow Garden'
- ap: 7781
  img:  'http://lh5.ggpht.com/0m1i3CJSj3bKhLj5BgXi8SFpgoihNsBoN6fpccgDU2tjtPcA5BqB1IxvR0yAX9FWkgt3_Q8gbAyGfdJDliGP'
  lat: 40.115142
  level: 7
  lon: -88.238658
  name:  'First Street Antiques'
- ap: 7409
  img:  'http://lh3.ggpht.com/HX3mWBGofQk08Qdp7A6KMK1AnSXlLEPJR-n6oeX69Efiiss29GHsLiDsHhRS5K8DrXh-QXP1T0AMaOsJmx_w'
  lat: 40.106921
  level: 7
  lon: -88.230145
  name:  'University Lutheran Church'
- ap: 7407
  img:  'http://lh4.ggpht.com/tLX-6Ub72fZQHiUgdDlTCFdgJMzvyICnd3BUZ2CkMd1kPhODSr7FDW_rVkZTBZ11U6gjZULvMZGnHcm4p1wo'
  lat: 40.10309
  level: 4
  lon: -88.23142
  name:  'Gelvin Garden'
- ap: 7222
  img:  'http://lh4.ggpht.com/3gTAX6rKgNjLmBOYvAVTgSPQej5yRF_38uRllp9H4n5N6pvwWo5kDMDwlIkFVPPl30BXPSGAlZ9pO9B4DMk'
  lat: 40.116218
  level: 5
  lon: -88.242141
  name:  'Live Action Games'
- ap: 7222
  img:  'http://lh5.ggpht.com/aeGh3iXJqJ7skg-2JHEpngMSfcp1qDIEPoLMxzQNqbS5Y7HcxN7oE789bXiVFoFIcdCn7-3AhLPtxT_WE2E'
  lat: 40.0985
  level: 8
  lon: -88.248681
  name:  'Siti Sculpture'
- ap: 7222
  img:  'http://lh4.ggpht.com/aFcisvUEjvw8cW_JZB2JIOpPXr_cWq9tGzjT65AMZfaR6Dwevg8S6dfNMTVswut9cKOr9-SCQdSqoOnQ4c1Q'
  lat: 40.087914
  level: 6
  lon: -88.253489
  name:  'In Loving Memory of Robert and Elizabeth Grubb'
- ap: 7222
  img:  'http://lh5.ggpht.com/85X0vnlHzLPww3OziBoMSVfkwq66eKQNZ9Mn6qsjghvteOQZiAVlsY80NVcsErHao0QYd9IyF7PDJyp-jaQ'
  lat: 40.101632
  level: 7
  lon: -88.233133
  name:  'Sunken Cube at Art and Design Building'
- ap: 7220
  img:  'http://lh6.ggpht.com/1El0oK6CWDh7rAQeFmPEW_dA252pdq7piTtjtuQCkZvwRa689NLjEafLqQ35TI5qCW3Lmhja9PLQqKxFs9Ha'
  lat: 40.110627
  level: 5
  lon: -88.227584
  name:  'Tau Beta Pi Statue'
- ap: 7035
  img:  'http://lh4.ggpht.com/MvwoDsxwfyNLHzfGkFJl-4VFeX7OvqB0hsMCrZ2D9Olh8GSghAJDfFfDh7a7cOtMIGwEDMyesZoKvKCXAGj4'
  lat: 40.116553
  level: 7
  lon: -88.242268
  name:  'Esquire Lounge'
- ap: 7035
  img:  'http://lh5.ggpht.com/X-Tq3QbQ3JvCApWIGFxRwDJId7aLa8hY_ka0eU3QySTcZBgXcbPC4UXEQ9VVMsA-dYRxGqAdCotw-q7dby8f'
  lat: 40.088412
  level: 6
  lon: -88.251667
  name:  'French L. Fraker Memorial'
- ap: 7035
  img:  'http://lh6.ggpht.com/MzDfG6eMMwVr56zIpVxRJKU2aoUq-95CLeBhoiEQQKzpC2zulq5jFDLv1IK0JcRy5Q0PhRAreZ1p2ElsdnNu'
  lat: 40.108048
  level: 6
  lon: -88.226279
  name:  'Nuclear Magnetic Resonance II Plaque'
- ap: 6848
  img:  'http://lh3.ggpht.com/VLipBehsKPCp8ewQnBV1ZCz7uE75zcY46iGDyFfFHgX1o55t3DONb3wcBcL5RMYSqABRK0TgIW3DluNy8y6WaA'
  lat: 40.101131
  level: 8
  lon: -88.250539
  name:  'Hessel Park'
- ap: 6848
  img:  'http://lh5.ggpht.com/8zq5tMevCiipZK8N9-8SZw3vdsA2HwH0E02ormQshGxHVZrB2WPK7OPC8zt6pjLlgpXVuEYHVA_08_Q8fPw-'
  lat: 40.099647
  level: 8
  lon: -88.249648
  name:  'Max Overmyer Memorial Playground'
- ap: 6848
  img:  'http://lh3.ggpht.com/J_h4tdb4wqy8bmmQfDuy5yqTR2IlkzKojfvsMOvlD-3tf1pKxbDlhA6W9Q8RX-JaSxhItMr4bmCxiUQXTLbz'
  lat: 40.10064
  level: 8
  lon: -88.24958
  name:  'Edward A. Cousins Plaque'
- ap: 6848
  img:  'http://lh6.ggpht.com/qSCp5fQMlyCQ-GOAgiSFy5gaHJei705Pa3eOlJiYO5wGjZTYtjA8q7QWWfAWcLKjxZSaFiMfXOPR8SO7rWU'
  lat: 40.099353
  level: 8
  lon: -88.251876
  name:  'Raymond B. Cattell Memorial'
- ap: 6848
  img:  'http://lh4.ggpht.com/4LxsGZZMk3DnpJXUvqzrL54CHSP5TDXjUnDJyHmCCTtCJIjGEI7kxT9g4uxfSPh0X6yGLgQo1jfqbu7B8VEr'
  lat: 40.099084
  level: 8
  lon: -88.251826
  name:  'Irina P. Stewart Memorial Plaque'
- ap: 6848
  img:  'http://lh4.ggpht.com/B_I1b0Jy3vW41RX8jjCNPP68AULplU0Pf8ddolyKmpEWCfBVShQkmjF1HfTPzDjmBBQGgOs0jHW-rUR0mv8BkA'
  lat: 40.098789
  level: 8
  lon: -88.251685
  name:  'Curtis William McKinney Memorial'
- ap: 6848
  img:  'http://lh6.ggpht.com/S7Utf4_59vQkAP5JhC3mdbzVLKBTt-0zoJ2UjfxUnN10VBbixO-_VwvssWd1LbFSx_yafaijd_U0wTGo870'
  lat: 40.100941
  level: 8
  lon: -88.251314
  name:  'Gabriel Patrick Maxeiner Memorial Plaque'
- ap: 6846
  img:  'http://lh6.ggpht.com/q48Oqk2mm3dXQ2ppK-aYGXKjIiTAOEZfrFkiLK9LXRz2uN9hSKihKeCwfg33q1Z2zMTIMjqJRjPA1U_V3pbR6Q'
  lat: 40.104417
  level: 5
  lon: -88.231962
  name:  '1926 Sigil'
- ap: 6846
  img:  'http://lh4.ggpht.com/3_LELG2r-A5s2d-x2dWyz6h7HzfjVR_KZn9AG0vhih9EalQIG43iL6LdKqKNpnGdGwguP9ZfnGF0KMq_KDE'
  lat: 40.105799
  level: 6
  lon: -88.230188
  name:  'Color Glass Windows at the Newman Center'
- ap: 6359
  img:  'http://lh3.ggpht.com/swF7asGHDD1L9hslewSBg2z-tocpd_HXkIYuOmz739SWxCj8KBqf-kcOPOFPoE8pLXKDxR6Z8jAJ8Kx7Fbnc'
  lat: 40.089334
  level: 3
  lon: -88.253652
  name:  'Mattis Park'
- ap: 6659
  img:  'http://lh6.ggpht.com/PrKWQe_StHjP7QQeyxlKiMSxAelIQlmbHzFMejewhMdVT0J-uvMpZCUGvQy_dZfrqfDnkmrIZYWkZORSGrnp'
  lat: 40.088449
  level: 6
  lon: -88.251396
  name:  'Boots''s Garden'
- ap: 6659
  img:  'http://lh4.ggpht.com/RF7EbCh1YRbFHfis_PEc88NF1v4Ndhj-Rm7rrlY7F8s-Mrv1EMEFnajFbYiNffZ_3kMNL80Zv-_jtaMYMtLA'
  lat: 40.110655
  level: 6
  lon: -88.22725
  name:  'Gothic Brass'
- ap: 6472
  img:  'http://lh5.ggpht.com/kDVKmp7jSlZ1o-7qOsCnRovJeghgXHZ8aCDs-HOlcHhrSbcYXNYN2IOODVgKVnUMF_i6KDi2h96TMWnnUlUl'
  lat: 40.117287
  level: 7
  lon: -88.242984
  name:  'Dandelion Mural'
- ap: 6472
  img:  'http://lh5.ggpht.com/-OqC4qsxJReOCIM0nMbVjvfydYq6x9bfLc7fmyI-u3x_ygkr5RCE-Ct-uYn-wvhkpdLRjIXEkiODbTkV1iufX14GyE_Qzy1Vkz2mpimaCx26Bo8'
  lat: 40.109364
  level: 6
  lon: -88.227697
  name:  'The Diana Fountain'
- ap: 6472
  img:  'http://lh5.ggpht.com/4eagHlnlpVbtFi_knZN73PIs2A--Ipj6SOlkQADePlfnzfOnJn-cAv0IoNNv4qR8WrbUFImUKHBknyaoAewO'
  lat: 40.111383
  level: 5
  lon: -88.225675
  name:  'Only Rain Down The Drain'
- ap: 6285
  img:  'http://lh6.ggpht.com/2lDM_Uj6QcUJmWkmPhNWg-vfkJbBQAo6zb7eXC5qDTaJ5xAsoU7jPPqYmLo7zztC2Za1oH3QVrHQ78-XabqR'
  lat: 40.116398
  level: 7
  lon: -88.242485
  name:  'Champaign Servicemen and Women Memorial'
- ap: 6285
  img:  'http://lh5.ggpht.com/GN_FYcjKjamCNlfD8yA995MpcEHa9gIZVV6FBYtdeiNr_XgtCIN6gnN6_dSKwt-DenNMN_ZiJaG12iLuY6wt'
  lat: 40.103588
  level: 6
  lon: -88.233095
  name:  'Huff Hall'
- ap: 6098
  img:  'http://lh4.ggpht.com/ryDcZUJK2aQ_fI0-hY850_t4ZmG2hNmtCx7cxbX83w3cnUWdI-ywpTuQrUVQNxGl3_DcxxNr6bupfDTsagRa'
  lat: 40.117107
  level: 7
  lon: -88.242467
  name:  'Radio Maria'
- ap: 6098
  img:  'http://lh5.ggpht.com/ENeQgqydWbi9-Oyf7vizunoRqJdsZV4o0RA_956wjGI8hqpTCHBPyWMpbTrrkwYpj5tgzDRvevGmvH4eFRU'
  lat: 40.099593
  level: 8
  lon: -88.251724
  name:  'Blessings from Devon Elaine Cattell'
- ap: 6098
  img:  'http://lh5.ggpht.com/EaT0PxhOud4vjm0kHYMit1zq4b2aTjV4M2olWNI-rM0oUVFeEI4kgeWGcrbk_EvcGBz6hwrN_wYLDLK3CUBi'
  lat: 40.088861
  level: 6
  lon: -88.251811
  name:  'A Flagstone Garden in Mattis Park'
- ap: 6098
  img:  'http://lh3.ggpht.com/rlm0tE7Js-ApRSIfi0JxzxMVzrls50Gpr-Dbml7uBn7o0sCMtpiVa81HJc88eD0VlJiuzy9UTBFPebVcw-GK'
  lat: 40.087494
  level: 6
  lon: -88.253476
  name:  'Rotary Club Meditation Garden'
- ap: 6098
  img:  'http://lh3.googleusercontent.com/awNe0JGlWWAtHv9iiLcqQjVyppWY-io4ybTL_ir2ZKsMLJgkZcW4rdUAuDjOFdWQvIcp5jlTWiROgHANh1Y1'
  lat: 40.087822
  level: 6
  lon: -88.253161
  name:  '"Ice" at Mattis Park'
- ap: 6098
  img:  'http://lh4.ggpht.com/bYrhTw8QophdiqDG-upqJ6JX2g2tZYX4N1jC4d_cciIj4ep8oQvIgjJlfge2VCmzSZe9irj-BTpbj9Jcv7U'
  lat: 40.103009
  level: 4
  lon: -88.233215
  name:  'Mac and Diana Garret Memorial Tree'
- ap: 5909
  img:  'http://lh4.ggpht.com/aXG2XQNJXyPDBz0o8tyfv07VIfskZuFMOWW2ylZpZKkWMnFjoiBmBiWg2VedsjdIorpfX5mtUGnwVLFb7Ga6'
  lat: 40.091438
  level: 6
  lon: -88.25077
  name:  'Fox Development Corporation'
- ap: 5909
  img:  'http://lh6.ggpht.com/pYay9oPZwUNKfLdWJ1JMI5tA9-Gd0vsBddLTz7fXN6wUW7F23hLMWRwFZNnXyomRkc2f9sqCGMxNWuYHPFZx'
  lat: 40.109142
  level: 7
  lon: -88.228748
  name:  'Kappa Alpha Psi Plaque'
- ap: 5909
  img:  'http://lh3.ggpht.com/x5fBw8MRogV8dm3kPO5zKNkUrQxn0dM7d1PIoASdX1_Rc8H5Duex4iZdOoIlqazCGll25TmptsWIRq1JFmj6'
  lat: 40.112135
  level: 5
  lon: -88.225762
  name:  'Computer Based Education Plaque'
- ap: 5909
  img:  'http://lh6.ggpht.com/WtqWBwqpYTSw3g9ru5NwcFn5iK5STxWgy2kv4OUTWqwtzx76-9Msz0eqoiw0qpEYE1U4zdt9rzzNZMDNagNg'
  lat: 40.107943
  level: 5
  lon: -88.226751
  name:  'Class Of 1917 Plaque'
- ap: 5722
  img:  'http://lh6.ggpht.com/D-AymiJdf5gt94o_wgUJbOD9Fpl4V7PijJOjkztpP0_J2k82i1TBLDAaqcH_SUTUFe9VlllfQCsXFg_J0uAPeA'
  lat: 40.11569
  level: 5
  lon: -88.243433
  name:  'Christ Community Church'
- ap: 5722
  img:  'http://lh5.ggpht.com/gkIcCbfmQWyJ7s9ryhzfOOn1K-oa8huqzZN80X2psVjx_6Iur5egjGncbUIAMLiAJAf9qG1Ac8lX2MomHYY'
  lat: 40.108185
  level: 6
  lon: -88.225203
  name:  'Statue at Medical Sciences'
- ap: 5535
  img:  'http://lh3.ggpht.com/07XrBN-er6Ecleor0n9RJ4DfGO6B2yn-ZxjI-Uy8Ba46Jtb6cXNVmATPiPiGyk-1jZ4wxa7-EeIWbWUqArCG'
  lat: 40.142554
  level: 6
  lon: -88.243468
  name:  'Dog Heart'
- ap: 5535
  img:  'http://lh6.ggpht.com/Jltxi7PZ9OVi8hBCUxdt9oxXQk9zmbrtHpM_jru2WhVYyY0UkNZ8h5SU3CdwMRNzZ1ZKabPR8hDCPz7p3Ms'
  lat: 40.114439
  level: 6
  lon: -88.245013
  name:  'New Covenant Fellowship'
- ap: 5535
  img:  'http://lh3.ggpht.com/WDQ55kRMYCIrw9Pm69IuV6cBTI2nx7Z1gU9yxX2oE2oH9EdPnO1ltxSROAjUmHmBu84SEtHmLKregkDqlLYzUg'
  lat: 40.117126
  level: 5
  lon: -88.240623
  name:  'Depot Barber Shop'
- ap: 5535
  img:  'http://lh3.ggpht.com/PKHUaHtGQlwpb8q3mUpPJtjb51_am_ieb_9X0u8g1PI_eg7NxFQU2fqeV8XjnIIDy0rCMtqsfMJLerOBo8M'
  lat: 40.118579
  level: 6
  lon: -88.244588
  name:  'Mural on Art Theatre'
- ap: 5310
  img:  'http://lh4.ggpht.com/9hzMj8KV-HraIucojjHAEgyMZsJAR9TWvNS-QSBB5LTYBOTwwqfTQySJ_Sz88eP3eyFWFYhx5qDVY93t8fk'
  lat: 40.108032
  level: 3
  lon: -88.225702
  name:  'Centennial Court'
- ap: 5535
  img:  'http://lh4.ggpht.com/H1kV6JSczzSbcCblAHg5ZOgITW1mBAz0_oLbqbzxBlijGTBn7TP6KwA6UI0AAGrCN4VF0DAF79Vcj6_2R4dsB8LRTq6tud6v'
  lat: 40.107753
  level: 6
  lon: -88.228913
  name:  'Zipcar-Wright Street & Daniel Street'
- ap: 5535
  img:  'http://lh5.ggpht.com/uP38yDCg4dPRI1F0r0ALGArEc8Q9eoRuaxkfxZTafZZr9tMcbLUZek1hZRbLUxHJVGPcLSf_JKbotbTBeR7nfA'
  lat: 40.107226
  level: 5
  lon: -88.22858
  name:  'Class of 1897 Tree'
- ap: 5348
  img:  'http://lh6.ggpht.com/ea6HxAw7m0OhhPqJJkZR9u60pR1sab_JdxaOyEltqmQd-63FFJzPY72jEnu08g9Gcjjj5cf3jyyS_M1E7OIbfg'
  lat: 40.11616
  level: 7
  lon: -88.241422
  name:  'It''s A Mistree'
- ap: 5348
  img:  'http://lh5.ggpht.com/BUGNnLReyCBJJj9_zpqgwv5_CAyiW8fWBpyVs0ip1hT5NEE6YKCYzlc8ahldKzk_xv-4uckNJNb6NrJd6r33qg'
  lat: 40.116989
  level: 7
  lon: -88.242255
  name:  'Blind Pig'
- ap: 5348
  img:  'http://lh6.ggpht.com/n0f7lyo15OzZn5IJHsohIGAA58iioentPZGEY4zeMZCCoX4GjEEkqfaTCIbrx9OnezriThnbFV14kYcwKTgL1g'
  lat: 40.098444
  level: 8
  lon: -88.248167
  name:  'Healthcare Not War Mural'
- ap: 5348
  img:  'http://lh5.ggpht.com/FeahTnHcc-Tb0sWOd6cQiYz5QrczzT5-Behz0KlyeiGyzYhvAlNlhPI72BVkREal1tU_4g4r2UklF7lcQgKr'
  lat: 40.087292
  level: 6
  lon: -88.253528
  name:  'Agnes Sweikar Memorial'
- ap: 5348
  img:  'http://lh3.ggpht.com/o6_RpCgHFDA4MceKnIqFkksRYWZkhEKsAZE3VNGl5iS5zkkQWJdBKOY-gNca5iB37jbgnoYsbc1ROtZ-bQhJIw'
  lat: 40.108833
  level: 6
  lon: -88.228125
  name:  'Class of 1902 Memorial'
- ap: 5348
  img:  'http://lh3.ggpht.com/5OA9gBD9HJe7pZRJ6DjHOGIbC9paid10T5gOLcZS91YP3V0eTMGqvFmPtvp6UtWzb1w2sOV5dbYmxDUFnQ0x'
  lat: 40.101862
  level: 4
  lon: -88.231737
  name:  'Krannert Art Museum'
- ap: 5161
  img:  'http://lh5.ggpht.com/N1cFx79JwZqPlYPDW3HkNwRX8N4Auriii45qzYkAx9l-cKeK81qgZ6nuBpTBEIOyLzy4aIIhQKt2E7ZiysSjkg'
  lat: 40.10036
  level: 8
  lon: -88.250515
  name:  'Mark Foutch Pavilion'
- ap: 5161
  img:  'http://lh6.ggpht.com/BKeORacgeVrG8XzxTuXmpq5UxomWpK-I2n7Xy0PVbdSciNx9MJl869TcibnFIiV5PJHGv5R3QOpX6ZgLUwU'
  lat: 40.099706
  level: 8
  lon: -88.250065
  name:  'Lois Barham Memorial Tree'
- ap: 5161
  img:  'http://lh3.googleusercontent.com/Tixp17uCaP682s77UzvCwWCOE6vg7iB2qEFLjACq7xtVJdHE0K3yKYsl3_SwKbiUfQWwgTQRbvfka3U0NvNc'
  lat: 40.098819
  level: 8
  lon: -88.249214
  name:  'Bette McKown Honorary'
- ap: 5161
  img:  'http://lh3.ggpht.com/sisvfsphxy7AK_2qrrqb7lNJk3_7ciHSVJyodINYITBc-UqugyNOooCxKupgJKEg5m_x95eZwouSO2WCmN60ew'
  lat: 40.098579
  level: 8
  lon: -88.249603
  name:  'Chef Ra Memorial Plaque'
- ap: 5161
  img:  'http://lh3.ggpht.com/KzADjdPRAvwycpfTBdAeDwFJ0AxZJG2dPmbPWkXq55QLV9PfpJ_-DsXWIlVgsISUApRdJ5cAxRWx0k0W2hI'
  lat: 40.09979
  level: 8
  lon: -88.249107
  name:  'Jerome Cook Memorial'
- ap: 5161
  img:  'http://lh3.ggpht.com/8FqlniFErK7cq59awiT84u8KyV4FIRd5krZzfYa58zJToFps7whdBnriPqvO_kFKeLUE3SWbJhCOPuvUQzaGFA'
  lat: 40.100691
  level: 8
  lon: -88.251337
  name:  'In Loving Memory of Zeus'
- ap: 5161
  img:  'http://lh6.ggpht.com/3o0ObAARFV_8mBVCC_QD0iLOPVzNkakXybhLnSVEuXIJfDLKMxeYj-EkWIw9NPoZIVRf5Dkrid2yf_NEQ-iE'
  lat: 40.100347
  level: 8
  lon: -88.249385
  name:  'Travis Marmion Memorial'
- ap: 5161
  img:  'http://lh3.ggpht.com/GXyi2ghi2DR3h7uIHNYiEZPYixRhDo7LO0WHQ0PyEzb-150r7ar7JGeVjUoPuObC-GFWf22UWqnYCMtED0M-'
  lat: 40.100341
  level: 8
  lon: -88.249937
  name:  'Alice Marie Weber Plaque'
- ap: 5161
  img:  'http://lh3.ggpht.com/VrbXGwlUosNLEkVdshWUFoVa3KtlJQoEU4yLYygvftYbPCmxo644Uvar_v8Kb9RS53hB0tXgvV44GotrxZyu'
  lat: 40.098592
  level: 8
  lon: -88.251676
  name:  'Ruth and Fred Steigmann Plaque'
- ap: 5161
  img:  'http://lh5.ggpht.com/HhVreJipNvxPRVFpmsh2BPo9PcpPO2Q2l3jCpDjIKgfKGycoTNPXR4DKiYccBXW4X-4dJf_vV0ESsWAWHcChsg'
  lat: 40.100936
  level: 8
  lon: -88.250855
  name:  'Donald F. Bresnan Memorial'
- ap: 5161
  img:  'http://lh5.ggpht.com/-UWK84I78Sftf7yg-E2pg6xEAWTvyiThgJBJlxbqOZPYKNmzQ8uGgEEMetzplrG1HpXG5kQqNItUeXKxOHDsGA'
  lat: 40.100286
  level: 8
  lon: -88.251747
  name:  'Tennis Anyone'
- ap: 5161
  img:  'http://lh4.ggpht.com/vxjetUOC6_S8Ru3Q1ivzG4NE4bAAWg7_opiMwStExCoUHiRaIab8NyXLypEOAo7KBtsRQRzJX-TimhsOlBu3'
  lat: 40.087121
  level: 6
  lon: -88.251406
  name:  'Amdocs Shelter'
- ap: 5161
  img:  'http://lh5.ggpht.com/WtLGJ5PPeFPGSKegRKCurNiGVHvfV53LdGHbVkCfDXxVvUpneEqngOPUTZJgZL4RdA1_YVGUXlpWs0ZDr6OH'
  lat: 40.086378
  level: 6
  lon: -88.251308
  name:  'Life Lessons from Kimberly Kueffler'
- ap: 5159
  img:  'http://lh6.ggpht.com/Pnd8JOVl_Lm-LFi5TL9dblCUNbrwX2rh4_oKgOC5Ynga-E_Y207oGsL4Uz931FTapBrs35H98qxJU4Cm_Gk'
  lat: 40.113024
  level: 5
  lon: -88.229095
  name:  'University Place Christian Church'
- ap: 4972
  img:  'http://lh3.ggpht.com/BTOxkIG5jV6VaSJtyt1Kge-WlIsvddZuz7YzzqkQhAMWxgfE71ab2wqWdKY20M9-6zbGlVq43XMJ2CrZDqU'
  lat: 40.127246
  level: 6
  lon: -88.276738
  name:  'Kraft Giant Macaroni'
- ap: 4972
  img:  'http://lh5.ggpht.com/BoAN9OSCH5u7G1sestzZaXjjik82i-SteF6-r5KTTyl530q9H5G3ibjJdqpGGY-nL8MypRXn2twwvn_y5nMmug'
  lat: 40.133159
  level: 5
  lon: -88.28778
  name:  'Campus Solar System - Saturn'
- ap: 4972
  img:  'http://lh5.ggpht.com/dnj__uItXDR_xj-g5PNpGYPNjJCPBFpsx3w9sWxvrOlayO6nyG_Qu8MygtuFZm9i4L2Gho0fkOACtzkGR_e2wQ'
  lat: 40.098457
  level: 6
  lon: -88.276763
  name:  'Mini Park IV'
- ap: 4972
  img:  'http://lh3.ggpht.com/ugJXpaIWZ-wI1vpderJmQjM8r0T5_Li2j4hvvsu4fRM9k3MeBpETqj2LFNd1pEkcfH0I9bgZh--5g1AEJKkq'
  lat: 40.092745
  level: 6
  lon: -88.251235
  name:  'William C Fox Honorary Plaque'
- ap: 4972
  img:  'http://lh6.ggpht.com/NMgUdPOdhvhvKZh7ugwXgybshZBZ2mkaEWMNKYdFPX6cfIYENSCqE9YpAXSNVuq_9VVWXJB-ShCBAPfF2Yvs'
  lat: 40.102513
  level: 7
  lon: -88.243679
  name:  'Robert Hosier Memorial Garden'
- ap: 4785
  img:  'http://lh6.ggpht.com/v2m1E6vVK4ZRaRPhGli7jCsG7xZQZ7I3vV_5AogdEpPU_A1vz9WEkH0vZ-vau2IAdmydYJcXrOA6SMr7vUfT'
  lat: 40.128726
  level: 5
  lon: -88.290287
  name:  'McMillen Ehler Homestead'
- ap: 4785
  img:  'http://lh5.ggpht.com/BiCieN-kLaA8XtzYGa1FowWTlW2QzWtnxSCf1y1ChY9WXw1kN0r1Co49FI5D_xcWRrgO-_wOvqfduWQ2o337'
  lat: 40.092411
  level: 7
  lon: -88.257688
  name:  'Champaign Fire Department'
- ap: 4785
  img:  'http://lh6.ggpht.com/o-Si4_DCq7Qwa_fFJhaTZ0-zCScbl7wDS4PHIFGMbnP9TuPVe9ZauXV3lAreyYvxN7B7n8mlrOR2SsPzXmU'
  lat: 40.115703
  level: 7
  lon: -88.239504
  name:  'Chester Street Bar'
- ap: 4785
  img:  'http://lh5.ggpht.com/wQyraalmgEp26SShKVGNr0ml10w26IdIPI1i69jVu5rNlfxc2tsEd_j5gzVSRd7ArXrlx2OlBLGkvCsgh__yPEvCKd94_Ihv7T8bWqMW7ZWLRuRv'
  lat: 40.083568
  level: 8
  lon: -88.189313
  name:  'Sitting Bear at the Pines'
- ap: 4785
  img:  'http://lh3.ggpht.com/ZrkQ9I09rQynLgNHgTWMc8sm29XEvwj5QcSQhhgTtN7hDh1pSZHSTI63mz6wWj1jkhlz1qYkKyHD0SJWPNMY'
  lat: 40.094863
  level: 5
  lon: -88.190535
  name:  'Splintering Continuity'
- ap: 4598
  img:  'http://lh3.googleusercontent.com/hJZWoErzM-MuXulq4FlhlZwMbJX1Isd81GBUBVKayd57jVIVxUle3itd-1DRKo2VaNXznWr1X639fa44Etk'
  lat: 40.141919
  level: 5
  lon: -88.244611
  name:  'Marketplace Mall Carousel'
- ap: 4598
  img:  'http://lh3.ggpht.com/LunaMtSKD9yiLQClolDY-Iqh0ENm9AgJdL4D1QxGs0j6TXPgqxDZea35x5ilAfeI5_0TGh5x1q1EqRsJsLFi'
  lat: 40.114111
  level: 7
  lon: -88.243697
  name:  'Champaign Surplus'
- ap: 4598
  img:  'http://lh6.ggpht.com/YEHyAsx3ysK3IxTTbSx5dLEcHRtRVKQ4XTvE0Kvkd3iIW3mA6lplwojkVOpWCemyQS6G3JESxZnMFQtVf7V3'
  lat: 40.11652
  level: 5
  lon: -88.241845
  name:  'Mike ''N Molly''s'
- ap: 4598
  img:  'http://lh3.ggpht.com/DpFBT6YsInBvoo-6DUZeryDpITUgNnrw3j-iMPdeg6S2h9pL4DSqJLbMzsMqmLRwgJKLHa-xMVjHKDoSqwE'
  lat: 40.089107
  level: 6
  lon: -88.251579
  name:  'Donald M. Decker Memorial'
- ap: 4598
  img:  'http://lh3.ggpht.com/F-cwL1kpN8KTxTiRAdaaAFictKYDbMRhPltdDuO0_6jhG8_6fxg1_yHzy1kBs1WXPRZ8UQDrxqY1fCdmHXFU'
  lat: 40.108042
  level: 5
  lon: -88.22808
  name:  'Earl W Porter Memorial Tree'
- ap: 4598
  img:  'http://lh6.ggpht.com/yYW6Egg1lWn6UqqLzlgqwCQhtbuxiZSW4TmvI1XBPs33OTTJ0oh51XZXOIILxGI2juoO-E_YfG5UHmeb34rSOw'
  lat: 40.109165
  level: 7
  lon: -88.230269
  name:  'John Street Plaque'
- ap: 4598
  img:  'http://lh5.ggpht.com/dgQfoxxVeHT5ODqLiUYHV45qvkC_BMS0kIFRqvHvE2GO0TduZ0-XzhW8RE80LtPDK0Ay5xwA6PtjM7G3C9U8'
  lat: 40.108947
  level: 6
  lon: -88.232251
  name:  'McKinley Church'
- ap: 4598
  img:  'http://lh4.ggpht.com/0j8eeTKJgjnYhHpf4qH_70CZHLbujC5v-XP_ndcqh1xIR-5V2K_CGdjIe1ZfMbwvSyISxxYKoZynw1DaQcj8'
  lat: 40.105874
  level: 6
  lon: -88.230562
  name:  'St. John''s Rectory'
- ap: 4598
  img:  'http://lh6.ggpht.com/3F-W_tWjI9to9yO9QFciZhrR-g69gAfObkgheBu6KlCyrjO3-yU1e6v7ziRZ5toBoJYzhhsInOPwyvIAQcQrDg'
  lat: 40.103603
  level: 5
  lon: -88.230999
  name:  'Legacy Stone Class of 2013'
- ap: 4598
  img:  'http://lh6.ggpht.com/5tR3GirLCJ25x9j0BfwipsCOjlPMYGMmFrzEkhsJ4eGZ84FFe1_KnUmW3OBzAKAzQgPWPxt1WLJG2DvjFy6W'
  lat: 40.109015
  level: 5
  lon: -88.224982
  name:  'John J. Morris Jr. Memorial'
- ap: 4411
  img: http://i.imgur.com/5j1qaiT.png
  lat: 41.075802
  level: '?'
  lon: -87.805673
  name:  '6b9b20e9c6344696a9d9b208fd168ec2.16'
- ap: 4411
  img: http://i.imgur.com/5j1qaiT.png
  lat: 41.07951
  level: '?'
  lon: -87.810665
  name:  '214396967cf0404e9441d0708745abe6.16'
- ap: 4411
  img: http://i.imgur.com/5j1qaiT.png
  lat: 41.078366
  level: '?'
  lon: -87.807961
  name:  '5fab372f07664c4ba74b9a7576fb1c4e.16'
- ap: 4411
  img: http://i.imgur.com/5j1qaiT.png
  lat: 41.076121
  level: '?'
  lon: -87.80594
  name:  '26ac6a4f15bc4b6286a19ce74a5ea3d3.12'
- ap: 4411
  img: http://i.imgur.com/5j1qaiT.png
  lat: 41.08651
  level: '?'
  lon: -87.811038
  name:  'ced74cb8c9c44a0cb5ce649e449a09ec.16'
- ap: 4411
  img:  'http://lh3.ggpht.com/CwgYIhVaivHHg_U6yqu5KSGhSh9ipRBDu7G192KiQfrnXc7C8uh7UOh6MP91vhZJ3LZdiTaFwpvFukvIaj6J'
  lat: 40.117445
  level: 7
  lon: -88.243409
  name:  'From Swords to Plowshares'
- ap: 4411
  img:  'http://lh6.ggpht.com/cZVUlNaHjfsB6Lu5hnj8JjUk4lvsgOV7DFz4Nl47-RaQObW1VPRpos6hTDD6WgYrNxCh9UKfn5DFU-K7lRe9pQ'
  lat: 40.1164
  level: 7
  lon: -88.242747
  name:  'Sidewalk Art'
- ap: 4411
  img:  'http://lh5.ggpht.com/Sgu5qG2Ltp9axQc8nEr3fJ_qvNo6-gwd5TuKMrk2LM9d5P7DDy0oCoWiGnr6Ybp84FGMh9DQYLnFtBTZtBIm'
  lat: 40.113606
  level: 7
  lon: -88.243766
  name:  'Mural on South Neil St.'
- ap: 4411
  img:  'http://lh3.ggpht.com/IKYzmqr6aeIX2d99jn1dQHjjq0-h7glRdyPEPoTdQnggoAgc8uutzh3X4OYjcCllXVp5r9rYyYnVPwNALI8B'
  lat: 40.115178
  level: 6
  lon: -88.246191
  name:  'Clark Bar'
- ap: 4411
  img:  'http://lh5.ggpht.com/6qIQAtIoPbAVQ1O3BoOnGg6gtTa9fd0JIkxt6P1kmSimVswLaPpCRaLEudsNcMfP_kKb4SCE1By1o3lhYevmIA'
  lat: 40.1172
  level: 7
  lon: -88.243745
  name:  'Circle of Friends'
- ap: 4411
  img:  'http://lh3.ggpht.com/-MRGQEVV5mNMzB4sb8JAsgVC56kTzYaFEf3mpRsfXAiO4KIrLw3LGFkt7Au97yDwY-AUSfghHcri53Zpmn-Z4Q'
  lat: 40.11621
  level: 6
  lon: -88.242535
  name:  'Inman Building Historic Plaque'
- ap: 4411
  img:  'http://lh5.ggpht.com/XQVr2AUWddJQMpYbapEIpcTLBeBvcpgmW016VjkAOXrp8_P2VsMxQY8FVhtDhA73iTCXCPiydjFIJcbcSa8_'
  lat: 40.116206
  level: 7
  lon: -88.24306
  name:  'Indigo Art Gallery'
- ap: 4411
  img:  'http://lh4.ggpht.com/PHV-1ZpFzCAl_ViCKwBY_x2pIDbVyaT7wJH1sTvFJCxrSdRrO1x7NaXq9OdRGwz_Mls4iwk6wuGHMBArfV54'
  lat: 40.098688
  level: 8
  lon: -88.25063
  name:  '"New Holland Yellow Dinosaurs" at Hessel Park'
- ap: 4411
  img:  'http://lh5.ggpht.com/AsiP7X99phJsAWWLusxVx9jztxrqq-wjSe7AQS2KrK6muMt4sB3UIjlshPNUA13BR-o8cX70DxvhbxODvrY'
  lat: 40.087526
  level: 6
  lon: -88.253714
  name:  'Plotner Memorial'
- ap: 4336
  img:  'http://lh4.ggpht.com/7U0YXCB_DIhnqPJyjyLpNn6kg4lU8HvKL87ddBKWq1sptvVLvCEiCuNEnghQtqDGSN2OBNcOUK9nZcYjY4Vr'
  lat: 40.107887
  level: 5
  lon: -88.225998
  name:  'Lifesaving Antibiotic Plaque'
- ap: 4411
  img:  'http://lh3.ggpht.com/by946OhJ5ooOkbG4f662qjbXqvrQAd98E36mSJLgTsLgL_tb8GDpNxTOEhtgsjEhY-OzKmRxAmLFbYPscSH6'
  lat: 40.101619
  level: 7
  lon: -88.233644
  name:  'Taft-Van Doren Hall'
- ap: 4411
  img:  'http://lh5.ggpht.com/tGPCRHNr4nuHRON7RaLcO3CcrRygkmN1XBdp0HsdTAkUF_IrbfmlyzJuqHTZzJonP7RBwdy8c6q5llROUur7YA'
  lat: 40.10975
  level: 6
  lon: -88.225299
  name:  'Methodist Scriptures'
- ap: 4411
  img:  'http://lh3.ggpht.com/jnMeoF6SBZ0Iinf5GnB2N90IMGTEQdGggLITfjWcIY6d5yipHaBN52a1NPxmn-VFwc_G1cHiMmyEDGg5nkwo'
  lat: 40.101623
  level: 4
  lon: -88.231761
  name:  'Metal Spire'
- ap: 4411
  img:  'http://lh6.ggpht.com/yE7aPklOUj6Y4vlNLUrqm7uJbj0TAVjhl_vSEgy7CHGlkTo5yyJGeTCUnRsHYe2UAZq2h_Y3AD_m3y3i2B8'
  lat: 40.106876
  level: 5
  lon: -88.228565
  name:  'Lincoln Hall Sigil'
- ap: 4222
  img:  'http://lh3.googleusercontent.com/8uMYuZy0Us1c6m26i0q3fiQ2sptx9Og4z2bMHuLtSt_Woc8U5yKYiXLiC2Oz38uiO4m3z3SU3svJ6uRX-_o'
  lat: 40.086941
  level: 6
  lon: -88.242452
  name:  'Water Survey Research Center L'
- ap: 4035
  img:  'http://lh6.ggpht.com/3dciax4v-S3OKvaO4a0G1H6yuvp2pnzFQjCsu-OOQlDP45Xh_c19QLwzEh4YixwMVCCk9396VC26HkZpcaDX'
  lat: 40.069362
  level: 6
  lon: -88.252978
  name:  'Skateland'
- ap: 4035
  img:  'http://lh3.ggpht.com/wOZOXhKOnhbKEPMQke-zGIG_vheDkHM8q19B1n_is5H7t1whBcQxBIGZI6VIPNw8mdCNXG6EUZeSjd1YLdngdg'
  lat: 40.108965
  level: 6
  lon: -88.227184
  name:  'U of I Mother''s Association Plaque'
- ap: 4035
  img:  'http://lh5.ggpht.com/kElaGOaV9aI8SrnM1D65gx9J0Ky1AKrN9Yo-pXVmDhELt2pee4MwVRiCqCmlqWzUWj5pS33GnEzAiXmiWKsw'
  lat: 40.108111
  level: 7
  lon: -88.229625
  name:  'Illini Sports Mural'
- ap: 3848
  img:  'http://lh3.ggpht.com/4NvHbplhArQJrKIkJMw4Ia0q_OtktXP-jC6FtPlgn6V49hv8LJbu0RC2ff0eTy3bF3ihXL12v5CPGwvlRNBF'
  lat: 40.127538
  level: 5
  lon: -88.199119
  name:  'Perkins Historical Site'
- ap: 3773
  img:  'http://lh4.ggpht.com/0UzQDuaKLiiPhEgEmKghfkzvXj6lROhxPIDJuI4nWLJFvdxJwGNcJZ1va0K_9cy4L2u0Zyeqv_qlIAwch5o'
  lat: 40.133475
  level: 4
  lon: -88.293988
  name:  'Parkhill Applied Technology Center'
- ap: 3848
  img: http://i.imgur.com/5j1qaiT.png
  lat: 40.152792
  level: '?'
  lon: -88.253532
  name:  'Toalson Park'
- ap: 3848
  img:  'http://lh5.ggpht.com/lVPluMTxywLzssk6h2IM1KNaZqmdJZwSaOjsQTU-NXL2-__Ve9Ur36H1oaIXABV4-52NcqTaSO7DglgO7vNb'
  lat: 40.105698
  level: 5
  lon: -88.202624
  name:  'Roger Ebert Plaque'
- ap: 3848
  img:  'http://lh5.ggpht.com/H3lz_PbTP4RFYuRMUyZuMouxslODKZQ3RjFiZrITFZcpj2FuEb1K2VVlveQtOyUHG2rYZ114AGuGqK4rATI5jg'
  lat: 40.097868
  level: 7
  lon: -88.242344
  name:  'Campus Information Booth '
- ap: 3848
  img:  'http://lh4.ggpht.com/zZ2YpVpDiI1KdIQ9iI7mGJD_VtwFztJ4ZF1vRehD9OSnQ2K3433SIg22svwcqDJVfeO2fjE3fdT4eHAJWGpi'
  lat: 40.104339
  level: 6
  lon: -88.234788
  name:  'Pi Kappa Phi Fraternity'
- ap: 3848
  img:  'http://lh3.ggpht.com/pVUYGCf7vsAndVd4vhK_pC9p6e9OvGa4ZiWuZg0ELOFDWptBba4H2N4PNZPjQdHXnV1GQyLTpCXQWDMKDUqn'
  lat: 40.108875
  level: 3
  lon: -88.227835
  name:  'Lion''s Head Planter'
- ap: 3848
  img:  'http://lh3.ggpht.com/KxQsev6i7POmNh1IadCWwWQSMdCuLIYpPwIdenSlVtzum523D1R-1kfeTbuOGTkt_jDwn4jswCu1edkumm2-'
  lat: 40.110037
  level: 7
  lon: -88.23549
  name:  'Red Lion'
- ap: 3848
  img:  'http://lh6.ggpht.com/Ka3_jVwGHc3wyrranDgkb0UqVN7M7Nbduod4wPmrn2Z51l0LRk5C3Pqg-Ml443gh9dYYglolVJmLLA8ZZcF90CPY5mu8fVkZyRifcuECtQnRhlBCGA'
  lat: 40.111685
  level: 5
  lon: -88.208653
  name:  'Iron Post'
- ap: 3661
  img:  'http://lh6.ggpht.com/_5uAVfIVUSl8LZbPdUo8NofNacgPArlxuX0AhFVfU2I3B-5ULKClKXB_ia2JZo1UjjJO7Mme5nB8HSWXKhrcpg'
  lat: 40.137727
  level: 5
  lon: -88.222417
  name:  'Eastern Illinois Food Bank'
- ap: 3661
  img: http://i.imgur.com/5j1qaiT.png
  lat: 40.110982
  level: '?'
  lon: -88.163907
  name:  'Urbana Post Office'
- ap: 3661
  img:  'http://lh4.ggpht.com/vdGNLZFnObxuCivCqYJZTZij0viFyuNB9iTlybZbb50b4Pqt_d-phv7dphv2G5JgU8Y7mc1RIokgw6SVPo-B'
  lat: 40.093415
  level: 5
  lon: -88.236748
  name:  '"Springville Portal" at Research Park'
- ap: 3661
  img:  'http://lh6.ggpht.com/duOeXcOSQLWosdD0JJXg3pWWQp4t5sL0x9qDHoTIBFNOzEW0t53Lt2cnwgV2E_Su0l1ajIQxPtVbbK_sDRaS'
  lat: 40.141775
  level: 5
  lon: -88.242671
  name:  'Marketplace Mall Fountain'
- ap: 3661
  img:  'http://lh6.ggpht.com/4K7T7_gGrfag_-Hep7ygH_rklKsjale4oo2CqJAFTpPB5EM4Dv8ZGyz7i_qUOuLnt16GWxDSJWCS8TZYyGY'
  lat: 40.115421
  level: 7
  lon: -88.243168
  name:  'Walnut Street Tea Co.'
- ap: 3661
  img:  'http://lh4.ggpht.com/1BgYrJYdcGdepVZ6ibhTjtjZ6MyzKnQzLL4wxEnn_CEPnrJmOKHzPXm1qinGRA78MqKq11gKRlprm3Z7mDr0'
  lat: 40.115645
  level: 6
  lon: -88.243036
  name:  'The Art Party Studio'
- ap: 3661
  img:  'http://lh3.ggpht.com/K-b9T4FjMxrtkS2Awkze3fELfwY2Va92gMQloHtHf4bfeKPPRzOUJxaSYYi6-OHHQbpDVY3ONWwPgIa78fBX'
  lat: 40.118332
  level: 6
  lon: -88.250276
  name:  'Mckinley Aquatics Center'
- ap: 3661
  img:  'http://lh5.ggpht.com/_9uqsDQROIwqIhKx_URY4DdZAapoZBEWK6Eaclt5mM5vPsjwQAD-v8Bv-4b-Smq2F8X4zOgzLx2KwySkFWc'
  lat: 40.118448
  level: 6
  lon: -88.25211
  name:  'First Church of Christ, Scientist'
- ap: 3661
  img:  'http://lh4.ggpht.com/uAYfykn0e2h2UqP-anbYfkJNa38P0L1WY8FpF-CwRCPklg5wL1xYFkpGOCMt7SJ37qO8PGVE42nYX9Ba_-jG'
  lat: 40.105025
  level: 6
  lon: -88.243919
  name:  'Mural on Good Fellas'
- ap: 3661
  img:  'http://lh3.ggpht.com/ahylfFHnKd7tl8EDQopVPlqhdiJblx_p3TWsELUFACXM_9qS9N8agb-ypr7EOOemNFMUrRGaUQ23LY6F1ssb'
  lat: 40.095094
  level: 7
  lon: -88.257764
  name:  'Faith United Methodist Church'
- ap: 3661
  img:  'http://lh5.ggpht.com/jz0XvZSSYKqKSa4lJDK-rludOns_o36jZ8ZTzfEr42piZamiTjSASTLdII6pkxgjZgnCwKirjhEouS77BPB8Dg'
  lat: 40.094288
  level: 6
  lon: -88.248914
  name:  'Boulware Trail'
- ap: 3661
  img:  'http://lh6.ggpht.com/4lSW4EwRiN3ZMZYjxrHWvIT7z6LDW-K6E686ImBYJg9AY_QNi-hZrn6ok63-XHe6Ls0E5tiQUt_QiGwGXvsqnA'
  lat: 40.116613
  level: 6
  lon: -88.240555
  name:  'Mural at the Station'
- ap: 3661
  img:  'http://lh3.googleusercontent.com/vJ_iyOb44eFzOJUNpRouOPDI8rKgOESn7TWw9U9BR3OcWsb6Oak-SSfVH4iPPmtXJdk30rqet1D0KxVohiBC'
  lat: 40.114712
  level: 7
  lon: -88.238392
  name:  'Mexico Mural'
- ap: 3661
  img:  'http://lh4.ggpht.com/ETgOsKlMmsv5wRT-aM33VVVEgFvp3ZoMxqXmYKxROpFAYnfPqjWhltqYBG7ajEuM8XKf3mVeSaF7r9grm2t8'
  lat: 40.113448
  level: 6
  lon: -88.237188
  name:  'Boneyard Creek Second Street  Basin'
- ap: 3661
  img:  'http://lh5.ggpht.com/3RfiPeOzF67ubNX-vkwUJ6-EYld6BKuoBernq0_9kOjlIsSPr3saR9FIQzN7uiw7ouF0CpNflOnL0mUj9zbqdQ'
  lat: 40.109452
  level: 5
  lon: -88.229031
  name:  'Illini Hall'
- ap: 3661
  img:  'http://lh5.ggpht.com/d55SFGnpg6Ia5aPchxqYJDOsY_nJCJIdAOO9qxXzD_vObYZGhCLcunBb0a6G5qAhu9RPf5WSQIkysqGMrb7T'
  lat: 40.104743
  level: 2
  lon: -88.232979
  name:  'Vietnam War Memorial and Flagpole'
- ap: 3661
  img:  'http://lh5.ggpht.com/OF0rdXnVnZe6syFsa4G9CE6iyvhfoYQN3QH9RESyB78MTKDC2NXYJuVd0TAnACMccmsKXhNcBH6qzWy9DPQ'
  lat: 40.105073
  level: 6
  lon: -88.231952
  name:  'University of Illinois Armory'
- ap: 3661
  img:  'http://lh4.ggpht.com/m6NugtNnF8mim1fUMFDjmScu99lS5PjmUlCT9kKOOsIMqCH5uu5MRPhMusl6BPPpZ7Z3hnYTQZALmqSpLHxs'
  lat: 40.103652
  level: 6
  lon: -88.230025
  name:  'Pillars at Wohlers Hall'
- ap: 3586
  img:  'http://lh4.ggpht.com/2tHD_AHYQu0kWuwLX2HMYWBG4txVkuWsBEfzWLL39npWp8kMSHiUKxSJM1E7yhimuMVUJ-RIlSSKsgjETvtr'
  lat: 40.110524
  level: 5
  lon: -88.228706
  name:  'Leo Roy Tehon Memorial'
- ap: 3661
  img:  'http://lh4.ggpht.com/EsyXMnqVMX7wQ4YmoCFRiNljaJqaXrQvzyzzooqx2fPxCSkJMkdEssTbf618D8Qp9hh3E4Ud3hL1M3v-TsbO'
  lat: 40.104688
  level: 6
  lon: -88.230676
  name:  'Sousa Archives Center-Amer Music'
- ap: 3661
  img:  'http://lh5.ggpht.com/AEDNEBV89C8eZnLPzK5JIchcLMwZ3Ya2btWhSUFX2GmTXPf3AyqQBs9FYNVMDe-dGi4xbfJNjr2XMQaMo03_'
  lat: 40.079618
  level: 6
  lon: -88.185131
  name:  'South Ridge Park'
- ap: 3474
  img: http://i.imgur.com/5j1qaiT.png
  lat: 41.073997
  level: '?'
  lon: -87.804814
  name:  '4fe11f1617d5474d932e913be84dae3d.16'
- ap: 3474
  img: http://i.imgur.com/5j1qaiT.png
  lat: 41.079849
  level: '?'
  lon: -87.812667
  name:  'e40df6d30642405ca1996008ca8c3e4e.16'
- ap: 3474
  img: http://i.imgur.com/5j1qaiT.png
  lat: 41.077703
  level: '?'
  lon: -87.806872
  name:  '0c7c235070d8471da3ab530c9aa274d9.16'
- ap: 3474
  img: http://i.imgur.com/5j1qaiT.png
  lat: 41.076429
  level: '?'
  lon: -87.807244
  name:  '542271180f36489082a6eafe25b57574.16'
- ap: 3474
  img: http://i.imgur.com/5j1qaiT.png
  lat: 40.239676
  level: '?'
  lon: -88.193146
  name:  '42da6a7ae25d42f390b03841be456f43.16'
- ap: 3474
  img: http://i.imgur.com/5j1qaiT.png
  lat: 40.238246
  level: '?'
  lon: -88.184357
  name:  '71b31cd41b8f40f29ac8263cf2bfbd87.16'
- ap: 3474
  img: http://i.imgur.com/5j1qaiT.png
  lat: 41.085194
  level: '?'
  lon: -87.810956
  name:  'eb4f64e473ba4785877294598ae10542.16'
- ap: 3474
  img: http://i.imgur.com/5j1qaiT.png
  lat: 41.097591
  level: '?'
  lon: -87.850403
  name:  'a7acc17307294970a9864e3156127b1b.16'
- ap: 3474
  img: http://i.imgur.com/5j1qaiT.png
  lat: 41.091277
  level: '?'
  lon: -87.84271
  name:  'f2d8d099b83a48f3a3c8bed8aef541d9.16'
- ap: 3474
  img: http://i.imgur.com/5j1qaiT.png
  lat: 41.118478
  level: '?'
  lon: -87.853541
  name:  '2b8749bd0dab49799007a6ef6cc1853c.16'
- ap: 3474
  img: http://i.imgur.com/5j1qaiT.png
  lat: 41.117033
  level: '?'
  lon: -88.086938
  name:  '606acdb4389b4c75bc9a438cd0b35fcc.16'
- ap: 3474
  img: http://i.imgur.com/5j1qaiT.png
  lat: 41.09052
  level: '?'
  lon: -87.842905
  name:  'f922a025797147a0bb42d4365e21aa21.16'
- ap: 3474
  img:  'http://lh5.ggpht.com/tuo_ByFTbwLitFP5cBseOibqRxENxbCwOJ30dCnja5ijBI_qBv5vqNP7ZuZXnxhYM6ms_GbExZEwwKVUtwV2'
  lat: 40.093712
  level: 5
  lon: -88.281583
  name:  'Brownfield Dedication'
- ap: 3474
  img:  'http://lh6.ggpht.com/p2F3xw4xL4UdiMM9aSy628ISSglrvjPexpF3j340tMAP9MX07yh_sJv7kHVkeud8lyFf2ZwDohw3zsRS2PSd'
  lat: 40.093914
  level: 5
  lon: -88.281531
  name:  'Terry M. Warmbier Memorial'
- ap: 3474
  img:  'http://lh6.ggpht.com/Jz3ahY5LQ13wKWLY9SEvexiinJa3GeO1eB_FynplikRpa77swLST6cUAJjPpqKDSq2KU4Dcyui-QBstz_Z3k'
  lat: 40.094624
  level: 5
  lon: -88.282953
  name:  'Greenbelt 2'
- ap: 3474
  img: http://i.imgur.com/5j1qaiT.png
  lat: 40.152192
  level: '?'
  lon: -88.252279
  name:  'Toalson Park South Entrance'
- ap: 3474
  img: http://i.imgur.com/5j1qaiT.png
  lat: 40.152342
  level: '?'
  lon: -88.252345
  name:  'Toalson Park Basketball Hoop'
- ap: 3474
  img:  'http://lh5.ggpht.com/nWEtxuKQdy0teBBue1DYmG7P3SF5-3A6zlB7GwVHBWlolAZYGq6Br78lWcF9ltFy-KeSlozXie2RmU6JfCUX'
  lat: 40.142673
  level: 6
  lon: -88.244603
  name:  'Italian Statue'
- ap: 3474
  img:  'http://lh4.ggpht.com/H1kV6JSczzSbcCblAHg5ZOgITW1mBAz0_oLbqbzxBlijGTBn7TP6KwA6UI0AAGrCN4VF0DAF79Vcj6_2R4dsB8LRTq6tud6v'
  lat: 40.116164
  level: 6
  lon: -88.241661
  name:  'Zipcar-45 E. University Avenue'
- ap: 3474
  img:  'http://lh5.ggpht.com/wX6-mbTE7nT00T6ildapKbI5ZrnhPIt4l91DhMseyo3GYFrgQIuqbjh8ntZY6NxGZ-qa6fKWlyoBOPdIdNIt'
  lat: 40.114653
  level: 7
  lon: -88.243729
  name:  'The Phoenix'
- ap: 3474
  img:  'http://lh3.googleusercontent.com/W5PjcRhelt3420IFjpSdOXtmIiv0M99Qv9Xupe6lckHDJDW4zHE9GyACkz8wXBF0_OIO2Jex9d7S8UQ4FJLa'
  lat: 40.118361
  level: 6
  lon: -88.244573
  name:  'Art Theater'
- ap: 3474
  img:  'http://lh5.ggpht.com/vYay8RKsCV_BP_MkeFm7se0VZoYthm-1pThiATAADleBlTsPowobgZyUoU7DUto6p5cpg9adpCcTgNR6iop0Jw'
  lat: 40.120121
  level: 4
  lon: -88.251967
  name:  'Sesquicentennial Neighborhood Sign'
- ap: 3474
  img:  'http://lh3.ggpht.com/oHMQr2Z5LayQFbZOwOZK4ZbYQ1OVxs85-qNTvSj8epsP72vQiOdrzVmkuMPFQtCSf9Rr0oqcnSLFjLn-sPw'
  lat: 40.116592
  level: 7
  lon: -88.243236
  name:  'Champaign City Bldg. Landmark Plaque'
- ap: 3474
  img:  'http://lh4.ggpht.com/9dqmZPc9OI1ON-iEnfXAxSAMX2M07pEgKUsb47vLrTrW2BW61siFLquk1fXbldWXGPg69XGdSG4wKPGS5rI'
  lat: 40.113521
  level: 7
  lon: -88.244122
  name:  'Artistic Graffiti at MCS'
- ap: 3474
  img:  'http://lh3.ggpht.com/9aQBG-poFARclK9XL7iFIvWePkawZwWhv4Sh0zQhQ0Sy9gdDD508d4gCtpcUP9UNoYM6uztea0aQ05RPd9rZLg'
  lat: 40.115412
  level: 7
  lon: -88.245046
  name:  'Eddie Thorpe''s Memorial Rock And Tree'
- ap: 3474
  img:  'http://lh4.ggpht.com/XlTZ26_29c4-74t23p1lgghqNfLI7aS3_kradmcl7vVQzV9jJRu78D1HdzJf-sWibnak644kxCBJDnA594PVaw'
  lat: 40.092849
  level: 6
  lon: -88.251586
  name:  'Boulware Trail'
- ap: 3474
  img:  'http://lh5.ggpht.com/fDRifvVcFT_dKhPuNBN4rR9lNHL0Q6NvbMnGr2-ZdiirR2rJrBcWRi4vyM3-DYNHymUs7bWchaWRaUtBpg'
  lat: 40.098541
  level: 8
  lon: -88.250389
  name:  'Dennis Robert Costello Memorial'
- ap: 3474
  img:  'http://lh5.ggpht.com/Zoidr1eUAO2UEM6SyifBpkC3K42Ctl355Krd3S2ZU3BbbIMt1XFKF4C35huJT7a-K1PMF6JCK3ztTnr2Wbc9zw'
  lat: 40.109178
  level: 5
  lon: -88.22945
  name:  'Pineapple Pillar'
- ap: 3474
  img:  'http://www.panoramio.com/photos/small/52867363.jpg'
  lat: 40.101676
  level: 7
  lon: -88.231098
  name:  'Sculpture, Krannert Art Museum'
- ap: 3474
  img:  'http://lh4.ggpht.com/S734i_6SihPtJW8WdegLb3gEuKeNx8e1qDm6CXjREzYHohw7XqL82m4EF2K5nS2TixHweLn3EuJ4YoQnrsw'
  lat: 40.107751
  level: 7
  lon: -88.231532
  name:  'Graduate School of Library and Information Science'
- ap: 3474
  img:  'http://lh3.ggpht.com/hFkwytijOefeZugpAO9nX8xe0Zazpem9zJKa7S-WYlccBZVMWRqZYIj-iWKNXi5TUWEXjk4HQbKAvCW_3WdE'
  lat: 40.104287
  level: 1
  lon: -88.229415
  name:  'The Pioneers'
- ap: 3474
  img:  'http://lh3.ggpht.com/LR76HrJqriPFUoc2XSs7jb2SotnStZv20kI7rgUx8B5HqhmetnTW4MA1tCp1ws4g5gw0sf9g7M3Lwq4VwfpD'
  lat: 40.111687
  level: 2
  lon: -88.225353
  name:  'Transportation Building - University Of Illinois'
- ap: 3474
  img:  'http://lh6.ggpht.com/pJ6tplh0N7msB5KPVdko5jnm8iOWp2nYvwj7PLdT4kvt0PLvNpLPtETG61IjI_bgGJ3UtidjV7AytpU9sNjm'
  lat: 40.11215
  level: 5
  lon: -88.208835
  name:  'Bennet Building'
- ap: 3474
  img:  'http://lh3.ggpht.com/0fx36DDt01FPFW1y8WziZsKZ7WiQgWY2-ljRI_JXbbYO5cJaWXQrFZE7cZQwDvO_ElFVawkL_CguQ9fjsy4'
  lat: 40.1122
  level: 5
  lon: -88.209066
  name:  'Lincoln & Photography'
- ap: 3285
  img:  'http://lh3.googleusercontent.com/hvoLMUc9UoNVVPttxWTc8PzOWdu5MBmPETnBexH7Alyl20WGCrNa0G_j7DwvD3qbhqpTaeThFhGDV2rCtp8'
  lat: 40.107629
  level: 4
  lon: -88.224484
  name:  'Bucky Balls'
- ap: 3098
  img:  'http://lh3.ggpht.com/gS3gT_deXzbDvejCL-5ygs31dw9bLQqYr2nDcLPZiv6nQzahJl12awG1a2pwKbFuoTlsHQYxQ2O7HDXL4-8'
  lat: 40.110358
  level: 6
  lon: -88.230181
  name:  'Murphy''s Pub '
- ap: 3098
  img:  'http://lh5.ggpht.com/FeNb7eaFcVgSIszlT2T-4C6QpivsEWKx7F2J8AK3pTCPPQwZ0qEAFiQvi8nDwgAd2Xa7xjqC0lc2x_5Eazb-'
  lat: 40.104796
  level: 4
  lon: -88.227461
  name:  'Undergraduate Library at UIUC'
- ap: 2911
  img: http://i.imgur.com/5j1qaiT.png
  lat: 39.808109
  level: '?'
  lon: -88.28803
  name:  'd45dadbbc2e644ae9cecc8abab4aa2d9.16'
- ap: 2911
  img:  'http://lh4.ggpht.com/ZEK-DXu7TJqsrt7cbLRjXyr3JbENJCn1FaKxH4Oi6kEvo4K0Yzm5qzMddhRLNlXvokAwQoeG4EKaNkXnJDA'
  lat: 40.114015
  level: 6
  lon: -88.245256
  name:  'Firefighters Park'
- ap: 2911
  img:  'http://lh3.googleusercontent.com/78s4UE5PKzAAG8LQc8bJPPLK30nagQnB2-jzX2y9vVVAjUMejMsBGSAKck17bjgbH1Lndna45c3l7i6tR3A4'
  lat: 40.112908
  level: 5
  lon: -88.237287
  name:  'Stone Arch Bridge'
- ap: 2911
  img:  'http://lh3.ggpht.com/lGjbP2iz0XvlEWLhgCBNqkWukvjrBowKmX-1_O44U1A3_4b3-vuXzkfp7rasqU81TcPBoQO82gAzEGtBBYcR'
  lat: 40.106058
  level: 7
  lon: -88.223672
  name:  'Music Building'
- ap: 2911
  img:  'http://lh3.ggpht.com/dBN6P2wGkcXj-MNbPjAJzN-RxmK93xRIhp29sZ6-ZmsbFoey4dGO51tP1FIFCzHjs4CIhHd-xGmflcW43R0w'
  lat: 40.10604
  level: 2
  lon: -88.224625
  name:  'Asian American Culture Center'
- ap: 2724
  img: http://i.imgur.com/5j1qaiT.png
  lat: 39.989354
  level: '?'
  lon: -88.254771
  name:  '8e75f23774544d2399587a09733fe86b.16'
- ap: 2724
  img:  'http://lh3.ggpht.com/POVqVDorpNyT78a1jNBYargU2WzX94oR7tmPRWdJpIYV2w5OZwXO5M0mJU_sIMCB-b3l1-mcCmck-f87iAw4'
  lat: 40.090059
  level: 7
  lon: -88.219342
  name:  'Illini Nellie Memorial'
- ap: 2724
  img:  'http://lh6.ggpht.com/TtWbekdbsTWA9hOrt2dc1ID1DnRuGoRbAle9mL9aZvc_aJygqJ9jAMjqrWtVr87WnELkFrSVIpO_4VVZQ67P'
  lat: 40.113103
  level: 4
  lon: -88.290672
  name:  'Kaufman Lake'
- ap: 2724
  img:  'http://lh3.ggpht.com/1yyUr0xGwID_g1F_OYHLjASRJrvJLD7e8r6IER_B6CliwGRrCH6cDWRVgtfWqJ0wHhNyjId_FX6mEVecAviV'
  lat: 40.11946
  level: 5
  lon: -88.276623
  name:  'Glenn Park'
- ap: 2724
  img:  'http://lh3.ggpht.com/y0AorXifGZDC_iY8fEpHU0L9ehL0jyxjOAWWnkYyba2FpprGdmigPcoayrthLbakZQQlURVaeJHoNB98IIve'
  lat: 40.094061
  level: 5
  lon: -88.236858
  name:  'Illinois Conference Center'
- ap: 2724
  img:  'http://lh6.ggpht.com/QhX7LQjknZJxL4GjIVRORINW4Ftw5F854uaMsoIWpHQNzoc_1c8nRxsoxw27U0InC7UZkcxueRyo8sqyTD7-iA'
  lat: 40.113262
  level: 6
  lon: -88.257966
  name:  'Grace Lutheran Church'
- ap: 2724
  img:  'http://lh3.ggpht.com/I2Up882o0nHzQof3uWaDFK7KQHkYOu1XgKoXUgQotITYJDh--80GzLnOSI8TxKF3RxsF32zcsYmRF8Fiugpt'
  lat: 40.116413
  level: 6
  lon: -88.249814
  name:  'West Side Park'
- ap: 2724
  img:  'http://lh6.ggpht.com/yoGdHEqpRRqOE5pA5wHdi_ismU_TrB-kTiqVV63EO630KsU608TIfjLijcqJ38At7MyyrE2urWFMPY1Sops'
  lat: 40.118121
  level: 6
  lon: -88.258039
  name:  'Mini Park V'
- ap: 2724
  img:  'http://lh3.ggpht.com/NuEE1yevEulYAFm9UHYKLrX8fVNrXyLgFXbQ8kTjAKuT9w-Fkj18Pop2B2wikf21LHDU24uSUkIvXbfKyvy2'
  lat: 40.11738
  level: 6
  lon: -88.250259
  name:  'Heath & Vaughn Funeral Home'
- ap: 2724
  img:  'http://lh3.googleusercontent.com/oYQaQpOQ2HICancOs0DcaCqX1KiTJEoAeKp6EUWBs5u-TjTKqJlzTSzA0QMldAg6HLWb3rX4m4_cwKwGCtpV'
  lat: 40.118684
  level: 6
  lon: -88.244894
  name:  'Farren''s Pub and Eatery'
- ap: 2724
  img:  'http://lh5.ggpht.com/Tn5ARN-X6VTc2q6atZ2WYq3c2g3gbSGXu6_vXf1MDwHfLpdTtnQ-CilBAVGvL6R-SHhq3fJ4WZI-yiJKmIId'
  lat: 40.110398
  level: 7
  lon: -88.235143
  name:  'US Post Office, E Green St, Champaign'
- ap: 2724
  img:  'http://lh5.ggpht.com/arF148UpHKIzlt5NezBSpFkItJk3gWq__xkPolNCeVTwHNpQNm1rzIwSdA2oAJBPtaLhpTHcVdAFFdHAXm8k'
  lat: 40.118383
  level: 6
  lon: -88.247003
  name:  'T E Berger Memorial Plaque'
- ap: 2724
  img:  'http://lh6.ggpht.com/hPutcAvS7zQN-tagfEY-fvkvdlgj7j5sZwUSLY883Twc7tHyslIAp7lzWYciJmCytDfsbFQtavAlzqGwCgFZkw'
  lat: 40.105562
  level: 5
  lon: -88.234991
  name:  'Acacia House'
- ap: 2724
  img:  'http://lh6.ggpht.com/yUOWOqDbf6AO83PFdgc9HePIDDDb-Ti1NAzLec_4AwYrO5NsnWsGH7K7MDb5q22wdtUh6uqekxpMHYjlnfRLEQ'
  lat: 40.104673
  level: 2
  lon: -88.233278
  name:  'University of Illinois Armory'
- ap: 2724
  img:  'http://lh6.ggpht.com/fBCIw-ohQqPYmU_DWfwbcZnXqbmVh6zOWlUta8mx1F53zxG1Wxr08J9-fOCaz1B9i_8Nb3Il_kqdxzdyRyc'
  lat: 40.109043
  level: 3
  lon: -88.224397
  name:  'Archaea Plaque'
- ap: 2724
  img:  'http://lh5.ggpht.com/VYMooLhz51W3fCgti3L9LEQNMJjmFeW30saxIYK34yGEReG1naEKEd3eW1uyFgSlzpu-P5KertNDe4Z6qu8'
  lat: 40.109913
  level: 4
  lon: -88.228393
  name:  'Alma Mater Statue'
- ap: 2724
  img:  'http://lh5.ggpht.com/w9vRSV8NBR1gsi8ndeSUNJN2X-ftwCCQ7Jd3dcLVhPw6r1w0x1QE4hNgpCJBKimUeq-HToz_yq9S3rYkzC5bjw'
  lat: 40.114687
  level: 5
  lon: -88.22473
  name:  'Web Browser Plaque'
- ap: 2724
  img:  'http://lh3.ggpht.com/oPrvFZ3gD0XRjj0phJeY8--GLSiBG-yC_IInA7t6TgEljFJSM3TRuUeNksbZIyvSIenZ0GgHa1ey2OzZWkQ7'
  lat: 40.109466
  level: 5
  lon: -88.195427
  name:  'The Happy Robot'
- ap: 2724
  img:  'http://lh4.ggpht.com/QGRtYb5gsWsiyn9EznIJ0ApB7yWv-SWBAH6CKgO9JRg3PCgn-s8yQMtXPkMDht8dNjPchkCRleUIBT-DnYXh'
  lat: 40.112928
  level: 6
  lon: -88.209039
  name:  'Courier Cafe'
- ap: 2537
  img: http://i.imgur.com/5j1qaiT.png
  lat: 39.813139
  level: '?'
  lon: -88.286731
  name:  'b1ac412d650540f29fc01ca74969eaa6.16'
- ap: 2537
  img: http://i.imgur.com/5j1qaiT.png
  lat: 40.350654
  level: '?'
  lon: -88.760849
  name:  '3622126db3b94305b992d4cea4acce12.16'
- ap: 2537
  img: http://i.imgur.com/5j1qaiT.png
  lat: 40.055085
  level: '?'
  lon: -88.558874
  name:  '1a87e018f8c5433686b1eaa27ef6ee0f.16'
- ap: 2537
  img: http://i.imgur.com/5j1qaiT.png
  lat: 40.457257
  level: '?'
  lon: -88.372597
  name:  'ebaa4a5573f7449399263066d9248473.16'
- ap: 2537
  img: http://i.imgur.com/5j1qaiT.png
  lat: 40.224694
  level: '?'
  lon: -87.804631
  name:  'faa8f7511b1b4efdb38449e971a2bac6.12'
- ap: 2537
  img: http://i.imgur.com/5j1qaiT.png
  lat: 41.109002
  level: '?'
  lon: -87.762483
  name:  '9d351fb8fe7749c986c9563a46acf10b.16'
- ap: 2537
  img: http://i.imgur.com/5j1qaiT.png
  lat: 41.098631
  level: '?'
  lon: -87.850525
  name:  'bb8e2ec452eb4a1985a3437fc10c70d7.16'
- ap: 2537
  img: http://i.imgur.com/5j1qaiT.png
  lat: 40.054845
  level: '?'
  lon: -88.559114
  name:  '95569e4aa0384feb9a08c8e2e3694613.16'
- ap: 2537
  img: http://i.imgur.com/5j1qaiT.png
  lat: 40.002747
  level: '?'
  lon: -88.650508
  name:  '3e5387f900ae4771bcf80d2a9ad488f0.16'
- ap: 2537
  img: http://i.imgur.com/5j1qaiT.png
  lat: 40.312242
  level: '?'
  lon: -88.201368
  name:  '2012 Employee Dedication Bench'
- ap: 2537
  img: http://i.imgur.com/5j1qaiT.png
  lat: 39.912869
  level: '?'
  lon: -88.271225
  name:  '7ae31819d59a42a286e4aba7926a74ac.16'
- ap: 2537
  img:  'http://lh3.ggpht.com/1FtcyHMJRhFifRLb3-BiKpl51XTW56r_DM5chcCXA0F1nwRDjcqv1FFQZoj42pyMoGxHo0Wq98ovWw-FBjDjFA'
  lat: 40.086561
  level: 5
  lon: -88.289447
  name:  'Meadow Square Park'
- ap: 2537
  img:  'http://lh5.ggpht.com/Fl-qbQtlziD-8zSe_WfUrflOcIFP-whkkS2IjEkT19sDskVzbx-bKvw1k0Y8qaNjUpwOCjy3E4DYDTh4Er7B'
  lat: 40.074003
  level: 5
  lon: -88.255085
  name:  'Burwash Park'
- ap: 2387
  img:  'http://lh6.ggpht.com/A3o1Nm3JPbfRGX8fs0D87GlAc2sSTKVl6IimAZxRyIfLyPcsMcbx7s4WqUTkMcz70wzyETv1zaJZtlBTRdBG'
  lat: 40.083723
  level: 4
  lon: -88.288027
  name:  'Windsor Road Christian Church'
- ap: 2537
  img:  'http://lh6.ggpht.com/8xR11KYEi2D1gcNqy1KNK_EGDGo3JbHOYXjXP_zTNk4AIqUwf0pZrSSkt9bx8xccXhiMSzvt-qFnVq-CGEOxbw'
  lat: 40.055189
  level: 4
  lon: -88.256113
  name:  'Event Notice Board'
- ap: 2537
  img: http://i.imgur.com/5j1qaiT.png
  lat: 39.988867
  level: '?'
  lon: -88.260234
  name:  'e8936d5f39164dab96a8dff5d68bef57.16'
- ap: 2537
  img: http://i.imgur.com/5j1qaiT.png
  lat: 39.91465
  level: '?'
  lon: -88.273338
  name:  'd7386e06127b49d6b843c5d81d79fe83.16'
- ap: 2312
  img:  'http://lh5.ggpht.com/auV57ljlnFqueFTLTeFUjp6iIJxsNFs7P_alBDZ2FNvEvUPvRMBhZCrgQOVfMPf7RIyYAHZLElyAiVoJXCFYkw'
  lat: 40.135716
  level: 3
  lon: -88.291946
  name:  'Campus Solar System - Jupiter'
- ap: 2537
  img:  'http://lh5.ggpht.com/IgNzl1mq8OGLo32nCph_TZvtqlPh79vEYYvHZb2F6YXW1jx9_ESV5dv13U9k7CRftyKHGoW2RtSSUFzPKbU'
  lat: 40.113072
  level: 2
  lon: -88.289765
  name:  'Kaufman Park'
- ap: 2537
  img:  'http://lh6.ggpht.com/5R8z1wwducaGMkvLFryu9HzC91eX02E3KDY04s9Il7Qrdw8efQiRGZ_vbgqW0Fuvp4-I_d9ugFC6lPc7lxia'
  lat: 40.113465
  level: 5
  lon: -88.291684
  name:  'Anna Jean Russell Memorial Tree'
- ap: 2537
  img:  'http://lh4.ggpht.com/j5qEdm6GsRybxCSX4X-mcXnDS-HO6__skWjWfYJD7KoQdhnmPT8tJH1t28UW1k-1PYH5J6mpdiX9mkOzvM0'
  lat: 40.077923
  level: 3
  lon: -88.288859
  name:  'Joyce A Millage Memorial'
- ap: 2537
  img:  'http://lh5.ggpht.com/0UmOEvpBIgW2PQGXcdi5IwCRj20o_XAvbFid1HDfkNsc-7eI6YTWM43QdZtBrA0b2Ln6mMEF-hF14BQiYfI'
  lat: 40.07833
  level: 3
  lon: -88.290166
  name:  'Millage Park'
- ap: 2537
  img:  'http://lh4.ggpht.com/vKkSwERLa3zQO2UUIiYl1AEruAx1QTPcP4jSmPt89PG4AviJ1WhlVVH8qmqJ0aY2gqJmHcqdZFcM2pQconc'
  lat: 40.139375
  level: 5
  lon: -88.272793
  name:  'Salt And Light Ministries'
- ap: 2537
  img:  'http://lh5.ggpht.com/QruW49d2dc1uhQlK1BaZIeo6ruDNkqQfmvZz83eQ-1aC9ytGUcpFaHnKRTnXRc70F2EZ0-pVKGr9Slo0_9RfxA'
  lat: 40.139749
  level: 7
  lon: -88.273955
  name:  'Northside Church of Christ'
- ap: 2537
  img:  'http://lh6.ggpht.com/f3cOUn1gqLkJZQzs4-Y9j6j2ZXbb1Kmzf3klCFzF8zmFSlZZ-B6O4-5t1KIX95jbYUjeqMgOohEf1ilF75Uqyw'
  lat: 40.132777
  level: 5
  lon: -88.287351
  name:  'Parkland College Prairie Restoration Reserve'
- ap: 2537
  img:  'http://lh4.ggpht.com/BDVsIEWOaH0zZsTgU8IbvmVNJTrl3EljfhNXeVt4C2BILNtXm5hpAq_6mLrTl66aJcUyYv4hFJKhxedLkKo'
  lat: 40.11679
  level: 5
  lon: -88.281854
  name:  'International Society of Arboriculture'
- ap: 2537
  img:  'http://lh4.ggpht.com/-2q6p_jcZ5xVswdwpO98pGsMWXnqxUlsBmhWA2F6xs0MbwejV7FTN7-kHSb4nlsfg3uUsrvdDmUM5v1lQ-Ia'
  lat: 40.086252
  level: 7
  lon: -88.249351
  name:  'A Lady Waiting for the Bus'
- ap: 2537
  img:  'http://lh3.ggpht.com/7sJlWdBFFcLCXWnnfB6SVTzCCDM0Q7KyV5jALfrWG3ICtkw7HXrjzaRrnzSiv19wIswpZoTxKYudzYiZnT9Shg'
  lat: 40.112536
  level: 5
  lon: -88.256779
  name:  'Framer''s Market'
- ap: 2537
  img:  'http://lh3.ggpht.com/O-DGELnJZNJ5CXEaU3N0dzBK_ZVUUnTe6ey0TMrxXnXS1aXD9xo662l9u-8O6f3472F8hgDnW-wwDQ29XUYuyw'
  lat: 40.115941
  level: 5
  lon: -88.258345
  name:  'Trevett  Finch Park Historical Site'
- ap: 2537
  img:  'http://lh5.ggpht.com/DDClbLn6LNW1_Kr2O24_eIFuz6BfPSolc8s9i2SV9KvgoE8D_n6SY1mOzPFAUoLMe9HHKhD-azeRgoyYPNcaPw'
  lat: 40.115917
  level: 6
  lon: -88.243438
  name:  'Shay Memorial Plaque'
- ap: 2537
  img:  'http://lh6.ggpht.com/cnBQN3RYcZFSdxYB52bvMYRD2aTSlDG0_cqBQ8coo0ueKTtGxldE0xGjNPF6xlYJtnba8oUyEKwBeYbO8CY5'
  lat: 40.116631
  level: 6
  lon: -88.246951
  name:  'Lyle Blue Memorial'
- ap: 2537
  img:  'http://lh4.ggpht.com/9jXAzAxn0JZrLkU9VK9p-mNzjw3x_6QqwMAn4CAEBAHp_lo2iDZeV_y-hoUzP5CYwm8kOMyrTToZQOWJBRnw'
  lat: 40.115095
  level: 6
  lon: -88.249052
  name:  'Bayne & Schumacher Fountain'
- ap: 2537
  img:  'http://lh6.ggpht.com/ZQaguxPyiC-6DeFDFa2niVKJz3ySxwxYaFCv8PRdNuoMYUfP-Xtirg-8pXCTdBCyH1BruprOVmqf3D1kdp7o'
  lat: 40.115225
  level: 6
  lon: -88.248866
  name:  'Holy Cross Catholic Church'
- ap: 2537
  img:  'http://lh5.ggpht.com/QNdE7Z3gNcz1M-mzDms1aMrHPZpKr43FIfnMxwfwdp6kP1N6fPKwUzIx5qrt3k_KBeBFRmcD-PXCWq7V2Ygo'
  lat: 40.119969
  level: 7
  lon: -88.243775
  name:  'Mural at Bentley''s'
- ap: 2537
  img:  'http://lh4.ggpht.com/6iTxW6HC8WFx3nf6xEGhZryWVxW9NNijqTsEKvcBCBkmkmLZdUjaDHKReKT58cl8RUaCwDCL7pMFmBEyj3Fc'
  lat: 40.117602
  level: 6
  lon: -88.249943
  name:  'Megan Schneider Patel Honorary Plaque'
- ap: 2537
  img:  'http://lh6.ggpht.com/eeOtj4-6PU8Dt6QXk_TJjgkoEGRW9L8YzUqZE8QV5ZMCHnqA5CzoQoxKpnjCvXwaIflUUvPJmO_S7BdvMhcuzw'
  lat: 40.117588
  level: 5
  lon: -88.241787
  name:  'Adam & Eve Mourning Over the Soul of Abel'
- ap: 2537
  img:  'http://lh6.ggpht.com/btym2_WGYuFNu2SNiR8qif7GXLMOPT7XpuHE7RPOipPC9Q5lEPfImKAzf2vm9RUe2rN0u3TePq4pM0IuZiLS'
  lat: 40.116436
  level: 5
  lon: -88.243459
  name:  'Champaign City Building'
- ap: 2537
  img:  'http://lh3.ggpht.com/6Fer3GtYrst46oErqZdyi-cArt8MkVMBnho4Lei9skNu9ne3ktFspBwKvXS0rum8O2K7Qpso6J6lO0sipio'
  lat: 40.110656
  level: 5
  lon: -88.240991
  name:  'Mural At Wild Side '
- ap: 2537
  img:  'http://lh6.ggpht.com/UHh6R5Pfoiuw4sX96l-GNlhyni2EhPOuuEfaN9oWYLEs8qV6pfLkQugcY8yhMRq01gHqUu5GqKOA6bt9t2NfFQ'
  lat: 40.104458
  level: 1
  lon: -88.239125
  name:  'Delta Chi'
- ap: 2537
  img:  'http://lh3.ggpht.com/2bCNiD7SWsS3uzFLMO2cZh-LpHUEMQGnfTmcNx5vJapXho2TuXke630-7zop2Sq4fuY8nWVqy4VCG23mvnIJ'
  lat: 40.104168
  level: 6
  lon: -88.238808
  name:  'Alpha Gamma Rho'
- ap: 2537
  img:  'http://lh6.ggpht.com/Sz4BABPqyoIyZVGpSBEM1QNIxPngQLl7hopqjyVJi_fak1xgpFAX_X7TbK6tICEaYnLrvC1hV2jv-AwPofQX'
  lat: 40.090038
  level: 7
  lon: -88.249379
  name:  'Three Hierarchs Orthodox Church'
- ap: 2537
  img:  'http://lh4.ggpht.com/z_Fp4CjBJYtN4kSA8B6McrcZLVB4_KD9Hti35M_32PXV6LsudmzxIitDELx-nbrk2VMgnhYGZ-Zc89L0OAR7'
  lat: 40.086676
  level: 5
  lon: -88.243056
  name:  'Illinois Fire Service Memorial'
- ap: 2537
  img:  'http://lh3.ggpht.com/-xag7tp3BReTAhfRmVAvpMw1Af15prESg4rve7QnsiIC5IKmKjBszxDIj8F212BmRU1apH_2u_9wAmq58_91'
  lat: 40.114157
  level: 6
  lon: -88.238621
  name:  'Bombay Indian Grill'
- ap: 2537
  img:  'http://lh6.ggpht.com/2Rx43j2Btq5GI7Atdo-QNNLuFVJkY-7DiyLMNbg2kD1wjE77IXmedVtWOjr6wu_mgieNLBnA0GJLZ6zNF3s'
  lat: 40.110735
  level: 6
  lon: -88.236736
  name:  'Park Place Tower'
- ap: 2537
  img:  'http://lh4.ggpht.com/Nh7M4_i-advmuf0RWReev2TeUAZ57VTRzcf56-U_TuHsKcjIdqXGvbxpOccEx1CaYHKzGwI9mZVmnLdmhryGng'
  lat: 40.115557
  level: 7
  lon: -88.239009
  name:  'Honesty Best Policy  - Vernon A. Roland Building'
- ap: 2537
  img:  'http://lh3.googleusercontent.com/erdNDM4HaNMn_EeFz0IoM_0LQWykLGJ1Y7-URXSvEithPHs8Rnwf7oWZyxVKu7qOpPdKjeeCy3dkywZ7n6KrsA'
  lat: 40.111615
  level: 5
  lon: -88.235593
  name:  'Fred B Lamb Trail'
- ap: 2537
  img:  'http://lh3.googleusercontent.com/ZEt3dzGoBmn_BW1MwPTE7MY4Jcoj66UkwEA7wA7H40hbb-SwJheC1V67Dh89eAbpG6H_SeWDV3E0X5lRAkQ'
  lat: 40.111342
  level: 6
  lon: -88.23557
  name:  'Boneyard Greenway'
- ap: 2537
  img:  'http://lh5.ggpht.com/szWXjFVU67N6nJHeZbrcsC2b8J7kXF7nBh_RooZZ5-ezcJsxWUvA7NZrGjJxfwTzVkc2HYMYLwh19UaYEbm3-Vmu4ZAG8959ZOG44cpeeyoUHtkD'
  lat: 40.108422
  level: 1
  lon: -88.227811
  name:  'Henry Administration Building'
- ap: 2537
  img:  'http://lh6.ggpht.com/BzDhCANV_iNTHhKFBGLuaUqOvChRZtPWnJ2Xk4h7NsKJHmTGgCWtFHWv2PpDA2fCsHHKSCRTrUNK8AKrLRnS'
  lat: 40.108066
  level: 7
  lon: -88.230687
  name:  'Community United Church of Christ'
- ap: 2537
  img:  'http://lh4.ggpht.com/d3UqrcK5M1wuOe19dIaBUOkrXF4C9IxhOWfxqzM4zIHkGsUIRb1mckNapOMRkkCtVIe0rzJumb1OVDVc1_Y'
  lat: 40.108055
  level: 7
  lon: -88.233688
  name:  'University Baptist Church'
- ap: 2537
  img:  'http://lh3.ggpht.com/A87H2Ev-nSq_HCpnUCxDLdRG04MKhj9Uap_0Ii4kdUx_db5SwcKhAAOey5ls43XiDLYaw7uYymdNMcsAXfNo'
  lat: 40.106182
  level: 5
  lon: -88.235521
  name:  'Evans Scholars'
- ap: 2537
  img:  'http://lh4.ggpht.com/RweWMyuvBgAFSULZ8Wlp43vydPiEhELt6PCp8R9_ZJHCPvMTutxfO2z4hDsrhsFAYbjrh4a1uZeaOz6mWCJD'
  lat: 40.106958
  level: 2
  lon: -88.228125
  name:  'Engraved Poetry on the Lincoln Hall'
- ap: 2537
  img:  'http://lh5.ggpht.com/1fPvqpqXG5PDCkmegoWb9Tv9N5_MZh9XjmZpbyNEs5yPDsCscbrPB1cO_Pf8GT35HYrTF01FZ6s5VPIpjJ_20A'
  lat: 40.107098
  level: 6
  lon: -88.228984
  name:  'Saint Andrew''s Church'
- ap: 2537
  img:  'http://lh3.ggpht.com/fxsMa6MK6sWcY8fyTRPmRixomHagKag2YrMZjovxjujmavVawLdmU0Mi0HpNq5kH7UUoXfELEoBOFTkzeRwV2hp9PknjajWlvhX6jYIyUSrrH76k'
  lat: 40.10952
  level: 6
  lon: -88.228288
  name:  'Altgeld Hall'
- ap: 2537
  img:  'http://lh4.ggpht.com/1LUozaukItxu6cHk_7wORzYYNvskCHi_wUxbNOAcIXNbgLuYn7VElFG0tzY02e6pY-AEL8nNHAL6ewLCaLMH'
  lat: 40.10567
  level: 6
  lon: -88.228634
  name:  'Public Broadcasting Plaque'
- ap: 2537
  img:  'http://lh5.ggpht.com/k_9eqZVvGcr3ZNyeeSNDM1-Y7od35KmnQQptB9usrdpTdpGW2c_5-12rYy9hGazdx7qhlYrEXxaJ_ZIVFywlcA'
  lat: 40.106706
  level: 7
  lon: -88.232116
  name:  'Illini Tower'
- ap: 2537
  img:  'http://lh3.ggpht.com/2wN9MWxEFPbMzRPAzNmaAiCOQJj_EFr94Y1YkQP_wMlyajkajmcw00gqW-EluMvpQmvnGgcQ-WdPxjcYTmr2'
  lat: 40.106519
  level: 6
  lon: -88.223748
  name:  'Thunderbird Theatre Mosaic'
- ap: 2537
  img:  'http://lh3.ggpht.com/HT9MCAYPCUToRbQ3KDfXQK5_1QWZHe8dWeDDLoxK6tNqccyBAs3Qs0Q-Tha5nVEl_LzRgOzxkhoz1HFzi0Lbzg'
  lat: 40.102177
  level: 3
  lon: -88.23076
  name:  'The Kinkead Pavilion'
- ap: 2387
  img:  'http://lh5.ggpht.com/ucFkWovrZBr6wFMicSGD78p44tqzcyfJCvQuAocYo0do3ODoHsOeAMphZZferoOLkGfuJPQVlILRzKG1vAPg'
  lat: 40.109172
  level: 5
  lon: -88.231151
  name:  'Illini Life Christian Fellowship'
- ap: 2312
  img:  'http://lh6.ggpht.com/c2I39IJvSBKmCLonmhP_RN1vLEpYY1recBXFm8xpGHxES4bAN2kvAcda8ZzvT75uq0yWQCv7N_dzP6ce5-Tu'
  lat: 40.108043
  level: 4
  lon: -88.22469
  name:  'Building of Molecular and Cellular Biology Sculpture'
- ap: 2537
  img:  'http://lh4.ggpht.com/3Lm-KzGM9vXbvxwzd3uNOE1ibdw6aBbJypb9HN6pbH3ANeklxtL1pI7O-dXg3t9maE-0WFjc9mIrgHbNJJE'
  lat: 40.102641
  level: 2
  lon: -88.227634
  name:  'Farm House'
- ap: 2537
  img:  'http://lh5.ggpht.com/r5KiToG6Qjyw5c6bAl_0F5cRgpub6HC8MAhqSj_urbSr7jfyMNIuQJaMQykBPvk8mATAla1R16wMHTDoU456'
  lat: 40.102817
  level: 3
  lon: -88.227222
  name:  'McFarland Memorial Bell Tower'
- ap: 2537
  img:  'http://lh3.ggpht.com/u-v3itkeM0VuM3kSQsa0wO5TAPiR3fou2d-_1ukh5ZZQlHVDJyJ6vyb3Q3ONlRDfvaHf2Nw-aWwerNtqz3rH'
  lat: 40.106197
  level: 5
  lon: -88.228614
  name:  '1913 Pillars'
- ap: 2537
  img:  'http://lh4.ggpht.com/WF3_fc0ms0XOrJBrSwqEEdmtfNLcSKu4S_zvn_t6zYNYwxsZY4UrAV04cTmXoYt3dRTr5wyRBPZVKsMAoSbZ'
  lat: 40.105315
  level: 5
  lon: -88.226125
  name:  'U of I Observatory'
- ap: 2537
  img:  'http://lh4.ggpht.com/q2L_InMJy4JZq79dX9LLf9XauoaXGOLl7SWvVyD9F_jIgyqpn7SsqHfY9EMYq1SLteTpj0cQDZN4f9x0IuvV5w'
  lat: 40.107273
  level: 6
  lon: -88.222942
  name:  'Tryon Festival Theater'
- ap: 2387
  img:  'http://lh3.ggpht.com/5jYVsmaWJU0f8zVo2s_GfQ8mtVZTRQdgkF6Lz4nZKshBOXkqOj2I-34881x1ViUkWSd5_DHAtnoHpOzyGkMwnw'
  lat: 40.100785
  level: 5
  lon: -88.219477
  name:  'Weaver Memorial Plaque'
- ap: 2537
  img:  'http://lh4.ggpht.com/CuRKYla63wCvLaTdKqGMMAd1Mr0_HK3v2iQjltrJwmsOownFtry6TsHMkAeHmOP6ULUYA53u4MUP61rgLzs6'
  lat: 40.1097
  level: 4
  lon: -88.228059
  name:  'Liza Kotz Memorial Plaque'
- ap: 2537
  img:  'http://lh5.ggpht.com/1yq3oFq9p_Yl5cUf5h7IEfZPAbae2MT7lA0DFo1DHwPWPZJJ-Ez-2AE2oTzHEHWsEJQVUcUwh3j_d3kOYgDS'
  lat: 40.110095
  level: 4
  lon: -88.22862
  name:  'Alma Mater Plaza'
- ap: 2537
  img:  'http://lh3.ggpht.com/-p1CR-MEw_nnGMNLqcKVLoq-lgaxNYTd37J_sxs5ORcWO0Rjnk88yp4BLGDPGeMvqIfxxcOQsFbxvS_PbqWynQ'
  lat: 40.101215
  level: 5
  lon: -88.229077
  name:  'Illinois State Geological Survey'
- ap: 2537
  img:  'http://lh3.ggpht.com/MhImfPRi7WC74Qg-w4TCrNnC1hTih4TLCipNyUswQRp6HDkM5XS2cJqL0vrBH5sb7VdgzafkvLVAVEk3R-W6'
  lat: 40.105511
  level: 5
  lon: -88.227195
  name:  'Bruce Perona Memorial Plaque'
- ap: 2537
  img:  'http://lh6.ggpht.com/y10QgRCNt0Bsefqp3olKgJp98whQkS0-vWqPskj3421hcSq96BG-b_KROqsO1mBEcNiYtAKhXuXG0EV0eaUW'
  lat: 40.107152
  level: 6
  lon: -88.235244
  name:  'Bromley Hall'
- ap: 2537
  img:  'http://lh5.ggpht.com/NUOCD82iNRGW1NGqEC4FKet1u5_cm4WRNc2c9_YABAjGf6-OSCLz7HgYkP1ZuVAbpMl6Qi10HRW16Oc9jNM2'
  lat: 40.106401
  level: 6
  lon: -88.236182
  name:  'Washington Park'
- ap: 2537
  img:  'http://lh3.ggpht.com/oSQ_YOHo2mfYjOa8bPK9ellznKK29UluW-SeXoGYra9VFg8dJp6YQRdHbHHaTExqXs1qUMBNmpI2hUPcC4GI'
  lat: 40.106789
  level: 5
  lon: -88.222992
  name:  'Beginnings of Computer Music Plaque'
- ap: 2537
  img:  'http://lh4.ggpht.com/Mr8XeGiDafWk47NSkxDW3WManlpDnqzQWOT1VE2j0f0jFdh3tCvvntj45n1BJEnHylldZRnpPEOJ8OLeFZI'
  lat: 40.114405
  level: 6
  lon: -88.224198
  name:  'Siebel Center for Computer Science'
- ap: 2537
  img:  'http://lh5.ggpht.com/wKYFUitSg7xVcF8jazJLFQH2_SWBC3dL7XDv0bR2l0QeNg-_I0tZ9hxB4Bid2mrta8VMy7tHn7fzFyxzaGlu66CnbZdBethBjUm8oTUecqXh2P0P'
  lat: 40.114327
  level: 5
  lon: -88.224492
  name:  'Siebel Courtyard Structure'
- ap: 2537
  img:  'http://lh6.ggpht.com/ZSVCsC7hXcoC2GI20Sq8deYNu_RXKDePVyLUpFRUSNdceVY9OBExZbgX-tuJK4pHEVYXT9YbN7DF9kicgt25'
  lat: 40.088197
  level: 6
  lon: -88.190413
  name:  'St Matthew Lutheran Church'
- ap: 2537
  img:  'http://lh4.ggpht.com/-PoOzj6Y8giZrX82Mef4UPVaAW0on17-qpua7swKz8BzaSmyq9XjUOHUBm9ZWneYuqB_EtrsfEBm-cyW4Ak'
  lat: 40.112856
  level: 5
  lon: -88.20317
  name:  'Goodwill'
- ap: 2537
  img:  'http://lh6.ggpht.com/orpM1lF6sc24rL0AGIiGqg18zTkIPXvZoM2xcA-mKGbaHOESuKbO_RQrwjxW9NTZjG0QqCRU9j2goZUvangFDQ'
  lat: 40.112894
  level: 6
  lon: -88.208433
  name:  'Boulangerie Mural'
- ap: 2537
  img:  'http://lh4.ggpht.com/g8tAznMB64NxNMd4eYtF27DhNprtAqnBEt_llGcKp1qpKQeUvyHBi8p5QuGURqAGieaeJscmQPi6Wosmutg'
  lat: 40.111328
  level: 4
  lon: -88.209207
  name:  'Urbana Free Library'
- ap: 2537
  img:  'http://lh5.ggpht.com/cAVQ0bxfUIyyRsK2WMct_JL7PakeKZCfrM9_YQmE6gunhf9tFyzp6GXC7xVzzzKycFp-LpsvVyPsM9gSEcY'
  lat: 40.106685
  level: 6
  lon: -88.195479
  name:  'Robert V. Johnson Memorial Plaque'
- ap: 2537
  img: http://i.imgur.com/5j1qaiT.png
  lat: 40.185673
  level: '?'
  lon: -88.380353
  name:  'b565ca8c792f4aff81fcf66a7d7b882c.16'
- ap: 2537
  img: http://i.imgur.com/5j1qaiT.png
  lat: 40.186983
  level: '?'
  lon: -88.384566
  name:  '50006796477543f889671801f60b7403.12'
