- ap: 13594
  img:  'http://lh5.ggpht.com/Lup2et0i5h8oHqtBffIdoyX5uclC2MBn9ZnnKnYPr4RIFSflf9bi78zBHK7QqycA0qgEev9qOk0zU-1o1hg'
  lat: 40.108451
  level: 7
  lon: -88.228733
  name:  'The Centennial Colophon'
- ap: 10783
  img:  'http://lh3.ggpht.com/rUgM7jkTqL0VHxvsSW0yWuNJF5UrU62ITflghfn4PfKjn6L4WGz0ALkv98fc_q9dmK9SSpU1PXIawGvcRwE'
  lat: 40.098246
  level: 8
  lon: -88.251974
  name:  'Hessel Park'
- ap: 10407
  img:  'http://lh4.ggpht.com/H1kV6JSczzSbcCblAHg5ZOgITW1mBAz0_oLbqbzxBlijGTBn7TP6KwA6UI0AAGrCN4VF0DAF79Vcj6_2R4dsB8LRTq6tud6v'
  lat: 40.107753
  level: 7
  lon: -88.228913
  name:  'Zipcar-Wright Street & Daniel Street'
- ap: 10033
  img:  'http://lh5.ggpht.com/Q32BPmFRIQYqXI5gLOV9ifHvFlGdyD_yws2172-sHnSZ-StunhCM0Abqd9rBWSaKBWN7RPpa1h-nok4Mc23i'
  lat: 40.101062
  level: 8
  lon: -88.249275
  name:  'Narayan & Shanti Achanta Memorial Plaque'
- ap: 9846
  img:  'http://lh5.ggpht.com/T0WLAJf0s4nu2Phxax31eu6pO6zNoA4JpvHMLyfMKttzJALEWB8EAWOziQwgjdWE3YjBbG1XjGYsgihqCSX9'
  lat: 40.100414
  level: 7
  lon: -88.249061
  name:  'Randy William Auteberry Memorial'
- ap: 9659
  img:  'http://lh3.ggpht.com/GXyi2ghi2DR3h7uIHNYiEZPYixRhDo7LO0WHQ0PyEzb-150r7ar7JGeVjUoPuObC-GFWf22UWqnYCMtED0M-'
  lat: 40.100341
  level: 5
  lon: -88.249937
  name:  'Alice Marie Weber Plaque'
- ap: 9659
  img:  'http://lh3.ggpht.com/sisvfsphxy7AK_2qrrqb7lNJk3_7ciHSVJyodINYITBc-UqugyNOooCxKupgJKEg5m_x95eZwouSO2WCmN60ew'
  lat: 40.098579
  level: 5
  lon: -88.249603
  name:  'Chef Ra Memorial Plaque'
- ap: 9659
  img:  'http://lh3.googleusercontent.com/E2FfrLzJb3mHfXBany5NUYpw8tvRpjHxGQ7W0BTKFPVcMupabCQ2fXgQfa0jajRZbLswWOYbEkCO3hUGbIGD'
  lat: 40.099056
  level: 6
  lon: -88.249136
  name:  '"Cricket" and Bob Barger Memorial'
- ap: 8720
  img:  'http://lh5.ggpht.com/k_9eqZVvGcr3ZNyeeSNDM1-Y7od35KmnQQptB9usrdpTdpGW2c_5-12rYy9hGazdx7qhlYrEXxaJ_ZIVFywlcA'
  lat: 40.106706
  level: 6
  lon: -88.232116
  name:  'Illini Tower'
- ap: 8720
  img:  'http://lh5.ggpht.com/1yq3oFq9p_Yl5cUf5h7IEfZPAbae2MT7lA0DFo1DHwPWPZJJ-Ez-2AE2oTzHEHWsEJQVUcUwh3j_d3kOYgDS'
  lat: 40.110095
  level: 7
  lon: -88.22862
  name:  'Alma Mater Plaza'
- ap: 8533
  img:  'http://lh6.ggpht.com/BzDhCANV_iNTHhKFBGLuaUqOvChRZtPWnJ2Xk4h7NsKJHmTGgCWtFHWv2PpDA2fCsHHKSCRTrUNK8AKrLRnS'
  lat: 40.108066
  level: 7
  lon: -88.230687
  name:  'Community United Church of Christ'
- ap: 8346
  img:  'http://lh4.ggpht.com/YMDDyyJpIhe7xeYVGH048CFQDr7lX1SIPXzk4kXWr6zVgpUv6D1YGTLKwyg3DrhDoCuv-knBgF2gKZTylVRQ'
  lat: 40.132912
  level: 6
  lon: -88.314568
  name:  'Sunset Ridge Park'
- ap: 8346
  img:  'http://lh5.ggpht.com/dRrlHXlT2nMNgZNHiYo52ha9L-Xay9DyOJR2Cpqs74hgAJ09abn9OTAtMzRVedt1_R9ObZllLO98vRhNMfgTgVsJCk1S-HJwX_XgiGpG4lz3a328'
  lat: 40.11671
  level: 5
  lon: -88.24263
  name:  'Cafe Kopi'
- ap: 8159
  img:  'http://lh5.ggpht.com/C6wRSaEWO1NYGY5luyYZKHG3Z3aib4aflaPdV7B9G6N6adE890g3QuPRSvCUhsdFHqjoVUjo27mfz9WsjXyuhQ'
  lat: 40.100521
  level: 6
  lon: -88.250864
  name:  'Gabriel Patrick Maxeiner Memorial'
- ap: 8159
  img:  'http://lh6.ggpht.com/YdeB0EKlsopL39a9YXWj4JBZgXNNLWHgfe4PQzdpWCNWc0fR1YTj8WjARDHnmrusvKWTqKLcGg8U9frhtsw'
  lat: 40.09821
  level: 5
  lon: -88.249879
  name:  'Hessel Park'
- ap: 8159
  img:  'http://lh5.ggpht.com/8zq5tMevCiipZK8N9-8SZw3vdsA2HwH0E02ormQshGxHVZrB2WPK7OPC8zt6pjLlgpXVuEYHVA_08_Q8fPw-'
  lat: 40.099647
  level: 4
  lon: -88.249648
  name:  'Max Overmyer Memorial Playground'
- ap: 8159
  img:  'http://lh3.ggpht.com/G1CvGhpethi5UmprDWxZN9rTblHa3anSsQz1UPgJtkREkfN7lDFoxFObst0609Cg5mofuZxJKr0ddNKhY4VL'
  lat: 40.098464
  level: 8
  lon: -88.251426
  name:  'Ruth Haasis Memorial'
- ap: 8157
  img:  'http://lh3.ggpht.com/2bCNiD7SWsS3uzFLMO2cZh-LpHUEMQGnfTmcNx5vJapXho2TuXke630-7zop2Sq4fuY8nWVqy4VCG23mvnIJ'
  lat: 40.104168
  level: 7
  lon: -88.238808
  name:  'Alpha Gamma Rho'
- ap: 7972
  img:  'http://lh5.ggpht.com/ENeQgqydWbi9-Oyf7vizunoRqJdsZV4o0RA_956wjGI8hqpTCHBPyWMpbTrrkwYpj5tgzDRvevGmvH4eFRU'
  lat: 40.099593
  level: 8
  lon: -88.251724
  name:  'Blessings from Devon Elaine Cattell'
- ap: 7972
  img:  'http://lh6.ggpht.com/5CDidk0pqfUtSW_Yqouuf3diX8drdMu9DoT728QpSz8q6A-WxNhT0yLcgM_7gGpyIAeXrHiTkIzzaVJFgnN9WA'
  lat: 40.099852
  level: 8
  lon: -88.251947
  name:  'Our Friend Tim Palmer'
- ap: 7972
  img:  'http://lh5.ggpht.com/fDRifvVcFT_dKhPuNBN4rR9lNHL0Q6NvbMnGr2-ZdiirR2rJrBcWRi4vyM3-DYNHymUs7bWchaWRaUtBpg'
  lat: 40.098541
  level: 5
  lon: -88.250389
  name:  'Dennis Robert Costello Memorial'
- ap: 7972
  img:  'http://lh3.googleusercontent.com/qiCzk44kbJr1T0epQjDTIa6YFH1inC0xyPQblqRhSmRcgE4SKEEL6VSPLefcs5myDM3psr50I2E4lQRne_wL'
  lat: 40.09991
  level: 5
  lon: -88.249899
  name:  'Benjamin Biddle Memorial Plaque'
- ap: 7785
  img:  'http://lh6.ggpht.com/YVbqGVTjJuDMDdj71CP2mWvnUIdgO25PgoDdJwEGnEE_M9I1aDgKyjSr9JOZVU6UQTZQtfUo9RAWyz92n3jtCQ'
  lat: 40.098475
  level: 6
  lon: -88.249208
  name:  'In Fond Memory of William Moore Jr'
- ap: 7596
  img:  'http://lh6.ggpht.com/SCYK-XeMmOyfRrTt1-aQNoDA-2Sib4m5Ch26mTwo6XNdVeVnfi7W74Ik6IRLAPSoKzSS97pgwt50Jl9oSgGfP029USxZzQWKNJo3rbs-6YHBPBif'
  lat: 40.116792
  level: 5
  lon: -88.241752
  name:  'WEFT 90.1 FM Community Radio'
- ap: 7409
  img:  'http://lh4.ggpht.com/-MJc8fCVxpxV7prlhkP3sXPWZ7jsr8Behc29zUJqdz_V57jSg7SzyMUUv7B9Frzu36mJhM2PQkr_LJk-zyM'
  lat: 40.117729
  level: 4
  lon: -88.243645
  name:  'Watson''s'
- ap: 7222
  img:  'http://lh3.ggpht.com/8FqlniFErK7cq59awiT84u8KyV4FIRd5krZzfYa58zJToFps7whdBnriPqvO_kFKeLUE3SWbJhCOPuvUQzaGFA'
  lat: 40.100691
  level: 5
  lon: -88.251337
  name:  'In Loving Memory of Zeus'
- ap: 7222
  img:  'http://lh5.ggpht.com/tfAfnmo6mSMc6U0P533NMFJRGwn6lasmx-MLR2JJg1QOizMKkghFU8E7hb2zgYgdQEbgnCJUlvZIMdrrJe4'
  lat: 40.100822
  level: 8
  lon: -88.25193
  name:  'Seeds of Kindness Bench'
- ap: 7035
  img:  'http://lh3.ggpht.com/xSCQSCRT6pHyQi9LDI3OamMdZnhLQ06OSlHRHnJC0FkDo93VgOcr3gyAV0aPAKagwq9V5iViSSCgIr6_fWCB'
  lat: 40.134441
  level: 6
  lon: -88.314067
  name:  'Seasons Within the Wetland Environmental Sign'
- ap: 7035
  img:  'http://lh5.ggpht.com/aeGh3iXJqJ7skg-2JHEpngMSfcp1qDIEPoLMxzQNqbS5Y7HcxN7oE789bXiVFoFIcdCn7-3AhLPtxT_WE2E'
  lat: 40.0985
  level: 6
  lon: -88.248681
  name:  'Siti Sculpture'
- ap: 7035
  img:  'http://lh5.ggpht.com/3t7XZHqwxLZ8Lc9YomR8FInm74U2PAA-DBk8kmdxXIrcXbKa1CoBDTlgdDJeO-_yVT3qNKRnNLzbdil1eH41iA'
  lat: 40.09935
  level: 4
  lon: -88.249766
  name:  'Jim Bickel Honorary Plaque'
- ap: 7035
  img:  'http://lh5.ggpht.com/HhVreJipNvxPRVFpmsh2BPo9PcpPO2Q2l3jCpDjIKgfKGycoTNPXR4DKiYccBXW4X-4dJf_vV0ESsWAWHcChsg'
  lat: 40.100936
  level: 7
  lon: -88.250855
  name:  'Donald F. Bresnan Memorial'
- ap: 7035
  img:  'http://lh5.ggpht.com/-UWK84I78Sftf7yg-E2pg6xEAWTvyiThgJBJlxbqOZPYKNmzQ8uGgEEMetzplrG1HpXG5kQqNItUeXKxOHDsGA'
  lat: 40.100286
  level: 8
  lon: -88.251747
  name:  'Tennis Anyone'
- ap: 7035
  img:  'http://lh5.ggpht.com/q-mJ2EvrjGn2PfbBh3Pl3XIGUyzTqxGjZmTMhn3k9_2Qi0S2hs3k2ZvpKb4kvt60AXHiyQdxqft5ZecPcg7x'
  lat: 40.098959
  level: 4
  lon: -88.250141
  name:  'Bob and Wilma Tinkham'
- ap: 7035
  img:  'http://lh6.ggpht.com/3o0ObAARFV_8mBVCC_QD0iLOPVzNkakXybhLnSVEuXIJfDLKMxeYj-EkWIw9NPoZIVRf5Dkrid2yf_NEQ-iE'
  lat: 40.100347
  level: 6
  lon: -88.249385
  name:  'Travis Marmion Memorial'
- ap: 7035
  img:  'http://lh4.ggpht.com/4LxsGZZMk3DnpJXUvqzrL54CHSP5TDXjUnDJyHmCCTtCJIjGEI7kxT9g4uxfSPh0X6yGLgQo1jfqbu7B8VEr'
  lat: 40.099084
  level: 8
  lon: -88.251826
  name:  'Irina P. Stewart Memorial Plaque'
- ap: 7035
  img:  'http://lh5.ggpht.com/3RfiPeOzF67ubNX-vkwUJ6-EYld6BKuoBernq0_9kOjlIsSPr3saR9FIQzN7uiw7ouF0CpNflOnL0mUj9zbqdQ'
  lat: 40.109452
  level: 7
  lon: -88.229031
  name:  'Illini Hall'
- ap: 7035
  img:  'http://lh6.ggpht.com/pxaCt7clhIXc1RVGMMJZsmnbEWNWjFYJiUrQMev_SeOmXBothvOzmfnirQ5_W8CMa7hpigqydQhKMa4XFCAi'
  lat: 40.108173
  level: 7
  lon: -88.230209
  name:  'Mural on South Sixth Street'
- ap: 6659
  img:  'http://lh6.ggpht.com/WtqWBwqpYTSw3g9ru5NwcFn5iK5STxWgy2kv4OUTWqwtzx76-9Msz0eqoiw0qpEYE1U4zdt9rzzNZMDNagNg'
  lat: 40.107943
  level: 6
  lon: -88.226751
  name:  'Class Of 1917 Plaque'
- ap: 6472
  img:  'http://lh3.ggpht.com/oHMQr2Z5LayQFbZOwOZK4ZbYQ1OVxs85-qNTvSj8epsP72vQiOdrzVmkuMPFQtCSf9Rr0oqcnSLFjLn-sPw'
  lat: 40.116592
  level: 5
  lon: -88.243236
  name:  'Champaign City Bldg. Landmark Plaque'
- ap: 6472
  img:  'http://lh3.ggpht.com/CwgYIhVaivHHg_U6yqu5KSGhSh9ipRBDu7G192KiQfrnXc7C8uh7UOh6MP91vhZJ3LZdiTaFwpvFukvIaj6J'
  lat: 40.117445
  level: 5
  lon: -88.243409
  name:  'From Swords to Plowshares'
- ap: 6472
  img:  'http://lh3.ggpht.com/HX3mWBGofQk08Qdp7A6KMK1AnSXlLEPJR-n6oeX69Efiiss29GHsLiDsHhRS5K8DrXh-QXP1T0AMaOsJmx_w'
  lat: 40.106921
  level: 6
  lon: -88.230145
  name:  'University Lutheran Church'
- ap: 6285
  img:  'http://lh3.ggpht.com/yeYI3q7rDQLA5xBcWfH-Caw2Uh740ZPRQjjyvOrZz7ZyLI-gxBpi8yqxqDrlOBzG9YHs6YlxdgX0obTpXlQ'
  lat: 40.117681
  level: 5
  lon: -88.241405
  name:  'Jupiter''s Downtown'
- ap: 6285
  img:  'http://lh6.ggpht.com/n0f7lyo15OzZn5IJHsohIGAA58iioentPZGEY4zeMZCCoX4GjEEkqfaTCIbrx9OnezriThnbFV14kYcwKTgL1g'
  lat: 40.098444
  level: 7
  lon: -88.248167
  name:  'Healthcare Not War Mural'
- ap: 6285
  img:  'http://lh4.ggpht.com/vKgqIecJshMQxrhO-ZhMjcIyARuJdyU63wKfzAG0wouZex6LVzO46Qi5zM1N3Jx8xyantDFk9sQGsSEBhb-y'
  lat: 40.101327
  level: 8
  lon: -88.251412
  name:  'Zeus Memorial'
- ap: 5723
  img:  'http://lh5.ggpht.com/BUGNnLReyCBJJj9_zpqgwv5_CAyiW8fWBpyVs0ip1hT5NEE6YKCYzlc8ahldKzk_xv-4uckNJNb6NrJd6r33qg'
  lat: 40.116989
  level: 2
  lon: -88.242255
  name:  'Blind Pig'
- ap: 6098
  img:  'http://lh6.ggpht.com/qSCp5fQMlyCQ-GOAgiSFy5gaHJei705Pa3eOlJiYO5wGjZTYtjA8q7QWWfAWcLKjxZSaFiMfXOPR8SO7rWU'
  lat: 40.099353
  level: 8
  lon: -88.251876
  name:  'Raymond B. Cattell Memorial'
- ap: 6098
  img:  'http://lh3.ggpht.com/KzADjdPRAvwycpfTBdAeDwFJ0AxZJG2dPmbPWkXq55QLV9PfpJ_-DsXWIlVgsISUApRdJ5cAxRWx0k0W2hI'
  lat: 40.09979
  level: 6
  lon: -88.249107
  name:  'Jerome Cook Memorial'
- ap: 6098
  img:  'http://lh3.ggpht.com/VLipBehsKPCp8ewQnBV1ZCz7uE75zcY46iGDyFfFHgX1o55t3DONb3wcBcL5RMYSqABRK0TgIW3DluNy8y6WaA'
  lat: 40.101131
  level: 8
  lon: -88.250539
  name:  'Hessel Park'
- ap: 6098
  img:  'http://lh6.ggpht.com/S7Utf4_59vQkAP5JhC3mdbzVLKBTt-0zoJ2UjfxUnN10VBbixO-_VwvssWd1LbFSx_yafaijd_U0wTGo870'
  lat: 40.100941
  level: 7
  lon: -88.251314
  name:  'Gabriel Patrick Maxeiner Memorial Plaque'
- ap: 6098
  img:  'http://lh5.ggpht.com/jQxBvX2jWXZCQP5ap9HmKaDDgG40pdH5nPpBNcYppZdxce6GWdxMRTYyqKrLxnk_TsmMAd7G6gRwJ6YI7S-v'
  lat: 40.107574
  level: 6
  lon: -88.227843
  name:  'Iconic Pillars'
- ap: 5722
  img: http://i.imgur.com/5j1qaiT.png
  lat: 39.970363
  level: '?'
  lon: -88.349161
  name:  'b5cc5d8af6734321b8c8b1abb7dc3dc6.12'
- ap: 5722
  img:  'http://lh3.ggpht.com/2LmoiHH6s6FrGUTRiNNoF0WIY5lVvkXP3CTOxQjNjG2_jrgsDmaxyIZxewF_wa8mFgO41Avi733oq5-CVio'
  lat: 40.10631
  level: 6
  lon: -88.228952
  name:  'Pi Beta Phi Sorority'
- ap: 5535
  img: http://i.imgur.com/5j1qaiT.png
  lat: 39.966802
  level: '?'
  lon: -88.34467
  name:  '4559bb0f45f9470b8b155f0f3b6c9056.12'
- ap: 5535
  img:  'http://lh4.ggpht.com/A15Qc2ImqJFORKlDItFStr3pkJ1pX5dRyG8VO6RoziKIqMOMMTQdJa-fUInsxL4o7Yxg1XNHfexBZuNAyLG0yw'
  lat: 40.132021
  level: 4
  lon: -88.31285
  name:  'Sunset Ridge Park Dedication'
- ap: 5535
  img:  'http://lh4.ggpht.com/_jAAuDi8SO5uupi8JlB3HZaFG40S15izNv_3vqOt7ro2rRHuXrfdEKfEFvRESdAjCEz3RVDpyrxJGSIrju5d'
  lat: 40.117916
  level: 5
  lon: -88.243087
  name:  'Sholem Building'
- ap: 5348
  img: http://i.imgur.com/5j1qaiT.png
  lat: 39.984616
  level: '?'
  lon: -88.263266
  name:  '6fc2b246c1ea47d0ba7c8aaacc073f38.12'
- ap: 5348
  img:  'http://lh5.ggpht.com/ek0AuIkZd5CWKmIdjFjq5gOvptOzC8VJUnyatNG8ZyUoT8-mvkd4seW8Gpbl4kkgiatIbr57h5kK_5z6NSGD'
  lat: 40.131581
  level: 6
  lon: -88.312816
  name:  'Sunset Ridge Park'
- ap: 5348
  img:  'http://lh6.ggpht.com/eeOtj4-6PU8Dt6QXk_TJjgkoEGRW9L8YzUqZE8QV5ZMCHnqA5CzoQoxKpnjCvXwaIflUUvPJmO_S7BdvMhcuzw'
  lat: 40.117588
  level: 5
  lon: -88.241787
  name:  'Adam & Eve Mourning Over the Soul of Abel'
- ap: 5348
  img:  'http://lh4.ggpht.com/MvwoDsxwfyNLHzfGkFJl-4VFeX7OvqB0hsMCrZ2D9Olh8GSghAJDfFfDh7a7cOtMIGwEDMyesZoKvKCXAGj4'
  lat: 40.116553
  level: 5
  lon: -88.242268
  name:  'Esquire Lounge'
- ap: 5348
  img:  'http://lh5.ggpht.com/4DJAFPeZ_w65Km7VDnsbOqouQaeBuPuxA0KHPQToT_B6o1hBxzdu3kn89UhHgv22Ygj52Fx9QqcbzOytuw'
  lat: 40.100078
  level: 5
  lon: -88.250683
  name:  'Brian Clark Memorial Plaque'
- ap: 5348
  img:  'http://lh6.ggpht.com/yjfa0jJLjsfLRf9Zn9iafMp3MuIhgCi0WiOCF8GqTGiGvzEnsPGrFa0H1n-uzWhVehLbt44ShthsA32VzHd5iQ'
  lat: 40.099737
  level: 5
  lon: -88.251157
  name:  'Tyler Van Atkins Memorial'
- ap: 5348
  img:  'http://lh4.ggpht.com/PHV-1ZpFzCAl_ViCKwBY_x2pIDbVyaT7wJH1sTvFJCxrSdRrO1x7NaXq9OdRGwz_Mls4iwk6wuGHMBArfV54'
  lat: 40.098688
  level: 5
  lon: -88.25063
  name:  '"New Holland Yellow Dinosaurs" at Hessel Park'
- ap: 5348
  img:  'http://lh3.ggpht.com/lzCSS0_tjwUV7JQ2fgLI0e05IrzPxlVUs-6aEPOwUv67IanQJSTi71gkw0SGm8asmoE_r3Xoh048Fd9xRpE'
  lat: 40.099169
  level: 7
  lon: -88.251419
  name:  'Lyman Larson Memorial'
- ap: 5348
  img:  'http://lh4.ggpht.com/mlUN5QXAR7rKFvUg7yhxcae3udkR7zCJVaWt5sq_YA47piV6tRi42RNN9fEtT_FafT7lhqg26WM1VETbz5E'
  lat: 40.098239
  level: 7
  lon: -88.25376
  name:  'Hessel Park Christian Reformed Church'
- ap: 5348
  img:  'http://lh4.ggpht.com/p1kbhH-3K08NNqTt_6-223uI0PurGUV2HeAWGYPRx3OnNYMY-kARoW1zZ2pZBHthAYRZbIgf6ioRawHi0BmUx786y5ffm0kmZsskaOiluDUhSIiI'
  lat: 40.106173
  level: 6
  lon: -88.22719
  name:  'Foellinger Auditorium'
- ap: 5348
  img:  'http://lh4.ggpht.com/S734i_6SihPtJW8WdegLb3gEuKeNx8e1qDm6CXjREzYHohw7XqL82m4EF2K5nS2TixHweLn3EuJ4YoQnrsw'
  lat: 40.107751
  level: 6
  lon: -88.231532
  name:  'Graduate School of Library and Information Science'
- ap: 5161
  img:  'http://lh3.googleusercontent.com/Tixp17uCaP682s77UzvCwWCOE6vg7iB2qEFLjACq7xtVJdHE0K3yKYsl3_SwKbiUfQWwgTQRbvfka3U0NvNc'
  lat: 40.098819
  level: 6
  lon: -88.249214
  name:  'Bette McKown Honorary'
- ap: 4785
  img:  'http://lh4.ggpht.com/YSOz0a5ifhwbxTlrDnBNW-U35O1enndhsHgwgpJnFstBSqc8aMARC9BgIATLkd4Gd-lqDL_U6i3kdjCl7L3v'
  lat: 40.117969
  level: 5
  lon: -88.28581
  name:  'USDA Prairie Plant Research Plots'
- ap: 4785
  img:  'http://lh6.ggpht.com/yYW6Egg1lWn6UqqLzlgqwCQhtbuxiZSW4TmvI1XBPs33OTTJ0oh51XZXOIILxGI2juoO-E_YfG5UHmeb34rSOw'
  lat: 40.109165
  level: 6
  lon: -88.230269
  name:  'John Street Plaque'
- ap: 4598
  img:  'http://lh6.ggpht.com/ocpQF23CdY7CXPOYMbPL3wLLV7Rc0VayvSyooA07il2lG0oiiQDbDCnsKqO1ysXJAVlzGikCKS-kVOLb6rog'
  lat: 40.135079
  level: 6
  lon: -88.314559
  name:  'Sunset Ridge Decorative Gate'
- ap: 4298
  img:  'http://lh5.ggpht.com/6qIQAtIoPbAVQ1O3BoOnGg6gtTa9fd0JIkxt6P1kmSimVswLaPpCRaLEudsNcMfP_kKb4SCE1By1o3lhYevmIA'
  lat: 40.1172
  level: 2
  lon: -88.243745
  name:  'Circle of Friends'
- ap: 4598
  img:  'http://lh4.ggpht.com/zZ2YpVpDiI1KdIQ9iI7mGJD_VtwFztJ4ZF1vRehD9OSnQ2K3433SIg22svwcqDJVfeO2fjE3fdT4eHAJWGpi'
  lat: 40.104339
  level: 5
  lon: -88.234788
  name:  'Pi Kappa Phi Fraternity'
- ap: 4411
  img:  'http://lh5.ggpht.com/6W_b3aoHNnxViA4TkycmE5hhV5q_VHfypLNlgG4sAyw2eJ5Meyzi2-vwTA8miyKA5pZApxbfpAa7uc0zlCM'
  lat: 40.134758
  level: 6
  lon: -88.313172
  name:  'Sunset Ridge Prairie '
- ap: 4411
  img:  'http://lh3.ggpht.com/g1H1SJintXK5Zb7ng6DN7wix1q5otnzMK5JCJDnecwuIiohJmhXLJs1XzItxaTSYEuPPOqd4x-dGqd0WK5YU'
  lat: 40.13349
  level: 4
  lon: -88.313072
  name:  'Sunset Skate Park'
- ap: 4411
  img:  'http://lh3.ggpht.com/j0Yx7yuvUTJbnHtY38VFaty8xpyZMMDS_bSmvbHQx_2nQBiLqF4PGpLNdTGXkRgA3-OANQgASvn1mPGcuJi6HA'
  lat: 40.131715
  level: 4
  lon: -88.31369
  name:  'Mark L. Rambow Tree'
- ap: 4411
  img:  'http://lh5.ggpht.com/TwKxvDv1ImbH5RTs7GHqqK_rPohVtqtgToH7YuDkkwa5BRFiMEcY1vWcFrJLkhaXW6cd2YVL0_Vro2JaA3K1'
  lat: 40.131575
  level: 4
  lon: -88.314062
  name:  'Mark L. Rambow Memorial'
- ap: 4411
  img:  'http://lh3.googleusercontent.com/E_ZPlSyleqUMg0OilyQYOVjaoZT-y4SbH4plEyw9dIUNETTaaR5s71RJOIy8h5u1Ae97gUfiLGrIdMPXjNQ'
  lat: 40.11727
  level: 5
  lon: -88.286997
  name:  'Kaufman Lake'
- ap: 4411
  img:  'http://lh6.ggpht.com/hmDofhQgtMboyY40gAShyf0g__uH_qYaFzVKnGKShUBNn-JjwpN526PPOYKyq8kvusIGRrMQIZ7ozPedDVm4iA'
  lat: 40.117495
  level: 5
  lon: -88.241616
  name:  'Lincoln Building'
- ap: 4411
  img:  'http://lh6.ggpht.com/BKeORacgeVrG8XzxTuXmpq5UxomWpK-I2n7Xy0PVbdSciNx9MJl869TcibnFIiV5PJHGv5R3QOpX6ZgLUwU'
  lat: 40.099706
  level: 5
  lon: -88.250065
  name:  'Lois Barham Memorial Tree'
- ap: 4411
  img:  'http://lh3.ggpht.com/J_h4tdb4wqy8bmmQfDuy5yqTR2IlkzKojfvsMOvlD-3tf1pKxbDlhA6W9Q8RX-JaSxhItMr4bmCxiUQXTLbz'
  lat: 40.10064
  level: 4
  lon: -88.24958
  name:  'Edward A. Cousins Plaque'
- ap: 4411
  img:  'http://lh5.ggpht.com/1fPvqpqXG5PDCkmegoWb9Tv9N5_MZh9XjmZpbyNEs5yPDsCscbrPB1cO_Pf8GT35HYrTF01FZ6s5VPIpjJ_20A'
  lat: 40.107098
  level: 6
  lon: -88.228984
  name:  'Saint Andrew''s Church'
- ap: 4411
  img:  'http://lh3.ggpht.com/F-cwL1kpN8KTxTiRAdaaAFictKYDbMRhPltdDuO0_6jhG8_6fxg1_yHzy1kBs1WXPRZ8UQDrxqY1fCdmHXFU'
  lat: 40.108042
  level: 6
  lon: -88.22808
  name:  'Earl W Porter Memorial Tree'
- ap: 4411
  img:  'http://lh5.ggpht.com/kElaGOaV9aI8SrnM1D65gx9J0Ky1AKrN9Yo-pXVmDhELt2pee4MwVRiCqCmlqWzUWj5pS33GnEzAiXmiWKsw'
  lat: 40.108111
  level: 7
  lon: -88.229625
  name:  'Illini Sports Mural'
- ap: 3848
  img:  'http://lh4.ggpht.com/d3UqrcK5M1wuOe19dIaBUOkrXF4C9IxhOWfxqzM4zIHkGsUIRb1mckNapOMRkkCtVIe0rzJumb1OVDVc1_Y'
  lat: 40.108055
  level: 5
  lon: -88.233688
  name:  'University Baptist Church'
- ap: 3661
  img: http://i.imgur.com/5j1qaiT.png
  lat: 39.941083
  level: '?'
  lon: -88.460102
  name:  'St Joseph Catholic Church'
- ap: 3661
  img:  'http://lh4.ggpht.com/XKVHQA5428-TLAwxsbTM7h-fg1ZVaoOYXR-p6_g9VpqHRXtq7EcVjmHVhIJBF7vxFz9MCkKRVwSGsqnMuZtb'
  lat: 40.117759
  level: 5
  lon: -88.285834
  name:  'Illinois Earth Team Plaque'
- ap: 3661
  img:  'http://lh5.ggpht.com/fXiNwkXmSX8fZHrMNMMOKDwrDe3QmmqOh1_M_Ycr5y5MtYCkhec8mczY1v29LvWHTFwsN9dS5HYQnaX-NGjoAQ'
  lat: 40.118435
  level: 4
  lon: -88.285772
  name:  'Hidden Street Art '
- ap: 3661
  img:  'http://lh6.ggpht.com/2lDM_Uj6QcUJmWkmPhNWg-vfkJbBQAo6zb7eXC5qDTaJ5xAsoU7jPPqYmLo7zztC2Za1oH3QVrHQ78-XabqR'
  lat: 40.116398
  level: 5
  lon: -88.242485
  name:  'Champaign Servicemen and Women Memorial'
- ap: 3661
  img:  'http://lh3.googleusercontent.com/5FkLhIMVmAJJSslAXVxY1RNxi-4q5mNAVPK2XgU5LwRM8qcB8BGXOK0GmF6Y_xfgPOhwF_CrbcgVZlJx-Pza'
  lat: 40.11652
  level: 5
  lon: -88.241845
  name:  'Mike ''N Molly''s'
- ap: 3661
  img:  'http://lh4.ggpht.com/0j8eeTKJgjnYhHpf4qH_70CZHLbujC5v-XP_ndcqh1xIR-5V2K_CGdjIe1ZfMbwvSyISxxYKoZynw1DaQcj8'
  lat: 40.105874
  level: 4
  lon: -88.230562
  name:  'St. John''s Rectory'
- ap: 3661
  img:  'http://lh3.googleusercontent.com/0sr-qQ4Z1TW1AZ62RFHko9Cbb8g36Renb3nRyxFJr_r68iVMsuh_EwrbThhXg2hVyqNQSjX7rFVvrWpfHS4'
  lat: 40.103958
  level: 6
  lon: -88.240451
  name:  'Bruce D. Nesbit African American Cultural Center'
- ap: 3286
  img:  'http://lh6.ggpht.com/uaO1clC1eOzxRVRPPU6mVM4lEPV2U6uxh64a8kJNRglHSObClWlHGEcfJTknzwB_7Wli3doxQJbZKiBHIXI'
  lat: 40.102834
  level: 2
  lon: -88.241672
  name:  'Rehabilitation Education Center'
- ap: 3661
  img:  'http://lh5.ggpht.com/MWJ2u6CgyftB6h05_WRqj_eYi-vhbwuOZ_9mxAS3eS-wY6XbpKlfBgzmohkwEj6Q2FoR0mm678IAtKTcei8'
  lat: 40.106846
  level: 6
  lon: -88.226647
  name:  'Illini Supersweet Corn Plaque'
- ap: 3474
  img: http://i.imgur.com/5j1qaiT.png
  lat: 39.988142
  level: '?'
  lon: -88.257132
  name:  'St Patrick Church'
- ap: 3474
  img: http://i.imgur.com/5j1qaiT.png
  lat: 39.964362
  level: '?'
  lon: -88.348907
  name:  '9e87bde25e4742e6a2802b1d7b1617a0.16'
- ap: 3474
  img:  'http://lh5.ggpht.com/tuo_ByFTbwLitFP5cBseOibqRxENxbCwOJ30dCnja5ijBI_qBv5vqNP7ZuZXnxhYM6ms_GbExZEwwKVUtwV2'
  lat: 40.093712
  level: 5
  lon: -88.281583
  name:  'Brownfield Dedication'
- ap: 3474
  img:  'http://lh6.ggpht.com/p2F3xw4xL4UdiMM9aSy628ISSglrvjPexpF3j340tMAP9MX07yh_sJv7kHVkeud8lyFf2ZwDohw3zsRS2PSd'
  lat: 40.093914
  level: 5
  lon: -88.281531
  name:  'Terry M. Warmbier Memorial'
- ap: 3474
  img:  'http://lh6.ggpht.com/Jz3ahY5LQ13wKWLY9SEvexiinJa3GeO1eB_FynplikRpa77swLST6cUAJjPpqKDSq2KU4Dcyui-QBstz_Z3k'
  lat: 40.094624
  level: 5
  lon: -88.282953
  name:  'Greenbelt 2'
- ap: 3474
  img:  'http://lh3.googleusercontent.com/vMuPZQrBjsuqibkb-FCbuVrZzyuUSOhjlXxxxRc9hq0Y7prkP-Fpk1Hh6o5Eq8BhT6s7GRP5S5z2KFUL7hJY'
  lat: 40.113606
  level: 6
  lon: -88.243766
  name:  'Mural on South Neil St.'
- ap: 3474
  img:  'http://lh6.ggpht.com/XsUl74M1oxj6ptAvGEBOMH2wivRhxBNns62UJSGcPiQkuJIgPrmUYxMpSZZUfXRMMjrwoxlFK_DbAM78UrOh'
  lat: 40.113499
  level: 5
  lon: -88.244374
  name:  'Shatterglass Studios Mural'
- ap: 3474
  img:  'http://lh3.googleusercontent.com/ZyXHLNlediISMVLqM9sUeZ0FEft3El4ni5P7GPOy5UF2YYBkTywnN5g1lkaer_lDNSvBUvg7bQ5yA_4Wd9qRWg'
  lat: 40.113521
  level: 4
  lon: -88.244122
  name:  'Artistic Graffiti at MCS'
- ap: 3474
  img:  'http://lh6.ggpht.com/cZVUlNaHjfsB6Lu5hnj8JjUk4lvsgOV7DFz4Nl47-RaQObW1VPRpos6hTDD6WgYrNxCh9UKfn5DFU-K7lRe9pQ'
  lat: 40.1164
  level: 5
  lon: -88.242747
  name:  'Sidewalk Art'
- ap: 3474
  img:  'http://lh3.ggpht.com/-MRGQEVV5mNMzB4sb8JAsgVC56kTzYaFEf3mpRsfXAiO4KIrLw3LGFkt7Au97yDwY-AUSfghHcri53Zpmn-Z4Q'
  lat: 40.11621
  level: 5
  lon: -88.242535
  name:  'Inman Building Historic Plaque'
- ap: 3474
  img:  'http://lh5.ggpht.com/BPYtoLzDqibtj79fwGYxizNqHsBoJp5OzVO4Z-75rudKppazgw7D0eoXHOpH20iQd2Uc9MHXs72-r7fOJDNzpz3KRHIpZwzmXBope3LI8GA4SfsY'
  lat: 40.117754
  level: 5
  lon: -88.241676
  name:  'Jos. Kuhn and Co. Building'
- ap: 3474
  img:  'http://lh6.ggpht.com/uJ6kk4uQVfzQ22nbmRS5caadkRcM8fSpAlbvgM8KacYRDBYZtQTBKIHX7ju9ejvrdRG_oIr5QDELOwvb7L0'
  lat: 40.121759
  level: 6
  lon: -88.24366
  name:  'King''s Assembly Church'
- ap: 3474
  img:  'http://lh5.ggpht.com/N1cFx79JwZqPlYPDW3HkNwRX8N4Auriii45qzYkAx9l-cKeK81qgZ6nuBpTBEIOyLzy4aIIhQKt2E7ZiysSjkg'
  lat: 40.10036
  level: 6
  lon: -88.250515
  name:  'Mark Foutch Pavilion'
- ap: 3474
  img:  'http://lh3.ggpht.com/lSr_gDGX9o1BHZX9FUPCKAO2VVQjZ_NwTBaSNhNgjVyJ2p6BnLDByC_vIkhu637-W5nKMW2SShi0gXOlXNqY7A'
  lat: 40.097979
  level: 7
  lon: -88.247785
  name:  'Jarling''s Custard Cup'
- ap: 3474
  img:  'http://lh3.ggpht.com/VrbXGwlUosNLEkVdshWUFoVa3KtlJQoEU4yLYygvftYbPCmxo644Uvar_v8Kb9RS53hB0tXgvV44GotrxZyu'
  lat: 40.098592
  level: 8
  lon: -88.251676
  name:  'Ruth and Fred Steigmann Plaque'
- ap: 3474
  img:  'http://lh3.ggpht.com/AD9d7JPmLdYRdpxESO9iORy1GRXAcN1jzn8dDNvm6FO7cIHVsjwAKI8LmbW4dico1Xe9jzJfsZZriP0CxXA46w'
  lat: 40.104084
  level: 6
  lon: -88.241616
  name:  'Honorary Memorial Steam Ventilation Pipe'
- ap: 3474
  img:  'http://lh4.ggpht.com/B_I1b0Jy3vW41RX8jjCNPP68AULplU0Pf8ddolyKmpEWCfBVShQkmjF1HfTPzDjmBBQGgOs0jHW-rUR0mv8BkA'
  lat: 40.098789
  level: 8
  lon: -88.251685
  name:  'Curtis William McKinney Memorial'
- ap: 3474
  img:  'http://lh4.ggpht.com/2tHD_AHYQu0kWuwLX2HMYWBG4txVkuWsBEfzWLL39npWp8kMSHiUKxSJM1E7yhimuMVUJ-RIlSSKsgjETvtr'
  lat: 40.110524
  level: 4
  lon: -88.228706
  name:  'Leo Roy Tehon Memorial'
- ap: 3474
  img:  'http://lh6.ggpht.com/C7ThuP5fwrDTu5cMDpoeGmRjotNh6eUnPf3ksvSsUj5NkHZ0yKbIUnF8cSikhX-I_7O42CTwqjhLq9z3jkIL'
  lat: 40.111844
  level: 6
  lon: -88.228609
  name:  'Talbot Labs '
- ap: 3474
  img:  'http://lh3.ggpht.com/gS3gT_deXzbDvejCL-5ygs31dw9bLQqYr2nDcLPZiv6nQzahJl12awG1a2pwKbFuoTlsHQYxQ2O7HDXL4-8'
  lat: 40.110358
  level: 5
  lon: -88.230181
  name:  'Murphy''s Pub '
- ap: 3474
  img:  'http://lh5.ggpht.com/pnMcOl0FAs-A861T6mvs4EQGCm08ZQGxUcMdclhxsgyUThD6KymilbixZqTcT464ZFRUnjMoFee37DuNXxcm'
  lat: 40.10719
  level: 6
  lon: -88.226585
  name:  'College of Agriculture'
- ap: 3249
  img:  'http://lh6.ggpht.com/pYay9oPZwUNKfLdWJ1JMI5tA9-Gd0vsBddLTz7fXN6wUW7F23hLMWRwFZNnXyomRkc2f9sqCGMxNWuYHPFZx'
  lat: 40.109142
  level: 4
  lon: -88.228748
  name:  'Kappa Alpha Psi Plaque'
- ap: 3324
  img:  'http://lh6.ggpht.com/rDThTbD9GU2Wvv8ZnUbLlUM5N0lb2OAYi3qDkxwfYALO2O0t_O9u19aQ4EQbxGlRScGdQ94AjAeqlc2WpNGZ'
  lat: 40.107379
  level: 4
  lon: -88.228355
  name:  'Carolyn Smith Ainsworth Memorial'
- ap: 2911
  img:  'http://lh5.ggpht.com/gkIcCbfmQWyJ7s9ryhzfOOn1K-oa8huqzZN80X2psVjx_6Iur5egjGncbUIAMLiAJAf9qG1Ac8lX2MomHYY'
  lat: 40.108185
  level: 6
  lon: -88.225203
  name:  'Statue at Medical Sciences'
- ap: 2724
  img: http://i.imgur.com/5j1qaiT.png
  lat: 40.5586
  level: '?'
  lon: -88.52144
  name:  '37b8010f3577489a917b0fbc9441ffff.16'
- ap: 2724
  img:  'http://lh6.ggpht.com/5tR3GirLCJ25x9j0BfwipsCOjlPMYGMmFrzEkhsJ4eGZ84FFe1_KnUmW3OBzAKAzQgPWPxt1WLJG2DvjFy6W'
  lat: 40.109015
  level: 5
  lon: -88.224982
  name:  'John J. Morris Jr. Memorial'
- ap: 2537
  img: http://i.imgur.com/5j1qaiT.png
  lat: 40.312242
  level: '?'
  lon: -88.201368
  name:  '2012 Employee Dedication Bench'
- ap: 2537
  img: http://i.imgur.com/5j1qaiT.png
  lat: 40.252514
  level: '?'
  lon: -88.377523
  name:  'a5dadfdfc93e4cf5975f1cd907a2bffa.16'
- ap: 2537
  img: http://i.imgur.com/5j1qaiT.png
  lat: 40.561018
  level: '?'
  lon: -88.900234
  name:  '2e4c86f3add64206bd90a57bd8fa10af.16'
- ap: 2537
  img: http://i.imgur.com/5j1qaiT.png
  lat: 40.565188
  level: '?'
  lon: -88.61306
  name:  '6ab35b80fa5949c990af0fe7eb3db8c8.16'
- ap: 2537
  img: http://i.imgur.com/5j1qaiT.png
  lat: 40.737297
  level: '?'
  lon: -89.017729
  name:  '6a13ff6987ce4ce891f691c1f40a3d6b.16'
- ap: 2537
  img: http://i.imgur.com/5j1qaiT.png
  lat: 41.052274
  level: '?'
  lon: -89.057376
  name:  '66381bf26d314a13b27cb67da81ba386.16'
- ap: 2537
  img:  'http://lh3.ggpht.com/ehNwLdaa71H3Bylm063pawn4caIGz2rCdmmdBhAFWIuEt2kPjT8nWHDkSuoOidckWiM82FWpDSNGQqQMHiQ'
  lat: 40.098209
  level: 5
  lon: -88.28689
  name:  'First Church of the Nazarene'
- ap: 2537
  img:  'http://lh5.ggpht.com/8M0cUsd4eq3jg7zuefsRRnxKhwn5q8xipPHTaf8z-o4xdGPYl0NgpiXIMDSknrQjcvRUOzyzWYsXHRqlfOY'
  lat: 40.102064
  level: 6
  lon: -88.284067
  name:  'Lindsey New American Gardens '
- ap: 2537
  img:  'http://lh5.ggpht.com/6-orj1GyBCNo5--9rpQzjPVywlT09WmTnpyDc3jTbZjIGW1Rquy_keKtkNflBWVf4R6UVZFmPJt9z2KrBYKH'
  lat: 40.08947
  level: 4
  lon: -88.289609
  name:  'Robeson Meadows Trail'
- ap: 2537
  img:  'http://lh6.ggpht.com/JQ7YB5Jml3yo1T0ij3FonGpXBxfsXGarZwcVNWiU0AcnenMw0YmeojaU8vVbH0HmaPmr7PQb7Hr1SnXtXA9J'
  lat: 40.092604
  level: 5
  lon: -88.28972
  name:  'Phinney Creek Bridge'
- ap: 2537
  img:  'http://lh5.ggpht.com/d_xORafhhRGmWQQYxORFs1dW_6uXGimDkw117yVoO46fU96UHRY1GWk3ln65AsNRtevh1vFgECrCK8gJD4Y'
  lat: 40.133113
  level: 3
  lon: -88.279062
  name:  'Champaign County Workers Memorial'
- ap: 2537
  img:  'http://lh4.ggpht.com/a1FVYK5FqYQAl_d_TEIbk8PE4kKJVyIHNjJiJWlhHcozcrVi9qVZ137z5mYYlOeePqk0aqBqWwdZxEIgkxz0HA'
  lat: 40.132588
  level: 5
  lon: -88.279491
  name:  'Ronald D Schafer Plaque'
- ap: 2537
  img:  'http://lh4.ggpht.com/vKkSwERLa3zQO2UUIiYl1AEruAx1QTPcP4jSmPt89PG4AviJ1WhlVVH8qmqJ0aY2gqJmHcqdZFcM2pQconc'
  lat: 40.139375
  level: 4
  lon: -88.272793
  name:  'Salt And Light Ministries'
- ap: 2237
  img:  'http://lh5.ggpht.com/QruW49d2dc1uhQlK1BaZIeo6ruDNkqQfmvZz83eQ-1aC9ytGUcpFaHnKRTnXRc70F2EZ0-pVKGr9Slo0_9RfxA'
  lat: 40.139749
  level: 3
  lon: -88.273955
  name:  'Northside Church of Christ'
- ap: 2537
  img:  'http://lh5.ggpht.com/nWEtxuKQdy0teBBue1DYmG7P3SF5-3A6zlB7GwVHBWlolAZYGq6Br78lWcF9ltFy-KeSlozXie2RmU6JfCUX'
  lat: 40.142673
  level: 5
  lon: -88.244603
  name:  'Italian Statue'
- ap: 2537
  img:  'http://lh3.googleusercontent.com/hJZWoErzM-MuXulq4FlhlZwMbJX1Isd81GBUBVKayd57jVIVxUle3itd-1DRKo2VaNXznWr1X639fa44Etk'
  lat: 40.141919
  level: 5
  lon: -88.244611
  name:  'Marketplace Mall Carousel'
- ap: 2387
  img:  'http://lh4.ggpht.com/3gTAX6rKgNjLmBOYvAVTgSPQej5yRF_38uRllp9H4n5N6pvwWo5kDMDwlIkFVPPl30BXPSGAlZ9pO9B4DMk'
  lat: 40.116218
  level: 3
  lon: -88.242141
  name:  'Live Action Games'
- ap: 2537
  img:  'http://lh5.ggpht.com/HecdcuIKHPW3-6JCUlxHgv4kdBv7MXPpXBiWEczpoqzICIiFGkoPXGYJlGZLUCRJGjph6toVnnVWKVoXijhZIA'
  lat: 40.115947
  level: 5
  lon: -88.192222
  name:  'Ambucs Park'
- ap: 2537
  img:  'http://lh6.ggpht.com/FsUBggh0M3sjncoth6JaamkCglQtDsuiR89k30B2sMp7srgh0Hz6trgv7BhNRSJA6qI7OvipV8B3XEhzHmaNxA'
  lat: 40.113513
  level: 3
  lon: -88.207559
  name:  'Black Dog Smoke & Ale House'
- ap: 2537
  img:  'http://lh5.ggpht.com/KuDVZqnpBQnne0a_UqpN4wpsQFlw3nVXAWtRKP_AdZ3CjQ0MHUBgU_2hE8hb71h31FTQbduYmB6DNuVKA0s'
  lat: 40.116822
  level: 5
  lon: -88.243445
  name:  'Remembering Horeb'
- ap: 2537
  img:  'http://lh4.ggpht.com/rQD_MUFUx5IX5GhvurUrhiG2rCDy2Aiq_hvzN0YySpYA9cIb_aEAyBhyeFhFL7B0LdpEAAIDkqGcOv4wsVM2'
  lat: 40.077891
  level: 5
  lon: -88.259583
  name:  'Noel Park'
- ap: 2537
  img:  'http://lh5.ggpht.com/ol0RXlyBNe6HMdo476xfY8RSKSHpownpuvzXzt79iXCP5m5YSzxfK5L7hdm7bLVjLavR90KL_lSCQnAXcrQ'
  lat: 40.075288
  level: 5
  lon: -88.256822
  name:  'First Baptist Church of Savoy'
- ap: 2537
  img:  'http://lh6.ggpht.com/o-Si4_DCq7Qwa_fFJhaTZ0-zCScbl7wDS4PHIFGMbnP9TuPVe9ZauXV3lAreyYvxN7B7n8mlrOR2SsPzXmU'
  lat: 40.115703
  level: 5
  lon: -88.239504
  name:  'Chester Street Bar'
- ap: 2537
  img:  'http://lh4.ggpht.com/Nh7M4_i-advmuf0RWReev2TeUAZ57VTRzcf56-U_TuHsKcjIdqXGvbxpOccEx1CaYHKzGwI9mZVmnLdmhryGng'
  lat: 40.115557
  level: 5
  lon: -88.239009
  name:  'Honesty Best Policy  - Vernon A. Roland Building'
- ap: 2537
  img:  'http://lh5.ggpht.com/szWXjFVU67N6nJHeZbrcsC2b8J7kXF7nBh_RooZZ5-ezcJsxWUvA7NZrGjJxfwTzVkc2HYMYLwh19UaYEbm3-Vmu4ZAG8959ZOG44cpeeyoUHtkD'
  lat: 40.108422
  level: 4
  lon: -88.227811
  name:  'Henry Administration Building'
- ap: 2537
  img:  'http://lh5.ggpht.com/Zoidr1eUAO2UEM6SyifBpkC3K42Ctl355Krd3S2ZU3BbbIMt1XFKF4C35huJT7a-K1PMF6JCK3ztTnr2Wbc9zw'
  lat: 40.109178
  level: 5
  lon: -88.22945
  name:  'Pineapple Pillar'
- ap: 2537
  img:  'http://lh6.ggpht.com/rnWumKyBYpVW5hCfQDlvRaT_666UPI5lo3k6HGdxWuLVsDbD8c7l-BU1HwhBqiGeCW28iEghSQtvZFzqK4w'
  lat: 40.109013
  level: 5
  lon: -88.22587
  name:  'Understanding Photosynthesis Plaque'
- ap: 2537
  img:  'http://lh5.ggpht.com/0m1i3CJSj3bKhLj5BgXi8SFpgoihNsBoN6fpccgDU2tjtPcA5BqB1IxvR0yAX9FWkgt3_Q8gbAyGfdJDliGP'
  lat: 40.115142
  level: 5
  lon: -88.238658
  name:  'First Street Antiques'
- ap: 2537
  img:  'http://lh3.googleusercontent.com/vJ_iyOb44eFzOJUNpRouOPDI8rKgOESn7TWw9U9BR3OcWsb6Oak-SSfVH4iPPmtXJdk30rqet1D0KxVohiBC'
  lat: 40.114712
  level: 5
  lon: -88.238392
  name:  'Mexico Mural'
- ap: 2537
  img:  'http://lh6.ggpht.com/Pnd8JOVl_Lm-LFi5TL9dblCUNbrwX2rh4_oKgOC5Ynga-E_Y207oGsL4Uz931FTapBrs35H98qxJU4Cm_Gk'
  lat: 40.113024
  level: 3
  lon: -88.229095
  name:  'University Place Christian Church'
- ap: 2537
  img:  'http://lh5.ggpht.com/39qvivJbsTr57F8HWz9_3WhqwtI6kCbL9qeIckApwB7s51qHqm4RS4qZLPkY2GUv6A2wi2wrlNxhnIN6xGKS'
  lat: 40.113427
  level: 5
  lon: -88.229089
  name:  'Lee Williamson Memorial'
