- ap: 9096
  img:  'http://lh5.ggpht.com/4DJAFPeZ_w65Km7VDnsbOqouQaeBuPuxA0KHPQToT_B6o1hBxzdu3kn89UhHgv22Ygj52Fx9QqcbzOytuw'
  lat: 40.100078
  level: 8
  lon: -88.250683
  name:  'Brian Clark Memorial Plaque'
- ap: 8722
  img:  'http://lh6.ggpht.com/yjfa0jJLjsfLRf9Zn9iafMp3MuIhgCi0WiOCF8GqTGiGvzEnsPGrFa0H1n-uzWhVehLbt44ShthsA32VzHd5iQ'
  lat: 40.099737
  level: 8
  lon: -88.251157
  name:  'Tyler Van Atkins Memorial'
- ap: 8722
  img:  'http://lh6.ggpht.com/qSCp5fQMlyCQ-GOAgiSFy5gaHJei705Pa3eOlJiYO5wGjZTYtjA8q7QWWfAWcLKjxZSaFiMfXOPR8SO7rWU'
  lat: 40.099353
  level: 8
  lon: -88.251876
  name:  'Raymond B. Cattell Memorial'
- ap: 7972
  img:  'http://lh4.ggpht.com/vKgqIecJshMQxrhO-ZhMjcIyARuJdyU63wKfzAG0wouZex6LVzO46Qi5zM1N3Jx8xyantDFk9sQGsSEBhb-y'
  lat: 40.101327
  level: 8
  lon: -88.251412
  name:  'Zeus Memorial'
- ap: 7972
  img:  'http://lh6.ggpht.com/5CDidk0pqfUtSW_Yqouuf3diX8drdMu9DoT728QpSz8q6A-WxNhT0yLcgM_7gGpyIAeXrHiTkIzzaVJFgnN9WA'
  lat: 40.099852
  level: 8
  lon: -88.251947
  name:  'Our Friend Tim Palmer'
- ap: 7596
  img:  'http://lh6.ggpht.com/Ors-OZvQMSkeYwIrZFCN6ltDminG-DehbQHdnKr_u983KJbBTIGGWU0wOofHOrpwgSk_mIaD5Fgcv7xNs6_n'
  lat: 40.092259
  level: 5
  lon: -88.216448
  name:  'Lichen Covered Honeylocust Plaque'
- ap: 7222
  img:  'http://lh3.ggpht.com/rUgM7jkTqL0VHxvsSW0yWuNJF5UrU62ITflghfn4PfKjn6L4WGz0ALkv98fc_q9dmK9SSpU1PXIawGvcRwE'
  lat: 40.098246
  level: 8
  lon: -88.251974
  name:  'Hessel Park'
- ap: 7035
  img:  'http://lh4.ggpht.com/B_I1b0Jy3vW41RX8jjCNPP68AULplU0Pf8ddolyKmpEWCfBVShQkmjF1HfTPzDjmBBQGgOs0jHW-rUR0mv8BkA'
  lat: 40.098789
  level: 8
  lon: -88.251685
  name:  'Curtis William McKinney Memorial'
- ap: 7035
  img:  'http://lh3.ggpht.com/lzCSS0_tjwUV7JQ2fgLI0e05IrzPxlVUs-6aEPOwUv67IanQJSTi71gkw0SGm8asmoE_r3Xoh048Fd9xRpE'
  lat: 40.099169
  level: 8
  lon: -88.251419
  name:  'Lyman Larson Memorial'
- ap: 7035
  img:  'http://lh3.ggpht.com/G1CvGhpethi5UmprDWxZN9rTblHa3anSsQz1UPgJtkREkfN7lDFoxFObst0609Cg5mofuZxJKr0ddNKhY4VL'
  lat: 40.098464
  level: 8
  lon: -88.251426
  name:  'Ruth Haasis Memorial'
- ap: 7035
  img:  'http://lh4.ggpht.com/4LxsGZZMk3DnpJXUvqzrL54CHSP5TDXjUnDJyHmCCTtCJIjGEI7kxT9g4uxfSPh0X6yGLgQo1jfqbu7B8VEr'
  lat: 40.099084
  level: 8
  lon: -88.251826
  name:  'Irina P. Stewart Memorial Plaque'
- ap: 6472
  img:  'http://lh5.ggpht.com/dzjsWdreD6jZuCG_DDonrZu-gYlDIxk5j3rPzt67sbmq7yWjo9I_Op69SM3fzvlGKnlp8QMGcztFWOhpSe4'
  lat: 40.093629
  level: 5
  lon: -88.216064
  name:  'Dr. Frank W. Kari Memorial'
- ap: 6098
  img:  'http://lh3.ggpht.com/VrbXGwlUosNLEkVdshWUFoVa3KtlJQoEU4yLYygvftYbPCmxo644Uvar_v8Kb9RS53hB0tXgvV44GotrxZyu'
  lat: 40.098592
  level: 8
  lon: -88.251676
  name:  'Ruth and Fred Steigmann Plaque'
- ap: 5161
  img:  'http://lh5.ggpht.com/ENeQgqydWbi9-Oyf7vizunoRqJdsZV4o0RA_956wjGI8hqpTCHBPyWMpbTrrkwYpj5tgzDRvevGmvH4eFRU'
  lat: 40.099593
  level: 8
  lon: -88.251724
  name:  'Blessings from Devon Elaine Cattell'
- ap: 4785
  img:  'http://lh6.ggpht.com/s4tipBammpEINZSVG5uY8nTAkirMz3V2qEJZyu6GwhQFrcRQa6WKpbLf3idLOKyjXQr5v9BVRnu0crTwNRAU'
  lat: 40.092805
  level: 5
  lon: -88.22039
  name:  'Modern Protozoology Plaque'
- ap: 4411
  img:  'http://lh5.ggpht.com/HhVreJipNvxPRVFpmsh2BPo9PcpPO2Q2l3jCpDjIKgfKGycoTNPXR4DKiYccBXW4X-4dJf_vV0ESsWAWHcChsg'
  lat: 40.100936
  level: 8
  lon: -88.250855
  name:  'Donald F. Bresnan Memorial'
- ap: 4411
  img:  'http://lh4.ggpht.com/PHV-1ZpFzCAl_ViCKwBY_x2pIDbVyaT7wJH1sTvFJCxrSdRrO1x7NaXq9OdRGwz_Mls4iwk6wuGHMBArfV54'
  lat: 40.098688
  level: 8
  lon: -88.25063
  name:  '"New Holland Yellow Dinosaurs" at Hessel Park'
- ap: 4411
  img:  'http://lh5.ggpht.com/C6wRSaEWO1NYGY5luyYZKHG3Z3aib4aflaPdV7B9G6N6adE890g3QuPRSvCUhsdFHqjoVUjo27mfz9WsjXyuhQ'
  lat: 40.100521
  level: 8
  lon: -88.250864
  name:  'Gabriel Patrick Maxeiner Memorial'
- ap: 3661
  img: http://i.imgur.com/5j1qaiT.png
  lat: 40.876682
  level: '?'
  lon: -88.861446
  name:  '8d9848d39a1543f0ab27e0cbcea5da70.12'
- ap: 3661
  img:  'http://lh3.ggpht.com/07XrBN-er6Ecleor0n9RJ4DfGO6B2yn-ZxjI-Uy8Ba46Jtb6cXNVmATPiPiGyk-1jZ4wxa7-EeIWbWUqArCG'
  lat: 40.142554
  level: 5
  lon: -88.243468
  name:  'Dog Heart'
- ap: 3661
  img:  'http://lh6.ggpht.com/5m_DdlbswQXPJueGjlDknXPY3RqwtwdrWAsNLBfbSNENcdAw3oafNYp_YTPk5KmZZpY5M4zwdxKoE9Tq5kDv'
  lat: 40.118985
  level: 2
  lon: -88.245285
  name:  'The Little Brick Memorial'
- ap: 3661
  img:  'http://lh3.ggpht.com/POVqVDorpNyT78a1jNBYargU2WzX94oR7tmPRWdJpIYV2w5OZwXO5M0mJU_sIMCB-b3l1-mcCmck-f87iAw4'
  lat: 40.090059
  level: 5
  lon: -88.219342
  name:  'Illini Nellie Memorial'
- ap: 3474
  img: http://i.imgur.com/5j1qaiT.png
  lat: 40.8529
  level: '?'
  lon: -89.118525
  name:  '0505bfafd1814c6ab1ec4349f5f3fabb.16'
- ap: 3474
  img: http://i.imgur.com/5j1qaiT.png
  lat: 40.793908
  level: '?'
  lon: -89.57982
  name:  '34c748cfe2cb47f4ac43e289f6594f01.11'
- ap: 3474
  img: http://i.imgur.com/5j1qaiT.png
  lat: 40.837139
  level: '?'
  lon: -88.683566
  name:  'cdd6962d27024a7b9eb6c46e6fcb7771.16'
- ap: 3474
  img: http://i.imgur.com/5j1qaiT.png
  lat: 40.836961
  level: '?'
  lon: -88.683284
  name:  'ffe93ab08c324a60b69ada35f5ec9cbc.16'
- ap: 3474
  img: http://i.imgur.com/5j1qaiT.png
  lat: 41.431428
  level: '?'
  lon: -88.345007
  name:  'e5729b394f784af7b533789a1237123b.16'
- ap: 3474
  img:  'http://lh5.ggpht.com/nWEtxuKQdy0teBBue1DYmG7P3SF5-3A6zlB7GwVHBWlolAZYGq6Br78lWcF9ltFy-KeSlozXie2RmU6JfCUX'
  lat: 40.142673
  level: 5
  lon: -88.244603
  name:  'Italian Statue'
- ap: 3474
  img:  'http://lh3.googleusercontent.com/hJZWoErzM-MuXulq4FlhlZwMbJX1Isd81GBUBVKayd57jVIVxUle3itd-1DRKo2VaNXznWr1X639fa44Etk'
  lat: 40.141919
  level: 5
  lon: -88.244611
  name:  'Marketplace Mall Carousel'
- ap: 3474
  img:  'http://lh4.ggpht.com/qj7RZgjywjmhALnf1YyB5hWBrpO3hxjXZJdOzfE7YYV0p_vq9KA8GrgL9SfBHf_Ry3MVzMy1iJ6pAOkYL_lT'
  lat: 40.119118
  level: 3
  lon: -88.24584
  name:  'Amvets Post 3'
- ap: 3474
  img:  'http://lh4.ggpht.com/FAqopsayR2vfoblDs12USLGHxH0S1lfng6IlvgMPO2k4a1fKXYQnDWf0Lbf3zAqLfMU0aGaHpSZxycRqft9pmQ'
  lat: 40.119381
  level: 1
  lon: -88.24555
  name:  'The Lodge on Hill'
- ap: 3474
  img:  'http://lh5.ggpht.com/tfAfnmo6mSMc6U0P533NMFJRGwn6lasmx-MLR2JJg1QOizMKkghFU8E7hb2zgYgdQEbgnCJUlvZIMdrrJe4'
  lat: 40.100822
  level: 7
  lon: -88.25193
  name:  'Seeds of Kindness Bench'
- ap: 3474
  img:  'http://lh3.ggpht.com/Q2rFQkcNHwItWNXX2B0B65sANQ_gCk482p2HilMp7BeswGN9qevW8WBFQ1zUg2xkvlz8bqbDCg-C5NaxK2Jf'
  lat: 40.092639
  level: 5
  lon: -88.216599
  name:  'Frank Kari Memorial Bench'
- ap: 3474
  img:  'http://lh3.ggpht.com/aiChar0HYKb_3M9or6hd38rkSeuoh1TUUL4LtW726Z-JKNYpIttW_3dFH4DHDYGBAkxkwBiz5Ye8_zqttsgs1A'
  lat: 40.092797
  level: 4
  lon: -88.217182
  name:  'The Ponds at UI Arboretum'
- ap: 3399
  img:  'http://lh6.ggpht.com/tvtZZis6qG1YsnE4ZRp9fdL3-XEu08jw8oYvSOYqkbrIkD71abS7blCPv63VovyNFWlpHvmXTjl3tl-lXII'
  lat: 40.092821
  level: 4
  lon: -88.218095
  name:  'Japan House Tsukubai'
- ap: 3098
  img:  'http://lh6.ggpht.com/yYW6Egg1lWn6UqqLzlgqwCQhtbuxiZSW4TmvI1XBPs33OTTJ0oh51XZXOIILxGI2juoO-E_YfG5UHmeb34rSOw'
  lat: 40.109165
  level: 4
  lon: -88.230269
  name:  'John Street Plaque'
- ap: 2911
  img:  'http://lh4.ggpht.com/ZwDzLvPP0KTL_mUj9ta-0DRkbA4q3X7b-r02bm3rTibFkPbu00GKehClddYfSkXbwVuJ4pjt4T7yo7ou54ov'
  lat: 40.111869
  level: 5
  lon: -88.227932
  name:  'Talbot Lab Mural'
- ap: 2724
  img: http://i.imgur.com/5j1qaiT.png
  lat: 39.680223
  level: '?'
  lon: -88.288274
  name:  'f0ae5f8377c046e2b413e075d00bedcb.16'
- ap: 2724
  img:  'http://lh3.googleusercontent.com/3nkY0B9PDqzlWJ_EKh5GnTZ8z0U6X9-2dI5dapKA5Q3F4iKrE99AJZoy6NSvh2nU1WTG2hL70276yJjJ0G8'
  lat: 40.141598
  level: 5
  lon: -88.238817
  name:  'Red Shield Center'
- ap: 2724
  img:  'http://lh5.ggpht.com/Zoidr1eUAO2UEM6SyifBpkC3K42Ctl355Krd3S2ZU3BbbIMt1XFKF4C35huJT7a-K1PMF6JCK3ztTnr2Wbc9zw'
  lat: 40.109178
  level: 5
  lon: -88.22945
  name:  'Pineapple Pillar'
- ap: 2537
  img: http://i.imgur.com/5j1qaiT.png
  lat: 40.113264
  level: '?'
  lon: -87.955703
  name:  '8a5fa4bf82b048ebbc192bd95a4cb48d.16'
- ap: 2537
  img: http://i.imgur.com/5j1qaiT.png
  lat: 40.614444
  level: '?'
  lon: -87.592778
  name:  '9784a9a1a9e94d0bb784a947b502697d.12'
- ap: 2537
  img:  'http://lh3.googleusercontent.com/qRVCONmL3YCPGXCCEayvZfMbpTRXMFkohh3X-m5NtrFXQ3-6Ot7Li4WvLGqqOMU4BkXiOmm-6EnrKzvzUKMP'
  lat: 40.063509
  level: 5
  lon: -88.294057
  name:  'Tin Man Mural'
- ap: 2537
  img: http://i.imgur.com/5j1qaiT.png
  lat: 39.984616
  level: '?'
  lon: -88.263266
  name:  '6fc2b246c1ea47d0ba7c8aaacc073f38.12'
- ap: 2537
  img: http://i.imgur.com/5j1qaiT.png
  lat: 40.818838
  level: '?'
  lon: -89.610848
  name:  'a7bc6b9662e1410b9921ce5adffe8356.16'
- ap: 2537
  img:  'http://lh6.ggpht.com/dIDmkL7jHZb1am2ptK9LrO6Ht_8jTKb3IOvGamBqIYzLXPgtEoPCV_9dMsqLxrgz8_MSq3UsEy9t49y_pqOd'
  lat: 40.125715
  level: 5
  lon: -88.2091
  name:  'Crystal Lake Park Aquatic Center'
- ap: 2537
  img:  'http://lh5.ggpht.com/Jp7IxKww4URJW7CuBmWK-wgnCfMK0iUJrKL_UoRhWCyoVY0_cHasH1WH_nYzDpInelHY0uL_3K-u3czrBCY'
  lat: 40.11949
  level: 1
  lon: -88.242871
  name:  'Orpheum Children''s Science Museum'
- ap: 2312
  img:  'http://lh3.googleusercontent.com/FMrsRGg4e1AuMu6m4uCIpM5nawtelx8reIfMtog4nuxXU9C7--UKQnUEAm9s4Vc7OfMjfIDX5loNOw4Agz2HAw'
  lat: 40.118715
  level: 3
  lon: -88.242373
  name:  'Richard D James Mural'
- ap: 2537
  img:  'http://lh5.ggpht.com/QNdE7Z3gNcz1M-mzDms1aMrHPZpKr43FIfnMxwfwdp6kP1N6fPKwUzIx5qrt3k_KBeBFRmcD-PXCWq7V2Ygo'
  lat: 40.119969
  level: 7
  lon: -88.243775
  name:  'Mural at Bentley''s'
- ap: 2537
  img:  'http://lh4.ggpht.com/ryDcZUJK2aQ_fI0-hY850_t4ZmG2hNmtCx7cxbX83w3cnUWdI-ywpTuQrUVQNxGl3_DcxxNr6bupfDTsagRa'
  lat: 40.117107
  level: 4
  lon: -88.242467
  name:  'Radio Maria'
- ap: 2537
  img:  'http://lh5.ggpht.com/BUGNnLReyCBJJj9_zpqgwv5_CAyiW8fWBpyVs0ip1hT5NEE6YKCYzlc8ahldKzk_xv-4uckNJNb6NrJd6r33qg'
  lat: 40.116989
  level: 4
  lon: -88.242255
  name:  'Blind Pig'
- ap: 2537
  img:  'http://lh4.ggpht.com/loms_Bwu6Fx06JKV5GHpwVU2gK43md3B1mTXanT0qRHxfLO_uww9xRFbnsBdrHWsJDeTw3kGnj9VIIuFcUW8'
  lat: 40.122945
  level: 4
  lon: -88.229811
  name:  'Lighthouse World Ministries'
- ap: 2537
  img:  'http://lh4.ggpht.com/t9XdqtZoVqa6pvf7438XI4j4rektVw3Ofc1zhrzfnC7CGLUyOBPBT-rWb9kBvJJkX39pLJcKjHIuBdr2_0gkvQ'
  lat: 40.122959
  level: 4
  lon: -88.230243
  name:  'Free Will Baptist Church'
- ap: 2462
  img:  'http://lh5.ggpht.com/ucFkWovrZBr6wFMicSGD78p44tqzcyfJCvQuAocYo0do3ODoHsOeAMphZZferoOLkGfuJPQVlILRzKG1vAPg'
  lat: 40.109172
  level: 4
  lon: -88.231151
  name:  'Illini Life Christian Fellowship'
- ap: 2537
  img:  'http://lh5.ggpht.com/28al1CSkHNCrM9Sb57TYmawr1uFh6r5raWMJKD4QjLCj6N5YHEYIIizONs_hHF3pHuIppLjqxbTFcvrI9Dq9'
  lat: 40.111205
  level: 6
  lon: -88.227583
  name:  'Theory of Superconductivity Plaque'
- ap: 2537
  img:  'http://lh3.ggpht.com/gS3gT_deXzbDvejCL-5ygs31dw9bLQqYr2nDcLPZiv6nQzahJl12awG1a2pwKbFuoTlsHQYxQ2O7HDXL4-8'
  lat: 40.110358
  level: 6
  lon: -88.230181
  name:  'Murphy''s Pub '
- ap: 2537
  img:  'http://lh5.ggpht.com/3RfiPeOzF67ubNX-vkwUJ6-EYld6BKuoBernq0_9kOjlIsSPr3saR9FIQzN7uiw7ouF0CpNflOnL0mUj9zbqdQ'
  lat: 40.109452
  level: 6
  lon: -88.229031
  name:  'Illini Hall'
- ap: 2537
  img:  'http://lh5.ggpht.com/dEeT4acpLu-WQFlZWd3psap5qAqqPTSVzm8Qt1QtpqtwZ0j1V9eKFcmpgN9K_x1PL4XVchuevw25rxHekz3tvQ'
  lat: 40.111968
  level: 5
  lon: -88.226793
  name:  'Bardeen Quad Structure'
