- ap: 11346
  img:  'http://lh5.ggpht.com/-UWK84I78Sftf7yg-E2pg6xEAWTvyiThgJBJlxbqOZPYKNmzQ8uGgEEMetzplrG1HpXG5kQqNItUeXKxOHDsGA'
  lat: 40.100286
  level: 8
  lon: -88.251747
  name:  'Tennis Anyone'
- ap: 9472
  img:  'http://lh5.ggpht.com/C6wRSaEWO1NYGY5luyYZKHG3Z3aib4aflaPdV7B9G6N6adE890g3QuPRSvCUhsdFHqjoVUjo27mfz9WsjXyuhQ'
  lat: 40.100521
  level: 8
  lon: -88.250864
  name:  'Gabriel Patrick Maxeiner Memorial'
- ap: 8909
  img:  'http://lh3.ggpht.com/rUgM7jkTqL0VHxvsSW0yWuNJF5UrU62ITflghfn4PfKjn6L4WGz0ALkv98fc_q9dmK9SSpU1PXIawGvcRwE'
  lat: 40.098246
  level: 8
  lon: -88.251974
  name:  'Hessel Park'
- ap: 8909
  img:  'http://lh6.ggpht.com/yjfa0jJLjsfLRf9Zn9iafMp3MuIhgCi0WiOCF8GqTGiGvzEnsPGrFa0H1n-uzWhVehLbt44ShthsA32VzHd5iQ'
  lat: 40.099737
  level: 7
  lon: -88.251157
  name:  'Tyler Van Atkins Memorial'
- ap: 8907
  img:  'http://lh5.ggpht.com/Ubq0MuIsu5MU-I8JiOC7oX_aheDNBNsG-UlSMPqA5BRkHJX9BDDUPWGQxXllzVgaxFeo23u3zu_hlJesprpNJg'
  lat: 40.133421
  level: 6
  lon: -88.280893
  name:  'Greenbelt Bikeway'
- ap: 7972
  img:  'http://lh6.ggpht.com/qSCp5fQMlyCQ-GOAgiSFy5gaHJei705Pa3eOlJiYO5wGjZTYtjA8q7QWWfAWcLKjxZSaFiMfXOPR8SO7rWU'
  lat: 40.099353
  level: 8
  lon: -88.251876
  name:  'Raymond B. Cattell Memorial'
- ap: 7972
  img:  'http://lh3.ggpht.com/lzCSS0_tjwUV7JQ2fgLI0e05IrzPxlVUs-6aEPOwUv67IanQJSTi71gkw0SGm8asmoE_r3Xoh048Fd9xRpE'
  lat: 40.099169
  level: 7
  lon: -88.251419
  name:  'Lyman Larson Memorial'
- ap: 7972
  img:  'http://lh6.ggpht.com/5CDidk0pqfUtSW_Yqouuf3diX8drdMu9DoT728QpSz8q6A-WxNhT0yLcgM_7gGpyIAeXrHiTkIzzaVJFgnN9WA'
  lat: 40.099852
  level: 8
  lon: -88.251947
  name:  'Our Friend Tim Palmer'
- ap: 7035
  img:  'http://lh4.ggpht.com/vKgqIecJshMQxrhO-ZhMjcIyARuJdyU63wKfzAG0wouZex6LVzO46Qi5zM1N3Jx8xyantDFk9sQGsSEBhb-y'
  lat: 40.101327
  level: 8
  lon: -88.251412
  name:  'Zeus Memorial'
- ap: 7035
  img:  'http://lh4.ggpht.com/B_I1b0Jy3vW41RX8jjCNPP68AULplU0Pf8ddolyKmpEWCfBVShQkmjF1HfTPzDjmBBQGgOs0jHW-rUR0mv8BkA'
  lat: 40.098789
  level: 8
  lon: -88.251685
  name:  'Curtis William McKinney Memorial'
- ap: 7035
  img:  'http://lh3.ggpht.com/G1CvGhpethi5UmprDWxZN9rTblHa3anSsQz1UPgJtkREkfN7lDFoxFObst0609Cg5mofuZxJKr0ddNKhY4VL'
  lat: 40.098464
  level: 7
  lon: -88.251426
  name:  'Ruth Haasis Memorial'
- ap: 6848
  img:  'http://lh6.ggpht.com/S7Utf4_59vQkAP5JhC3mdbzVLKBTt-0zoJ2UjfxUnN10VBbixO-_VwvssWd1LbFSx_yafaijd_U0wTGo870'
  lat: 40.100941
  level: 8
  lon: -88.251314
  name:  'Gabriel Patrick Maxeiner Memorial Plaque'
- ap: 6285
  img:  'http://lh5.ggpht.com/4DJAFPeZ_w65Km7VDnsbOqouQaeBuPuxA0KHPQToT_B6o1hBxzdu3kn89UhHgv22Ygj52Fx9QqcbzOytuw'
  lat: 40.100078
  level: 7
  lon: -88.250683
  name:  'Brian Clark Memorial Plaque'
- ap: 6285
  img:  'http://lh4.ggpht.com/PHV-1ZpFzCAl_ViCKwBY_x2pIDbVyaT7wJH1sTvFJCxrSdRrO1x7NaXq9OdRGwz_Mls4iwk6wuGHMBArfV54'
  lat: 40.098688
  level: 7
  lon: -88.25063
  name:  '"New Holland Yellow Dinosaurs" at Hessel Park'
- ap: 6098
  img:  'http://lh4.ggpht.com/4LxsGZZMk3DnpJXUvqzrL54CHSP5TDXjUnDJyHmCCTtCJIjGEI7kxT9g4uxfSPh0X6yGLgQo1jfqbu7B8VEr'
  lat: 40.099084
  level: 8
  lon: -88.251826
  name:  'Irina P. Stewart Memorial Plaque'
- ap: 5161
  img:  'http://lh3.ggpht.com/8FqlniFErK7cq59awiT84u8KyV4FIRd5krZzfYa58zJToFps7whdBnriPqvO_kFKeLUE3SWbJhCOPuvUQzaGFA'
  lat: 40.100691
  level: 7
  lon: -88.251337
  name:  'In Loving Memory of Zeus'
- ap: 4972
  img:  'http://lh5.ggpht.com/ZfmaOk3UM4PNzP-z0AvBPFqYLc6wAEDSPhL1cSVjXMAFSv4Jadm-hV--eP3OaJuaksphYKN5s6bhWhluTGs'
  lat: 40.133327
  level: 6
  lon: -88.280335
  name:  'Prairie Grid'
- ap: 4785
  img:  'http://lh3.googleusercontent.com/abyzHmsDcu4wr2nZ5KrzfryQDjq08lgz16ggCtHboK-pAhp8lhjyJoStUFTg-XDe4SPzYjAxvNLQuix4tsgc'
  lat: 40.132193
  level: 5
  lon: -88.279832
  name:  'Tribute to Olympic Athletes'
- ap: 4598
  img:  'http://lh5.ggpht.com/-aOZyLFNK96FhUdQBYhmRPZrs_PB1oiLRcrPjKwFBANQ42LxLbbHfTZVw_F01meecQXfNQwJYy7qqVh8Q0gR9g'
  lat: 40.133768
  level: 6
  lon: -88.281275
  name:  'Butterfly'
- ap: 4523
  img:  'http://lh5.ggpht.com/M86zCVcXjmwIC0SQgJ3q_heSiWsj4BJoAcO4SpBWLGzt7XQ3kJMk_1GdLAM_SOt_OkZnGrAEV9_g2KSQCguZ'
  lat: 40.133808
  level: 5
  lon: -88.284367
  name:  'Dodds Park Softball Complex'
- ap: 4411
  img:  'http://lh5.ggpht.com/d_xORafhhRGmWQQYxORFs1dW_6uXGimDkw117yVoO46fU96UHRY1GWk3ln65AsNRtevh1vFgECrCK8gJD4Y'
  lat: 40.133113
  level: 5
  lon: -88.279062
  name:  'Champaign County Workers Memorial'
- ap: 4411
  img:  'http://lh4.ggpht.com/h3t9nwbrudSHJ4Ll-zBceLi_U0iwpgbsVd8Wjzy_JgqMiXIqIu4CILUiFnKdayIi0htMXQ5CNowcXO7XUqI'
  lat: 40.13401
  level: 6
  lon: -88.28239
  name:  'Eddie Albert Gardens'
- ap: 4411
  img:  'http://lh5.ggpht.com/HhVreJipNvxPRVFpmsh2BPo9PcpPO2Q2l3jCpDjIKgfKGycoTNPXR4DKiYccBXW4X-4dJf_vV0ESsWAWHcChsg'
  lat: 40.100936
  level: 8
  lon: -88.250855
  name:  'Donald F. Bresnan Memorial'
- ap: 4411
  img:  'http://lh3.ggpht.com/VrbXGwlUosNLEkVdshWUFoVa3KtlJQoEU4yLYygvftYbPCmxo644Uvar_v8Kb9RS53hB0tXgvV44GotrxZyu'
  lat: 40.098592
  level: 8
  lon: -88.251676
  name:  'Ruth and Fred Steigmann Plaque'
- ap: 4411
  img:  'http://lh5.ggpht.com/tfAfnmo6mSMc6U0P533NMFJRGwn6lasmx-MLR2JJg1QOizMKkghFU8E7hb2zgYgdQEbgnCJUlvZIMdrrJe4'
  lat: 40.100822
  level: 8
  lon: -88.25193
  name:  'Seeds of Kindness Bench'
- ap: 4411
  img:  'http://lh5.ggpht.com/ENeQgqydWbi9-Oyf7vizunoRqJdsZV4o0RA_956wjGI8hqpTCHBPyWMpbTrrkwYpj5tgzDRvevGmvH4eFRU'
  lat: 40.099593
  level: 8
  lon: -88.251724
  name:  'Blessings from Devon Elaine Cattell'
- ap: 4035
  img: http://i.imgur.com/5j1qaiT.png
  lat: 40.408514
  level: '?'
  lon: -88.721529
  name:  '3085937c8e3c4d0b9674400344d2c6a1.16'
- ap: 4035
  img: http://i.imgur.com/5j1qaiT.png
  lat: 40.33848
  level: '?'
  lon: -88.738199
  name:  'b879de09c13c498181c4cf49aff2cfcc.16'
- ap: 3474
  img:  'http://lh3.ggpht.com/dBiWv3vHrjSkLU93Ft0Pn_EBnwlnMxpzM8GhwZeM6MEGvqyqO8jGVz0VgmSgJEzhXa3gvPLnx1Gz0R4whIg'
  lat: 40.196017
  level: 8
  lon: -88.395508
  name:  'Mahomet Village Tower'
- ap: 3474
  img: http://i.imgur.com/5j1qaiT.png
  lat: 40.582041
  level: '?'
  lon: -89.137712
  name:  '72a1f3bc340048e8822be7801411be42.16'
- ap: 3474
  img: http://i.imgur.com/5j1qaiT.png
  lat: 40.878365
  level: '?'
  lon: -88.777245
  name:  'a58a2b0d69594c249e6fa1e2f1d103b1.12'
- ap: 3474
  img: http://i.imgur.com/5j1qaiT.png
  lat: 40.441099
  level: '?'
  lon: -89.313489
  name:  'fa303e162e1349c7ac2d93cf3df18bf0.16'
- ap: 3474
  img:  'http://lh5.ggpht.com/tuo_ByFTbwLitFP5cBseOibqRxENxbCwOJ30dCnja5ijBI_qBv5vqNP7ZuZXnxhYM6ms_GbExZEwwKVUtwV2'
  lat: 40.093712
  level: 5
  lon: -88.281583
  name:  'Brownfield Dedication'
- ap: 3474
  img:  'http://lh6.ggpht.com/p2F3xw4xL4UdiMM9aSy628ISSglrvjPexpF3j340tMAP9MX07yh_sJv7kHVkeud8lyFf2ZwDohw3zsRS2PSd'
  lat: 40.093914
  level: 5
  lon: -88.281531
  name:  'Terry M. Warmbier Memorial'
- ap: 3474
  img:  'http://lh6.ggpht.com/Jz3ahY5LQ13wKWLY9SEvexiinJa3GeO1eB_FynplikRpa77swLST6cUAJjPpqKDSq2KU4Dcyui-QBstz_Z3k'
  lat: 40.094624
  level: 6
  lon: -88.282953
  name:  'Greenbelt 2'
- ap: 3098
  img: http://i.imgur.com/5j1qaiT.png
  lat: 40.312242
  level: '?'
  lon: -88.201368
  name:  '2012 Employee Dedication Bench'
- ap: 2724
  img: http://i.imgur.com/5j1qaiT.png
  lat: 40.105244
  level: '?'
  lon: -88.56115
  name:  'Lodge Church of God'
- ap: 2724
  img: http://i.imgur.com/5j1qaiT.png
  lat: 44.606863
  level: '?'
  lon: -87.429622
  name:  '2c03da974c67483b983aa4e1524fd2ee.16'
- ap: 2724
  img: http://i.imgur.com/5j1qaiT.png
  lat: 41.634356
  level: '?'
  lon: -87.178294
  name:  'd45d47f7d3a34245812bec73013df8d1.16'
- ap: 2724
  img: http://i.imgur.com/5j1qaiT.png
  lat: 40.154669
  level: '?'
  lon: -88.298035
  name:  'New Horizon Methodist Church'
- ap: 2724
  img:  'http://lh4.ggpht.com/ZevI283-hdNmxCDG58ggAccDFE_BgYgPK-Hwc6pMCOMdhClXrMtmBtTONxbI0Y_iV-SVdkgRT28tdz-T-6Vt'
  lat: 40.146982
  level: 5
  lon: -88.28914
  name:  'Champaign Kingdom Hall of Jehovah''s Witnesses'
- ap: 2724
  img:  'http://lh4.ggpht.com/bzGBa_8g8we9vEYlZ-a10Ugz_B36DNFCNFsnUmAPy3Aji53kcVj0FaVE28zxnedZgY5Ozi94A8obmXuFQ1vL'
  lat: 40.132632
  level: 5
  lon: -88.279968
  name:  'Vernon W Fitch Memorial'
- ap: 2724
  img:  'http://lh4.ggpht.com/vKkSwERLa3zQO2UUIiYl1AEruAx1QTPcP4jSmPt89PG4AviJ1WhlVVH8qmqJ0aY2gqJmHcqdZFcM2pQconc'
  lat: 40.139375
  level: 3
  lon: -88.272793
  name:  'Salt And Light Ministries'
- ap: 2724
  img:  'http://lh5.ggpht.com/QruW49d2dc1uhQlK1BaZIeo6ruDNkqQfmvZz83eQ-1aC9ytGUcpFaHnKRTnXRc70F2EZ0-pVKGr9Slo0_9RfxA'
  lat: 40.139749
  level: 5
  lon: -88.273955
  name:  'Northside Church of Christ'
- ap: 2724
  img:  'http://lh3.ggpht.com/tXuCgd1tvCtlonW_e1jLC_5DH6g4Qh6zIUKhJeoBZuLvyB0ql69PlymRU3Ywf5lq_8PFYNylEKOiC_qJnnzJpg'
  lat: 40.138006
  level: 1
  lon: -88.272375
  name:  'Jericho Missionary Baptist Church'
- ap: 2724
  img:  'http://lh4.ggpht.com/S734i_6SihPtJW8WdegLb3gEuKeNx8e1qDm6CXjREzYHohw7XqL82m4EF2K5nS2TixHweLn3EuJ4YoQnrsw'
  lat: 40.107751
  level: 5
  lon: -88.231532
  name:  'Graduate School of Library and Information Science'
- ap: 2537
  img: http://i.imgur.com/5j1qaiT.png
  lat: 44.61588
  level: '?'
  lon: -87.428349
  name:  'a27975b1a2bc49ca9b4dd063497fde96.16'
- ap: 2537
  img: http://i.imgur.com/5j1qaiT.png
  lat: 40.062819
  level: '?'
  lon: -88.561938
  name:  'd657c8f34fd34783b10ddc9e57b7cf39.16'
- ap: 2537
  img: http://i.imgur.com/5j1qaiT.png
  lat: 40.205921
  level: '?'
  lon: -88.384473
  name:  '3d4786d723ee4c38a1e26c9603f9bf85.16'
- ap: 2537
  img: http://i.imgur.com/5j1qaiT.png
  lat: 41.889348
  level: '?'
  lon: -87.590552
  name:  '8122047730e44e66a1922c0528e9936a.12'
- ap: 2537
  img: http://i.imgur.com/5j1qaiT.png
  lat: 40.247118
  level: '?'
  lon: -88.631854
  name:  'Woodlawn Country Club'
- ap: 2537
  img: http://i.imgur.com/5j1qaiT.png
  lat: 40.275273
  level: '?'
  lon: -88.353476
  name:  '28272aaee3234a039246a4282f96c916.16'
- ap: 2537
  img: http://i.imgur.com/5j1qaiT.png
  lat: 40.31059
  level: '?'
  lon: -88.346384
  name:  'AMVETS Post 52'
- ap: 2537
  img: http://i.imgur.com/5j1qaiT.png
  lat: 40.149231
  level: '?'
  lon: -88.472334
  name:  '7c86d5abdb2a4bd9a7f87774b070966d.16'
- ap: 2537
  img:  'http://lh4.ggpht.com/ykcBOYTGpoR392b8KhoJ1HeCMQKdls6__qGzmBtOaVho1L5T2KYhV8130wLVGDT_Hr-dhJX4tl1qSQdDtLZj'
  lat: 40.085955
  level: 3
  lon: -88.332754
  name:  'Robert C. Porter Family Park'
- ap: 2537
  img:  'http://lh5.ggpht.com/OjHvATZsWSqcIG4MCHe5lUc8sE12iGmAJiQ_pp4ttXXy6QR3QTJ9OiFqGfdFxEbY6WMTgh_Vl2WcqFK0ptEn'
  lat: 40.086227
  level: 3
  lon: -88.332388
  name:  'Spiral the Gate'
- ap: 2537
  img:  'http://lh5.ggpht.com/pSVHjk6puyYdv3ztHlpJGnbkZyGsGsirMnxkDhlt8UMko4AhtTQbrzwInBCu5lK4Ttf7furE5pNW2AZh8HuSZQ'
  lat: 40.138109
  level: 4
  lon: -88.270158
  name:  'Glory Center International Church'
- ap: 2537
  img:  'http://lh5.ggpht.com/ulBje3DZHcOGkPDTXihNL1tamRAm_GO1CREW8fA5fV0Znq1eF2J1hnbSZh35emEA1h9cL1qTj9FqGtb8VywgXQ'
  lat: 40.13765
  level: 1
  lon: -88.273074
  name:  'Garden Hills Park'
- ap: 2537
  img:  'http://lh4.ggpht.com/VZT9NM5dfGAaJAZj9cFhDmCgknQCF0UI4Hv3AwcaZedRlXhGb2wfVLTFOWjtoSJRG7MEsjv784wAB1XZgQqpBA'
  lat: 40.126642
  level: 6
  lon: -88.198163
  name:  'Armored Gopher Games'
- ap: 2537
  img:  'http://lh3.googleusercontent.com/3nkY0B9PDqzlWJ_EKh5GnTZ8z0U6X9-2dI5dapKA5Q3F4iKrE99AJZoy6NSvh2nU1WTG2hL70276yJjJ0G8'
  lat: 40.141598
  level: 6
  lon: -88.238817
  name:  'Red Shield Center'
- ap: 2537
  img:  'http://lh4.ggpht.com/ln3YbdhkDSQ19t2mM9P_UcuQQA67KZkxL5aFii6BK7359DmhZ_z7Zk_GHQ0XQDLl8X3UnUr0lhnCkOlv6lwl'
  lat: 40.125825
  level: 5
  lon: -88.244671
  name:  'Randolph Street Community Garden'
- ap: 2537
  img:  'http://lh6.ggpht.com/_rfJReDlJdrYezXwl9C7a4r7ZMCEE2RZ9dek5gQwKkC4sFtmFVfYF7S04SQXmjcksfbCvLWlOEuqOjxWnX4'
  lat: 40.12284
  level: 7
  lon: -88.246749
  name:  'Queen Smith Memorial Garden'
- ap: 2537
  img:  'http://lh5.ggpht.com/yK94cjys6dDm62pDsBwEKJP8ioxZEFbb2oelmT5ZMmaNZPkqAXW00NHP3_7fvtyG796u2ZhKGfbY7To9Sdtz'
  lat: 40.088063
  level: 6
  lon: -88.248271
  name:  'Still Waters'
- ap: 2162
  img:  'http://lh5.ggpht.com/qq3QmeyCYxWnJF_DzzI5wVvHF4foNyr_bF3_j5eVPHJ1omSbD2INOifPJEO3pjz4X1l4_wMGD4uOT1_w6Tid'
  lat: 40.086713
  level: 2
  lon: -88.248293
  name:  'Garden Patio'
- ap: 2537
  img:  'http://lh5.ggpht.com/k_9eqZVvGcr3ZNyeeSNDM1-Y7od35KmnQQptB9usrdpTdpGW2c_5-12rYy9hGazdx7qhlYrEXxaJ_ZIVFywlcA'
  lat: 40.106706
  level: 5
  lon: -88.232116
  name:  'Illini Tower'
- ap: 2537
  img:  'http://lh5.ggpht.com/kElaGOaV9aI8SrnM1D65gx9J0Ky1AKrN9Yo-pXVmDhELt2pee4MwVRiCqCmlqWzUWj5pS33GnEzAiXmiWKsw'
  lat: 40.108111
  level: 6
  lon: -88.229625
  name:  'Illini Sports Mural'
