- ap: 9659
  img:  'http://lh4.ggpht.com/vKgqIecJshMQxrhO-ZhMjcIyARuJdyU63wKfzAG0wouZex6LVzO46Qi5zM1N3Jx8xyantDFk9sQGsSEBhb-y'
  lat: 40.101327
  level: 8
  lon: -88.251412
  name:  'Zeus Memorial'
- ap: 9096
  img:  'http://lh5.ggpht.com/4DJAFPeZ_w65Km7VDnsbOqouQaeBuPuxA0KHPQToT_B6o1hBxzdu3kn89UhHgv22Ygj52Fx9QqcbzOytuw'
  lat: 40.100078
  level: 8
  lon: -88.250683
  name:  'Brian Clark Memorial Plaque'
- ap: 8722
  img:  'http://lh6.ggpht.com/yjfa0jJLjsfLRf9Zn9iafMp3MuIhgCi0WiOCF8GqTGiGvzEnsPGrFa0H1n-uzWhVehLbt44ShthsA32VzHd5iQ'
  lat: 40.099737
  level: 8
  lon: -88.251157
  name:  'Tyler Van Atkins Memorial'
- ap: 8722
  img:  'http://lh6.ggpht.com/qSCp5fQMlyCQ-GOAgiSFy5gaHJei705Pa3eOlJiYO5wGjZTYtjA8q7QWWfAWcLKjxZSaFiMfXOPR8SO7rWU'
  lat: 40.099353
  level: 8
  lon: -88.251876
  name:  'Raymond B. Cattell Memorial'
- ap: 7972
  img:  'http://lh6.ggpht.com/5CDidk0pqfUtSW_Yqouuf3diX8drdMu9DoT728QpSz8q6A-WxNhT0yLcgM_7gGpyIAeXrHiTkIzzaVJFgnN9WA'
  lat: 40.099852
  level: 8
  lon: -88.251947
  name:  'Our Friend Tim Palmer'
- ap: 7596
  img:  'http://lh6.ggpht.com/Ors-OZvQMSkeYwIrZFCN6ltDminG-DehbQHdnKr_u983KJbBTIGGWU0wOofHOrpwgSk_mIaD5Fgcv7xNs6_n'
  lat: 40.092259
  level: 5
  lon: -88.216448
  name:  'Lichen Covered Honeylocust Plaque'
- ap: 7222
  img:  'http://lh3.ggpht.com/bltQwmnzp2vSKYhLpzNLqB4iddy6ie0kWk9G7Wce4U9qmW3CABxbXAhF7v0oG9QLFD2q57UZuVqZCMgN3MHZfA'
  lat: 40.118335
  level: 3
  lon: -88.243408
  name:  'Downtown Fountain'
- ap: 7222
  img:  'http://lh3.ggpht.com/rUgM7jkTqL0VHxvsSW0yWuNJF5UrU62ITflghfn4PfKjn6L4WGz0ALkv98fc_q9dmK9SSpU1PXIawGvcRwE'
  lat: 40.098246
  level: 8
  lon: -88.251974
  name:  'Hessel Park'
- ap: 7035
  img:  'http://lh4.ggpht.com/B_I1b0Jy3vW41RX8jjCNPP68AULplU0Pf8ddolyKmpEWCfBVShQkmjF1HfTPzDjmBBQGgOs0jHW-rUR0mv8BkA'
  lat: 40.098789
  level: 8
  lon: -88.251685
  name:  'Curtis William McKinney Memorial'
- ap: 7035
  img:  'http://lh3.ggpht.com/lzCSS0_tjwUV7JQ2fgLI0e05IrzPxlVUs-6aEPOwUv67IanQJSTi71gkw0SGm8asmoE_r3Xoh048Fd9xRpE'
  lat: 40.099169
  level: 8
  lon: -88.251419
  name:  'Lyman Larson Memorial'
- ap: 7035
  img:  'http://lh3.ggpht.com/G1CvGhpethi5UmprDWxZN9rTblHa3anSsQz1UPgJtkREkfN7lDFoxFObst0609Cg5mofuZxJKr0ddNKhY4VL'
  lat: 40.098464
  level: 8
  lon: -88.251426
  name:  'Ruth Haasis Memorial'
- ap: 7035
  img:  'http://lh4.ggpht.com/4LxsGZZMk3DnpJXUvqzrL54CHSP5TDXjUnDJyHmCCTtCJIjGEI7kxT9g4uxfSPh0X6yGLgQo1jfqbu7B8VEr'
  lat: 40.099084
  level: 8
  lon: -88.251826
  name:  'Irina P. Stewart Memorial Plaque'
- ap: 6472
  img:  'http://lh6.ggpht.com/rDThTbD9GU2Wvv8ZnUbLlUM5N0lb2OAYi3qDkxwfYALO2O0t_O9u19aQ4EQbxGlRScGdQ94AjAeqlc2WpNGZ'
  lat: 40.107379
  level: 5
  lon: -88.228355
  name:  'Carolyn Smith Ainsworth Memorial'
- ap: 6472
  img:  'http://lh5.ggpht.com/dzjsWdreD6jZuCG_DDonrZu-gYlDIxk5j3rPzt67sbmq7yWjo9I_Op69SM3fzvlGKnlp8QMGcztFWOhpSe4'
  lat: 40.093629
  level: 5
  lon: -88.216064
  name:  'Dr. Frank W. Kari Memorial'
- ap: 6098
  img:  'http://lh4.ggpht.com/tLO2wjyCgyune3KDOlQMV_oiDRxVsHqO1gAG_0xs9TvKOiuWRVmJcO29WI7jELxoxncaXpy91kMa89Uj65JVNw'
  lat: 40.11784
  level: 3
  lon: -88.24286
  name:  'Kaufman Memorial'
- ap: 6098
  img:  'http://lh3.ggpht.com/VrbXGwlUosNLEkVdshWUFoVa3KtlJQoEU4yLYygvftYbPCmxo644Uvar_v8Kb9RS53hB0tXgvV44GotrxZyu'
  lat: 40.098592
  level: 8
  lon: -88.251676
  name:  'Ruth and Fred Steigmann Plaque'
- ap: 5348
  img:  'http://lh5.ggpht.com/HhVreJipNvxPRVFpmsh2BPo9PcpPO2Q2l3jCpDjIKgfKGycoTNPXR4DKiYccBXW4X-4dJf_vV0ESsWAWHcChsg'
  lat: 40.100936
  level: 8
  lon: -88.250855
  name:  'Donald F. Bresnan Memorial'
- ap: 5161
  img: http://i.imgur.com/5j1qaiT.png
  lat: 42.781053
  level: '?'
  lon: -87.757742
  name:  '9a047756efef4b0b809bdb07c058c4b5.16'
- ap: 5161
  img:  'http://lh4.ggpht.com/_jAAuDi8SO5uupi8JlB3HZaFG40S15izNv_3vqOt7ro2rRHuXrfdEKfEFvRESdAjCEz3RVDpyrxJGSIrju5d'
  lat: 40.117916
  level: 3
  lon: -88.243087
  name:  'Sholem Building'
- ap: 5161
  img:  'http://lh5.ggpht.com/KadNuhjGK6FUXezGHW1W1kfPOQV5l7gJP594EQm5nPZFLTgcTsjl4ixa-j7XitgtyJyou3q0pTfMr4i2E_avIA'
  lat: 40.118013
  level: 2
  lon: -88.243445
  name:  'Clock at Neil and Main'
- ap: 5161
  img:  'http://lh5.ggpht.com/ENeQgqydWbi9-Oyf7vizunoRqJdsZV4o0RA_956wjGI8hqpTCHBPyWMpbTrrkwYpj5tgzDRvevGmvH4eFRU'
  lat: 40.099593
  level: 8
  lon: -88.251724
  name:  'Blessings from Devon Elaine Cattell'
- ap: 5161
  img:  'http://lh5.ggpht.com/2PB1u3cNuASfw9D_MIUzI1JvNofebK7zsuGqKoUApr-nUWYZ8y5CzxH6g7CdcY7ShBaVGrBrurkbwrdUPD7JBk55TH0Ouao5b_g2jUI1saBNUE8'
  lat: 40.106744
  level: 4
  lon: -88.225347
  name:  'The Red Herring Vegetarian'
- ap: 4785
  img:  'http://lh6.ggpht.com/yYW6Egg1lWn6UqqLzlgqwCQhtbuxiZSW4TmvI1XBPs33OTTJ0oh51XZXOIILxGI2juoO-E_YfG5UHmeb34rSOw'
  lat: 40.109165
  level: 4
  lon: -88.230269
  name:  'John Street Plaque'
- ap: 4785
  img:  'http://lh6.ggpht.com/cUV2o6ZPyJSFnHYl7jePeUIS7BrVr1H5D8Zbf7B3B8ALrTq7pTI3e271i1DHztqUGXITpiA399P3vNP83fk0'
  lat: 40.105767
  level: 5
  lon: -88.223378
  name:  'Busey Hall'
- ap: 4785
  img:  'http://lh6.ggpht.com/s4tipBammpEINZSVG5uY8nTAkirMz3V2qEJZyu6GwhQFrcRQa6WKpbLf3idLOKyjXQr5v9BVRnu0crTwNRAU'
  lat: 40.092805
  level: 5
  lon: -88.22039
  name:  'Modern Protozoology Plaque'
- ap: 4598
  img:  'http://lh5.ggpht.com/ucFkWovrZBr6wFMicSGD78p44tqzcyfJCvQuAocYo0do3ODoHsOeAMphZZferoOLkGfuJPQVlILRzKG1vAPg'
  lat: 40.109172
  level: 4
  lon: -88.231151
  name:  'Illini Life Christian Fellowship'
- ap: 4223
  img:  'http://lh3.ggpht.com/lGjbP2iz0XvlEWLhgCBNqkWukvjrBowKmX-1_O44U1A3_4b3-vuXzkfp7rasqU81TcPBoQO82gAzEGtBBYcR'
  lat: 40.106058
  level: 2
  lon: -88.223672
  name:  'Music Building'
- ap: 4411
  img: http://i.imgur.com/5j1qaiT.png
  lat: 42.057067
  level: '?'
  lon: -87.670202
  name:  '25fdeba00a774909912bc900e245a6a5.16'
- ap: 4411
  img: http://i.imgur.com/5j1qaiT.png
  lat: 42.059171
  level: '?'
  lon: -87.673638
  name:  'b74c35e93068412baf6f0cacd762b36f.16'
- ap: 4411
  img: http://i.imgur.com/5j1qaiT.png
  lat: 42.058869
  level: '?'
  lon: -87.670779
  name:  '906955eb184f41c38b6a9615828f203f.16'
- ap: 4411
  img:  'http://lh5.ggpht.com/nirQKdy3s9r8TSV7cB7_B0l-0EsFXBkg1aitH05R0ttPhOEewGxlq1GRnlDvYFT2V8Z91hWnB9YD3WjxBvyZ'
  lat: 40.11868
  level: 2
  lon: -88.243426
  name:  '"Pointless"'
- ap: 4411
  img:  'http://lh4.ggpht.com/PHV-1ZpFzCAl_ViCKwBY_x2pIDbVyaT7wJH1sTvFJCxrSdRrO1x7NaXq9OdRGwz_Mls4iwk6wuGHMBArfV54'
  lat: 40.098688
  level: 8
  lon: -88.25063
  name:  '"New Holland Yellow Dinosaurs" at Hessel Park'
- ap: 4411
  img:  'http://lh5.ggpht.com/BK5TjuMzuJgDVPz4C8HRjfZKeaoISnPJ-H7VaYeMNUYmxvvUY7RzIIlR13FjW9HHF_i5-znqs3O6nMxKPfcj'
  lat: 40.102188
  level: 5
  lon: -88.251507
  name:  'Little Free Library Charter 5753'
- ap: 4411
  img:  'http://lh5.ggpht.com/tfAfnmo6mSMc6U0P533NMFJRGwn6lasmx-MLR2JJg1QOizMKkghFU8E7hb2zgYgdQEbgnCJUlvZIMdrrJe4'
  lat: 40.100822
  level: 7
  lon: -88.25193
  name:  'Seeds of Kindness Bench'
- ap: 4411
  img:  'http://lh5.ggpht.com/C6wRSaEWO1NYGY5luyYZKHG3Z3aib4aflaPdV7B9G6N6adE890g3QuPRSvCUhsdFHqjoVUjo27mfz9WsjXyuhQ'
  lat: 40.100521
  level: 8
  lon: -88.250864
  name:  'Gabriel Patrick Maxeiner Memorial'
- ap: 4261
  img:  'http://lh3.googleusercontent.com/hvoLMUc9UoNVVPttxWTc8PzOWdu5MBmPETnBexH7Alyl20WGCrNa0G_j7DwvD3qbhqpTaeThFhGDV2rCtp8'
  lat: 40.107629
  level: 4
  lon: -88.224484
  name:  'Bucky Balls'
- ap: 4411
  img:  'http://lh5.ggpht.com/Zoidr1eUAO2UEM6SyifBpkC3K42Ctl355Krd3S2ZU3BbbIMt1XFKF4C35huJT7a-K1PMF6JCK3ztTnr2Wbc9zw'
  lat: 40.109178
  level: 4
  lon: -88.22945
  name:  'Pineapple Pillar'
- ap: 3661
  img:  'http://lh3.ggpht.com/07XrBN-er6Ecleor0n9RJ4DfGO6B2yn-ZxjI-Uy8Ba46Jtb6cXNVmATPiPiGyk-1jZ4wxa7-EeIWbWUqArCG'
  lat: 40.142554
  level: 5
  lon: -88.243468
  name:  'Dog Heart'
- ap: 3661
  img:  'http://lh3.ggpht.com/POVqVDorpNyT78a1jNBYargU2WzX94oR7tmPRWdJpIYV2w5OZwXO5M0mJU_sIMCB-b3l1-mcCmck-f87iAw4'
  lat: 40.090059
  level: 5
  lon: -88.219342
  name:  'Illini Nellie Memorial'
- ap: 3474
  img:  'http://lh5.ggpht.com/nWEtxuKQdy0teBBue1DYmG7P3SF5-3A6zlB7GwVHBWlolAZYGq6Br78lWcF9ltFy-KeSlozXie2RmU6JfCUX'
  lat: 40.142673
  level: 5
  lon: -88.244603
  name:  'Italian Statue'
- ap: 3474
  img:  'http://lh3.googleusercontent.com/hJZWoErzM-MuXulq4FlhlZwMbJX1Isd81GBUBVKayd57jVIVxUle3itd-1DRKo2VaNXznWr1X639fa44Etk'
  lat: 40.141919
  level: 5
  lon: -88.244611
  name:  'Marketplace Mall Carousel'
- ap: 3474
  img:  'http://lh6.ggpht.com/rGhR45ZFbHtxmrZSSy9V19eFoyHIDB42c6MK188isPJFWpUsW9ywNHayKt3acNvKNC8DAV6mDkUloj3aiS4'
  lat: 40.118422
  level: 3
  lon: -88.24346
  name:  'Entrance'
- ap: 3474
  img:  'http://lh5.ggpht.com/3RfiPeOzF67ubNX-vkwUJ6-EYld6BKuoBernq0_9kOjlIsSPr3saR9FIQzN7uiw7ouF0CpNflOnL0mUj9zbqdQ'
  lat: 40.109452
  level: 5
  lon: -88.229031
  name:  'Illini Hall'
- ap: 3474
  img:  'http://lh5.ggpht.com/dgQfoxxVeHT5ODqLiUYHV45qvkC_BMS0kIFRqvHvE2GO0TduZ0-XzhW8RE80LtPDK0Ay5xwA6PtjM7G3C9U8'
  lat: 40.108947
  level: 3
  lon: -88.232251
  name:  'McKinley Church'
- ap: 3474
  img:  'http://lh3.ggpht.com/Q2rFQkcNHwItWNXX2B0B65sANQ_gCk482p2HilMp7BeswGN9qevW8WBFQ1zUg2xkvlz8bqbDCg-C5NaxK2Jf'
  lat: 40.092639
  level: 5
  lon: -88.216599
  name:  'Frank Kari Memorial Bench'
- ap: 3474
  img:  'http://lh3.ggpht.com/aiChar0HYKb_3M9or6hd38rkSeuoh1TUUL4LtW726Z-JKNYpIttW_3dFH4DHDYGBAkxkwBiz5Ye8_zqttsgs1A'
  lat: 40.092797
  level: 4
  lon: -88.217182
  name:  'The Ponds at UI Arboretum'
- ap: 3474
  img:  'http://lh6.ggpht.com/tvtZZis6qG1YsnE4ZRp9fdL3-XEu08jw8oYvSOYqkbrIkD71abS7blCPv63VovyNFWlpHvmXTjl3tl-lXII'
  lat: 40.092821
  level: 4
  lon: -88.218095
  name:  'Japan House Tsukubai'
- ap: 3285
  img: http://i.imgur.com/5j1qaiT.png
  lat: 43.749541
  level: '?'
  lon: -87.692746
  name:  'c942f92fda164daaaff39b61e459a502.16'
- ap: 2911
  img:  'http://lh3.googleusercontent.com/Nj5Ai888qxXriCQAeWkG8SbHbFuOlsYYCL3FjX-pCkblSOg30VuNF9lK9SQj4UDlg9R8XMYXpAcWyE9xIcA'
  lat: 40.135716
  level: 6
  lon: -88.291946
  name:  'Campus Solar System - Jupiter'
- ap: 2911
  img:  'http://lh4.ggpht.com/GcCZ7JTzkEHTZnUWfpUgibDh2Wa4nzGM9-k13AG4I2RwFiPa6exz1vCzj7Hwvf_oPwJvYJt0xoRE6GZXmCMX'
  lat: 40.132625
  level: 6
  lon: -88.292636
  name:  'Campus Solar System - Earth'
- ap: 2724
  img: http://i.imgur.com/5j1qaiT.png
  lat: 41.9686
  level: '?'
  lon: -87.630978
  name:  '47ea0a512aca4efc981ddb89e220e8b4.16'
- ap: 2724
  img: http://i.imgur.com/5j1qaiT.png
  lat: 39.680223
  level: '?'
  lon: -88.288274
  name:  'f0ae5f8377c046e2b413e075d00bedcb.16'
- ap: 2724
  img:  'http://lh3.googleusercontent.com/mRLfm7nmeWoRTWuL9j9CIdpj5Wi6Lj_ghejJOVgI2tREVdkZjp_vLtvGFd53n6ey4lYuJCvRblhcq2QJAzHc'
  lat: 40.132819
  level: 4
  lon: -88.286151
  name:  'Dodds Park'
- ap: 2724
  img:  'http://lh5.ggpht.com/BoAN9OSCH5u7G1sestzZaXjjik82i-SteF6-r5KTTyl530q9H5G3ibjJdqpGGY-nL8MypRXn2twwvn_y5nMmug'
  lat: 40.133159
  level: 6
  lon: -88.28778
  name:  'Campus Solar System - Saturn'
- ap: 2724
  img:  'http://lh4.ggpht.com/0UzQDuaKLiiPhEgEmKghfkzvXj6lROhxPIDJuI4nWLJFvdxJwGNcJZ1va0K_9cy4L2u0Zyeqv_qlIAwch5o'
  lat: 40.133475
  level: 6
  lon: -88.293988
  name:  'Parkhill Applied Technology Center'
- ap: 2724
  img:  'http://lh6.ggpht.com/6pMlM7pPsp-5PTNYZ8AJgo5ODURCPJO-_LigeHL2TMhjfK9MS17iEcpQqc89n5gyUdEO8seZrlThTGbKEqg'
  lat: 40.132999
  level: 6
  lon: -88.292808
  name:  'Campus Solar System - Mars'
- ap: 2724
  img:  'http://lh5.ggpht.com/THzk1iE4eBFdHkEgW_OGBWS54BbJw46faUZQS1Ad_IROHGgmVaXrphXJuL1O8N9k4G8_jaDT4P9tmLxMNi0W'
  lat: 40.131713
  level: 6
  lon: -88.29276
  name:  'Campus Solar System - Sun'
- ap: 2424
  img:  'http://lh3.googleusercontent.com/mFMoKbSLtdP7TnaDrMHLxDWN1FGdQeY6BuKqxtEYSN--Sp6L7DgrpNlGARlPutxd0UNQuEW3WwuNl_Hny6_1'
  lat: 40.13183
  level: 2
  lon: -88.288788
  name:  'Student Union Building'
- ap: 2724
  img:  'http://lh3.googleusercontent.com/M_qK64GKnnRqEI0mDBCxmdDqvQtr6sboADts_687xYboCfdeE-9gJwAPNC_Gt99-mA2X_3p-8RfH8-x7LMW5'
  lat: 40.132777
  level: 5
  lon: -88.287351
  name:  'Parkland College Prairie Restoration Reserve'
- ap: 2724
  img:  'http://lh3.googleusercontent.com/3nkY0B9PDqzlWJ_EKh5GnTZ8z0U6X9-2dI5dapKA5Q3F4iKrE99AJZoy6NSvh2nU1WTG2hL70276yJjJ0G8'
  lat: 40.141598
  level: 5
  lon: -88.238817
  name:  'Red Shield Center'
- ap: 2424
  img:  'http://lh6.ggpht.com/SCYK-XeMmOyfRrTt1-aQNoDA-2Sib4m5Ch26mTwo6XNdVeVnfi7W74Ik6IRLAPSoKzSS97pgwt50Jl9oSgGfP029USxZzQWKNJo3rbs-6YHBPBif'
  lat: 40.116792
  level: 1
  lon: -88.241752
  name:  'WEFT 90.1 FM Community Radio'
- ap: 2724
  img:  'http://lh4.ggpht.com/FAqopsayR2vfoblDs12USLGHxH0S1lfng6IlvgMPO2k4a1fKXYQnDWf0Lbf3zAqLfMU0aGaHpSZxycRqft9pmQ'
  lat: 40.119381
  level: 1
  lon: -88.24555
  name:  'The Lodge on Hill'
- ap: 2537
  img: http://i.imgur.com/5j1qaiT.png
  lat: 44.092789
  level: '?'
  lon: -87.643954
  name:  '78ecb2e477744d3aa4fc5859a58fd1f5.16'
- ap: 2537
  img: http://i.imgur.com/5j1qaiT.png
  lat: 40.113264
  level: '?'
  lon: -87.955703
  name:  '8a5fa4bf82b048ebbc192bd95a4cb48d.16'
- ap: 2537
  img: http://i.imgur.com/5j1qaiT.png
  lat: 40.614444
  level: '?'
  lon: -87.592778
  name:  '9784a9a1a9e94d0bb784a947b502697d.12'
- ap: 2537
  img: http://i.imgur.com/5j1qaiT.png
  lat: 41.963042
  level: '?'
  lon: -87.634398
  name:  '70afae3a6c894f6799117a1c37f05e9d.16'
- ap: 2537
  img:  'http://lh3.googleusercontent.com/qRVCONmL3YCPGXCCEayvZfMbpTRXMFkohh3X-m5NtrFXQ3-6Ot7Li4WvLGqqOMU4BkXiOmm-6EnrKzvzUKMP'
  lat: 40.063509
  level: 5
  lon: -88.294057
  name:  'Tin Man Mural'
- ap: 2537
  img: http://i.imgur.com/5j1qaiT.png
  lat: 41.964336
  level: '?'
  lon: -87.633564
  name:  '7fbe13944b5d4af78e982aada5eda453.16'
- ap: 2537
  img: http://i.imgur.com/5j1qaiT.png
  lat: 41.964092
  level: '?'
  lon: -87.633659
  name:  '16dd983c6c30490faf1c45bfd3e1ff1e.16'
- ap: 2537
  img: http://i.imgur.com/5j1qaiT.png
  lat: 39.984616
  level: '?'
  lon: -88.263266
  name:  '6fc2b246c1ea47d0ba7c8aaacc073f38.12'
- ap: 2537
  img: http://i.imgur.com/5j1qaiT.png
  lat: 40.24314
  level: '?'
  lon: -88.642466
  name:  '49318246285449e19ab7b796855d480d.16'
- ap: 2537
  img: http://i.imgur.com/5j1qaiT.png
  lat: 40.566892
  level: '?'
  lon: -88.616741
  name:  '13d63d6da6bb41fb858b8e714d957975.12'
- ap: 2537
  img: http://i.imgur.com/5j1qaiT.png
  lat: 41.962826
  level: '?'
  lon: -87.634756
  name:  '247a6de775a146a4accf8b1a11a1e0cc.16'
- ap: 2162
  img:  'http://lh6.ggpht.com/TtWbekdbsTWA9hOrt2dc1ID1DnRuGoRbAle9mL9aZvc_aJygqJ9jAMjqrWtVr87WnELkFrSVIpO_4VVZQ67P'
  lat: 40.113103
  level: 1
  lon: -88.290672
  name:  'Kaufman Lake'
- ap: 2537
  img:  'http://lh6.ggpht.com/5R8z1wwducaGMkvLFryu9HzC91eX02E3KDY04s9Il7Qrdw8efQiRGZ_vbgqW0Fuvp4-I_d9ugFC6lPc7lxia'
  lat: 40.113465
  level: 2
  lon: -88.291684
  name:  'Anna Jean Russell Memorial Tree'
- ap: 2537
  img:  'http://lh4.ggpht.com/5txoAy04NNtnz6QSex0YGvE4fib5tN9AelUxKSPreLTzkNO9Qbn9E1-AEPqCWm-PFDk16_WEe4H9CoGt-e_NOg'
  lat: 40.128294
  level: 6
  lon: -88.289948
  name:  'In Memory Of Jessica Cawvey'
- ap: 2537
  img:  'http://lh6.ggpht.com/v2m1E6vVK4ZRaRPhGli7jCsG7xZQZ7I3vV_5AogdEpPU_A1vz9WEkH0vZ-vau2IAdmydYJcXrOA6SMr7vUfT'
  lat: 40.128726
  level: 6
  lon: -88.290287
  name:  'McMillen Ehler Homestead'
- ap: 2537
  img:  'http://lh4.ggpht.com/2JNDO54Hu2KzjIaEeCIFVgD7gEa5VXNBsIemFYp6cgiTUbsSpOwLTc-HqZb__uut24jHpVnQVokRVtL00ozu'
  lat: 40.132056
  level: 6
  lon: -88.292671
  name:  'Campus Solar System - Mercury'
- ap: 2537
  img:  'http://lh5.ggpht.com/_Tp5JJFIIlt0iHHyC_A_gnEm1sxUEKDHmQr0oby74HL0rnFZ5JrnuvOTPk6_vulsU_GJue_7RAAX2Y7I2Wxw4A'
  lat: 40.132354
  level: 6
  lon: -88.292578
  name:  'Campus Solar System - Venus'
- ap: 2537
  img:  'http://lh6.ggpht.com/dIDmkL7jHZb1am2ptK9LrO6Ht_8jTKb3IOvGamBqIYzLXPgtEoPCV_9dMsqLxrgz8_MSq3UsEy9t49y_pqOd'
  lat: 40.125715
  level: 5
  lon: -88.2091
  name:  'Crystal Lake Park Aquatic Center'
- ap: 2537
  img:  'http://lh6.ggpht.com/PXc3YHSOsx0c_WrfpzvHHiHEl1FSv5RvbgXj7Ji3-xS7oBwJIkFCD8eQySiUega_iQvX8FiUBuDhXdK9l9QWIA'
  lat: 40.116623
  level: 3
  lon: -88.240844
  name:  'R. Forrest Colwell Memorial'
- ap: 2537
  img:  'http://lh5.ggpht.com/BUGNnLReyCBJJj9_zpqgwv5_CAyiW8fWBpyVs0ip1hT5NEE6YKCYzlc8ahldKzk_xv-4uckNJNb6NrJd6r33qg'
  lat: 40.116989
  level: 3
  lon: -88.242255
  name:  'Blind Pig'
- ap: 2537
  img:  'http://lh4.ggpht.com/qj7RZgjywjmhALnf1YyB5hWBrpO3hxjXZJdOzfE7YYV0p_vq9KA8GrgL9SfBHf_Ry3MVzMy1iJ6pAOkYL_lT'
  lat: 40.119118
  level: 3
  lon: -88.24584
  name:  'Amvets Post 3'
- ap: 2237
  img:  'http://lh6.ggpht.com/Jj5dr0C8flwov23nPbKRDVme7HOE0xZvNC6JkRscLlNqRr6uxkxBExdu-rQUdt9kZtd9e5dvHsv6Vs1Hdtd9'
  lat: 40.117186
  level: 1
  lon: -88.241556
  name:  'Champaign Limestone Sidewalk'
- ap: 2537
  img:  'http://lh6.ggpht.com/hmDofhQgtMboyY40gAShyf0g__uH_qYaFzVKnGKShUBNn-JjwpN526PPOYKyq8kvusIGRrMQIZ7ozPedDVm4iA'
  lat: 40.117495
  level: 2
  lon: -88.241616
  name:  'Lincoln Building'
- ap: 2537
  img:  'http://lh5.ggpht.com/J6mcCWpzY1HtqSgO5x_y5aVz-YFsC8M7QP6HkXPiD48zj2LwljZvVXDN2m_K8oMn6mei5g6B8PphiUGrXGDG6g'
  lat: 40.119305
  level: 1
  lon: -88.244122
  name:  'Women''s Town Club Building'
- ap: 2537
  img:  'http://lh3.ggpht.com/1G0o5RjtXyfAjbI-E2honhhelnuiq4lIkpHmB44e-AwSBuIxVOdLPVYjImbTMS8kyBdZuKuiMQHciUIdAWg'
  lat: 40.118368
  level: 1
  lon: -88.243737
  name:  'Frank Robeson Memorial'
- ap: 2537
  img:  'http://lh4.ggpht.com/loms_Bwu6Fx06JKV5GHpwVU2gK43md3B1mTXanT0qRHxfLO_uww9xRFbnsBdrHWsJDeTw3kGnj9VIIuFcUW8'
  lat: 40.122945
  level: 4
  lon: -88.229811
  name:  'Lighthouse World Ministries'
- ap: 2537
  img:  'http://lh4.ggpht.com/t9XdqtZoVqa6pvf7438XI4j4rektVw3Ofc1zhrzfnC7CGLUyOBPBT-rWb9kBvJJkX39pLJcKjHIuBdr2_0gkvQ'
  lat: 40.122959
  level: 4
  lon: -88.230243
  name:  'Free Will Baptist Church'
- ap: 2537
  img:  'http://lh6.ggpht.com/BCoBN1k9qdgU4oqqht_93bj9zxyhLJFkws-e6kAP1Zoz97AaCfbgSYLSVeMERRNl3hLBAVTbcCUn41RUxMmC'
  lat: 40.116203
  level: 4
  lon: -88.23781
  name:  'Habitat For Humanity'
- ap: 2537
  img:  'http://lh4.ggpht.com/MkhRfx0p0ll37O7C8IfCWHSNAQW5D8kba_E7Fu6frVIIFFf1fvRccq8wfjh6qu9yfggxSk0NSuf9oSvidos'
  lat: 40.116068
  level: 4
  lon: -88.237578
  name:  'Mural at Habitat for Humanity'
- ap: 2537
  img:  'http://lh3.googleusercontent.com/XQb7KWjSJlhbfrYsW2727_AeRoEQ5BbG0fRTTY5js_4zRdArbiRhCRkXunVa81rQpk9yX4RB6x1dV97DnYN7'
  lat: 40.104722
  level: 5
  lon: -88.223683
  name:  'Louise Freer Hall'
- ap: 2537
  img:  'http://lh4.ggpht.com/ZwDzLvPP0KTL_mUj9ta-0DRkbA4q3X7b-r02bm3rTibFkPbu00GKehClddYfSkXbwVuJ4pjt4T7yo7ou54ov'
  lat: 40.111869
  level: 4
  lon: -88.227932
  name:  'Talbot Lab Mural'
- ap: 2537
  img:  'http://lh5.ggpht.com/28al1CSkHNCrM9Sb57TYmawr1uFh6r5raWMJKD4QjLCj6N5YHEYIIizONs_hHF3pHuIppLjqxbTFcvrI9Dq9'
  lat: 40.111205
  level: 6
  lon: -88.227583
  name:  'Theory of Superconductivity Plaque'
