- ap: 22214
  img: http://i.imgur.com/5j1qaiT.png
  lat: 41.634356
  level: '?'
  lon: -87.178294
  name:  'd45d47f7d3a34245812bec73013df8d1.16'
- ap: 22214
  img: http://i.imgur.com/5j1qaiT.png
  lat: 41.156259
  level: '?'
  lon: -87.657985
  name:  'd8beb8f8277845a9b61f2f4176f70a00.16'
- ap: 14720
  img:  'http://lh4.ggpht.com/vKgqIecJshMQxrhO-ZhMjcIyARuJdyU63wKfzAG0wouZex6LVzO46Qi5zM1N3Jx8xyantDFk9sQGsSEBhb-y'
  lat: 40.101327
  level: 8
  lon: -88.251412
  name:  'Zeus Memorial'
- ap: 12283
  img:  'http://lh6.ggpht.com/5CDidk0pqfUtSW_Yqouuf3diX8drdMu9DoT728QpSz8q6A-WxNhT0yLcgM_7gGpyIAeXrHiTkIzzaVJFgnN9WA'
  lat: 40.099852
  level: 8
  lon: -88.251947
  name:  'Our Friend Tim Palmer'
- ap: 11346
  img:  'http://lh6.ggpht.com/yjfa0jJLjsfLRf9Zn9iafMp3MuIhgCi0WiOCF8GqTGiGvzEnsPGrFa0H1n-uzWhVehLbt44ShthsA32VzHd5iQ'
  lat: 40.099737
  level: 8
  lon: -88.251157
  name:  'Tyler Van Atkins Memorial'
- ap: 10033
  img:  'http://lh5.ggpht.com/4DJAFPeZ_w65Km7VDnsbOqouQaeBuPuxA0KHPQToT_B6o1hBxzdu3kn89UhHgv22Ygj52Fx9QqcbzOytuw'
  lat: 40.100078
  level: 8
  lon: -88.250683
  name:  'Brian Clark Memorial Plaque'
- ap: 8909
  img: http://i.imgur.com/5j1qaiT.png
  lat: 42.401374
  level: '?'
  lon: -86.288005
  name:  '9c168d55307d46deafd3684ceac79063.16'
- ap: 8722
  img:  'http://lh6.ggpht.com/qSCp5fQMlyCQ-GOAgiSFy5gaHJei705Pa3eOlJiYO5wGjZTYtjA8q7QWWfAWcLKjxZSaFiMfXOPR8SO7rWU'
  lat: 40.099353
  level: 8
  lon: -88.251876
  name:  'Raymond B. Cattell Memorial'
- ap: 8346
  img: http://i.imgur.com/5j1qaiT.png
  lat: 42.781389
  level: '?'
  lon: -87.757824
  name:  'f1b338e3321c46a3b934d916b9212aa6.16'
- ap: 8159
  img:  'http://lh3.ggpht.com/rUgM7jkTqL0VHxvsSW0yWuNJF5UrU62ITflghfn4PfKjn6L4WGz0ALkv98fc_q9dmK9SSpU1PXIawGvcRwE'
  lat: 40.098246
  level: 8
  lon: -88.251974
  name:  'Hessel Park'
- ap: 7035
  img:  'http://lh4.ggpht.com/B_I1b0Jy3vW41RX8jjCNPP68AULplU0Pf8ddolyKmpEWCfBVShQkmjF1HfTPzDjmBBQGgOs0jHW-rUR0mv8BkA'
  lat: 40.098789
  level: 8
  lon: -88.251685
  name:  'Curtis William McKinney Memorial'
- ap: 7035
  img:  'http://lh3.ggpht.com/lzCSS0_tjwUV7JQ2fgLI0e05IrzPxlVUs-6aEPOwUv67IanQJSTi71gkw0SGm8asmoE_r3Xoh048Fd9xRpE'
  lat: 40.099169
  level: 8
  lon: -88.251419
  name:  'Lyman Larson Memorial'
- ap: 7035
  img:  'http://lh3.ggpht.com/G1CvGhpethi5UmprDWxZN9rTblHa3anSsQz1UPgJtkREkfN7lDFoxFObst0609Cg5mofuZxJKr0ddNKhY4VL'
  lat: 40.098464
  level: 8
  lon: -88.251426
  name:  'Ruth Haasis Memorial'
- ap: 7035
  img:  'http://lh4.ggpht.com/4LxsGZZMk3DnpJXUvqzrL54CHSP5TDXjUnDJyHmCCTtCJIjGEI7kxT9g4uxfSPh0X6yGLgQo1jfqbu7B8VEr'
  lat: 40.099084
  level: 8
  lon: -88.251826
  name:  'Irina P. Stewart Memorial Plaque'
- ap: 6098
  img:  'http://lh3.ggpht.com/8FqlniFErK7cq59awiT84u8KyV4FIRd5krZzfYa58zJToFps7whdBnriPqvO_kFKeLUE3SWbJhCOPuvUQzaGFA'
  lat: 40.100691
  level: 8
  lon: -88.251337
  name:  'In Loving Memory of Zeus'
- ap: 6098
  img:  'http://lh3.ggpht.com/VrbXGwlUosNLEkVdshWUFoVa3KtlJQoEU4yLYygvftYbPCmxo644Uvar_v8Kb9RS53hB0tXgvV44GotrxZyu'
  lat: 40.098592
  level: 8
  lon: -88.251676
  name:  'Ruth and Fred Steigmann Plaque'
- ap: 5458
  img:  'http://lh3.googleusercontent.com/XlZcRhaeaiHLSH5SjL6gcn60xeJ1h3aS5Etz67B8I-P7qbPjnPznf2IQkXfCblA1gkqCM8lBEdmxOk_3Xnge'
  lat: 40.080163
  level: 5
  lon: -88.207829
  name:  'Windmill at Meadowbrook Park'
- ap: 5348
  img: http://i.imgur.com/5j1qaiT.png
  lat: 41.961753
  level: '?'
  lon: -87.635149
  name:  '6c2507186ab34c85872712308bb809fe.16'
- ap: 5348
  img:  'http://lh5.ggpht.com/HhVreJipNvxPRVFpmsh2BPo9PcpPO2Q2l3jCpDjIKgfKGycoTNPXR4DKiYccBXW4X-4dJf_vV0ESsWAWHcChsg'
  lat: 40.100936
  level: 8
  lon: -88.250855
  name:  'Donald F. Bresnan Memorial'
- ap: 5348
  img:  'http://lh5.ggpht.com/tfAfnmo6mSMc6U0P533NMFJRGwn6lasmx-MLR2JJg1QOizMKkghFU8E7hb2zgYgdQEbgnCJUlvZIMdrrJe4'
  lat: 40.100822
  level: 8
  lon: -88.25193
  name:  'Seeds of Kindness Bench'
- ap: 5161
  img:  'http://lh5.ggpht.com/ENeQgqydWbi9-Oyf7vizunoRqJdsZV4o0RA_956wjGI8hqpTCHBPyWMpbTrrkwYpj5tgzDRvevGmvH4eFRU'
  lat: 40.099593
  level: 8
  lon: -88.251724
  name:  'Blessings from Devon Elaine Cattell'
- ap: 4972
  img:  'http://lh3.ggpht.com/RDi9dMy3Df-Cf9VWDSaCohsnVa-bidVWXN6ZXu_h9yJGuQ22MI8MFwt1iA55QHtTIq5sHU6hZWbydWYFqr5PqQ'
  lat: 40.077419
  level: 6
  lon: -88.208069
  name:  'Walker Grove'
- ap: 4598
  img: http://i.imgur.com/5j1qaiT.png
  lat: 42.40148
  level: '?'
  lon: -86.287044
  name:  'be78c15683554893a96f56b528eb8f83.16'
- ap: 4411
  img: http://i.imgur.com/5j1qaiT.png
  lat: 42.672124
  level: '?'
  lon: -90.126884
  name:  'b98fc89b29194e6cba30b07adabe0c23.16'
- ap: 4411
  img: http://i.imgur.com/5j1qaiT.png
  lat: 42.196926
  level: '?'
  lon: -89.592984
  name:  'c390cab2367847948d38fd540b66a4d8.12'
- ap: 4411
  img: http://i.imgur.com/5j1qaiT.png
  lat: 41.964092
  level: '?'
  lon: -87.633659
  name:  '16dd983c6c30490faf1c45bfd3e1ff1e.16'
- ap: 4411
  img: http://i.imgur.com/5j1qaiT.png
  lat: 41.964336
  level: '?'
  lon: -87.633564
  name:  '7fbe13944b5d4af78e982aada5eda453.16'
- ap: 4411
  img: http://i.imgur.com/5j1qaiT.png
  lat: 42.79458
  level: '?'
  lon: -87.780334
  name:  'b44bb73e6a4b4d37a2aae99ea7758fc0.16'
- ap: 4411
  img: http://i.imgur.com/5j1qaiT.png
  lat: 42.783314
  level: '?'
  lon: -87.761254
  name:  '049de703919c4b9c8237fb9c1edf1a72.16'
- ap: 4411
  img:  'http://lh5.ggpht.com/BK5TjuMzuJgDVPz4C8HRjfZKeaoISnPJ-H7VaYeMNUYmxvvUY7RzIIlR13FjW9HHF_i5-znqs3O6nMxKPfcj'
  lat: 40.102188
  level: 5
  lon: -88.251507
  name:  'Little Free Library Charter 5753'
- ap: 4411
  img:  'http://lh6.ggpht.com/S7Utf4_59vQkAP5JhC3mdbzVLKBTt-0zoJ2UjfxUnN10VBbixO-_VwvssWd1LbFSx_yafaijd_U0wTGo870'
  lat: 40.100941
  level: 8
  lon: -88.251314
  name:  'Gabriel Patrick Maxeiner Memorial Plaque'
- ap: 4411
  img:  'http://lh4.ggpht.com/mlUN5QXAR7rKFvUg7yhxcae3udkR7zCJVaWt5sq_YA47piV6tRi42RNN9fEtT_FafT7lhqg26WM1VETbz5E'
  lat: 40.098239
  level: 8
  lon: -88.25376
  name:  'Hessel Park Christian Reformed Church'
- ap: 4411
  img:  'http://lh5.ggpht.com/C6wRSaEWO1NYGY5luyYZKHG3Z3aib4aflaPdV7B9G6N6adE890g3QuPRSvCUhsdFHqjoVUjo27mfz9WsjXyuhQ'
  lat: 40.100521
  level: 8
  lon: -88.250864
  name:  'Gabriel Patrick Maxeiner Memorial'
- ap: 4411
  img:  'http://lh4.ggpht.com/PHV-1ZpFzCAl_ViCKwBY_x2pIDbVyaT7wJH1sTvFJCxrSdRrO1x7NaXq9OdRGwz_Mls4iwk6wuGHMBArfV54'
  lat: 40.098688
  level: 7
  lon: -88.25063
  name:  '"New Holland Yellow Dinosaurs" at Hessel Park'
- ap: 4411
  img:  'http://lh5.ggpht.com/-UWK84I78Sftf7yg-E2pg6xEAWTvyiThgJBJlxbqOZPYKNmzQ8uGgEEMetzplrG1HpXG5kQqNItUeXKxOHDsGA'
  lat: 40.100286
  level: 8
  lon: -88.251747
  name:  'Tennis Anyone'
- ap: 4409
  img: http://i.imgur.com/5j1qaiT.png
  lat: 41.570778
  level: '?'
  lon: -89.127801
  name:  '4bf70cbe46bb41489e8108e397ed5b30.16'
- ap: 3848
  img:  'http://lh5.ggpht.com/9T9y0bpvBrwNNyvb142IyTeakSgjhepOOFAf15hGx0cHg_jgDEhSwReqANYrDhl7giaXpGBSRLV2dRn0Or3R'
  lat: 40.077839
  level: 7
  lon: -88.209091
  name:  '"Niantic" at Meadowbrook'
- ap: 3661
  img: http://i.imgur.com/5j1qaiT.png
  lat: 41.962826
  level: '?'
  lon: -87.634756
  name:  '247a6de775a146a4accf8b1a11a1e0cc.16'
- ap: 3661
  img:  'http://lh4.ggpht.com/Ad3EyxZM9v5cjmOiED5nr8Hf1mHtOMXrJtjU_U63YfE8lgUjAteiDYuYxND-ybx6tARUErULHJBDhgoDIblz'
  lat: 40.077349
  level: 6
  lon: -88.20659
  name:  'Bruno Schielzeth Plaque'
- ap: 3474
  img: http://i.imgur.com/5j1qaiT.png
  lat: 41.293897
  level: '?'
  lon: -87.41188
  name:  '370c1456dd2546019ba7756649c1fa56.16'
- ap: 3474
  img: http://i.imgur.com/5j1qaiT.png
  lat: 41.28875
  level: '?'
  lon: -87.405809
  name:  '3ea64ec46b434936b245c1a7cb2a83cb.16'
- ap: 3474
  img: http://i.imgur.com/5j1qaiT.png
  lat: 41.290412
  level: '?'
  lon: -87.408568
  name:  'fd617e0d4c834d6584b5a75fcc8848a0.12'
- ap: 3474
  img: http://i.imgur.com/5j1qaiT.png
  lat: 41.136692
  level: '?'
  lon: -87.452448
  name:  'cc5db6e393414d47a1d89dc8b82a23c3.12'
- ap: 3474
  img: http://i.imgur.com/5j1qaiT.png
  lat: 41.291492
  level: '?'
  lon: -87.420396
  name:  '65456036e0454702a7d7bc104ded3ed0.16'
- ap: 3474
  img: http://i.imgur.com/5j1qaiT.png
  lat: 42.312792
  level: '?'
  lon: -89.632643
  name:  '3220b6dde5b14f1ab85f1c33253a7d34.12'
- ap: 3474
  img: http://i.imgur.com/5j1qaiT.png
  lat: 42.257945
  level: '?'
  lon: -90.422561
  name:  '7d3e65f2c7fb42968abbf55f31c98b18.16'
- ap: 3474
  img: http://i.imgur.com/5j1qaiT.png
  lat: 42.257695
  level: '?'
  lon: -90.422443
  name:  '5e798909b0234ff589ea2a16154dd7c6.16'
- ap: 3474
  img: http://i.imgur.com/5j1qaiT.png
  lat: 41.966004
  level: '?'
  lon: -87.632502
  name:  '367908f1dbf04c84bf3cb27575c4359e.16'
- ap: 3474
  img: http://i.imgur.com/5j1qaiT.png
  lat: 41.601651
  level: '?'
  lon: -87.498746
  name:  '57c301d5d4da40429bfff966ea83cd63.16'
- ap: 3474
  img: http://i.imgur.com/5j1qaiT.png
  lat: 41.144588
  level: '?'
  lon: -87.453902
  name:  '8bd9005e33634ea083ec0844d7cd3ab7.16'
- ap: 3474
  img: http://i.imgur.com/5j1qaiT.png
  lat: 41.291342
  level: '?'
  lon: -87.418888
  name:  'ebaa55e179334ea69f64776c114fafa8.16'
- ap: 3474
  img: http://i.imgur.com/5j1qaiT.png
  lat: 41.628006
  level: '?'
  lon: -87.499914
  name:  'bd36c7bec7e14e09ac96c55382b4ddd2.16'
- ap: 3474
  img: http://i.imgur.com/5j1qaiT.png
  lat: 40.972403
  level: '?'
  lon: -87.517102
  name:  '8182cb4ef9a24e2a8e975ee139129755.16'
- ap: 3474
  img: http://i.imgur.com/5j1qaiT.png
  lat: 41.585024
  level: '?'
  lon: -87.500008
  name:  'efba7666f9bf499a86aed86e9d362fd2.16'
- ap: 3474
  img: http://i.imgur.com/5j1qaiT.png
  lat: 41.629023
  level: '?'
  lon: -87.5024
  name:  'd8632611874f4a2f85619dcc20203869.16'
- ap: 3474
  img: http://i.imgur.com/5j1qaiT.png
  lat: 41.290431
  level: '?'
  lon: -87.407762
  name:  '153cafa57681448e922d78f7236fbf0e.16'
- ap: 3474
  img: http://i.imgur.com/5j1qaiT.png
  lat: 42.672175
  level: '?'
  lon: -90.127145
  name:  'f0ad0be166484dff817ae9e279082e3d.16'
- ap: 3474
  img: http://i.imgur.com/5j1qaiT.png
  lat: 41.584331
  level: '?'
  lon: -87.500013
  name:  '1119052e8024476499543cb5eaca7c8b.16'
- ap: 3474
  img: http://i.imgur.com/5j1qaiT.png
  lat: 41.965697
  level: '?'
  lon: -87.632747
  name:  '009d44eea192424f8eb810b69311f40a.16'
- ap: 3474
  img: http://i.imgur.com/5j1qaiT.png
  lat: 41.595108
  level: '?'
  lon: -87.499788
  name:  'f02765ef6e224455841eecefabf63e58.16'
- ap: 3474
  img: http://i.imgur.com/5j1qaiT.png
  lat: 41.281094
  level: '?'
  lon: -87.378629
  name:  'cce30f2b54484ebf9cc30ed798027fd6.16'
- ap: 3474
  img: http://i.imgur.com/5j1qaiT.png
  lat: 41.580933
  level: '?'
  lon: -87.501085
  name:  '2aa5b52a10494843b2aed8c332d78ad1.16'
- ap: 3474
  img: http://i.imgur.com/5j1qaiT.png
  lat: 41.603899
  level: '?'
  lon: -87.498028
  name:  'cf39876f98d240b0bad034f5c395b08f.16'
- ap: 3474
  img: http://i.imgur.com/5j1qaiT.png
  lat: 41.605596
  level: '?'
  lon: -87.497836
  name:  'c1990079f744499ea0e6d41713fa8767.16'
- ap: 3474
  img: http://i.imgur.com/5j1qaiT.png
  lat: 41.963042
  level: '?'
  lon: -87.634398
  name:  '70afae3a6c894f6799117a1c37f05e9d.16'
- ap: 3474
  img: http://i.imgur.com/5j1qaiT.png
  lat: 41.592122
  level: '?'
  lon: -87.500642
  name:  '08391643a5dc44569bf52537964a223f.16'
- ap: 3474
  img: http://i.imgur.com/5j1qaiT.png
  lat: 41.289556
  level: '?'
  lon: -87.406103
  name:  '56d672f6c7fe4a71a7fbab5e2f0ffb06.16'
- ap: 3474
  img:  'http://lh5.ggpht.com/tuo_ByFTbwLitFP5cBseOibqRxENxbCwOJ30dCnja5ijBI_qBv5vqNP7ZuZXnxhYM6ms_GbExZEwwKVUtwV2'
  lat: 40.093712
  level: 5
  lon: -88.281583
  name:  'Brownfield Dedication'
- ap: 3474
  img:  'http://lh6.ggpht.com/p2F3xw4xL4UdiMM9aSy628ISSglrvjPexpF3j340tMAP9MX07yh_sJv7kHVkeud8lyFf2ZwDohw3zsRS2PSd'
  lat: 40.093914
  level: 5
  lon: -88.281531
  name:  'Terry M. Warmbier Memorial'
- ap: 3474
  img:  'http://lh6.ggpht.com/Jz3ahY5LQ13wKWLY9SEvexiinJa3GeO1eB_FynplikRpa77swLST6cUAJjPpqKDSq2KU4Dcyui-QBstz_Z3k'
  lat: 40.094624
  level: 6
  lon: -88.282953
  name:  'Greenbelt 2'
- ap: 2911
  img:  'http://lh3.ggpht.com/_K7sIxE489M-QkUoRrgaLB_XBi9BcOI563VzvhOcmhjwHsLO51ORrhkiWZkqThKNBlPAYzclT_qdR_sGe8g'
  lat: 40.114277
  level: 5
  lon: -88.238879
  name:  'Prow 2'
- ap: 2724
  img: http://i.imgur.com/5j1qaiT.png
  lat: 41.327192
  level: '?'
  lon: -89.141758
  name:  '293203cc2664476eb7005bbc0dc0da08.16'
- ap: 2724
  img:  'http://lh4.ggpht.com/PfcTU4XsA06ThtmCWydIWhTsN3gR4jrqnrKxu0O5lhyibhRdKMEaf3jM8VNhViF8qLf13b01E71wr_ajxn0'
  lat: 40.118465
  level: 7
  lon: -88.245077
  name:  'Mural at Nitaya'
- ap: 2724
  img:  'http://lh3.ggpht.com/PKHUaHtGQlwpb8q3mUpPJtjb51_am_ieb_9X0u8g1PI_eg7NxFQU2fqeV8XjnIIDy0rCMtqsfMJLerOBo8M'
  lat: 40.118579
  level: 6
  lon: -88.244588
  name:  'Mural on Art Theatre'
- ap: 2724
  img:  'http://lh5.ggpht.com/DDClbLn6LNW1_Kr2O24_eIFuz6BfPSolc8s9i2SV9KvgoE8D_n6SY1mOzPFAUoLMe9HHKhD-azeRgoyYPNcaPw'
  lat: 40.115917
  level: 2
  lon: -88.243438
  name:  'Shay Memorial Plaque'
- ap: 2537
  img: http://i.imgur.com/5j1qaiT.png
  lat: 42.257168
  level: '?'
  lon: -90.422291
  name:  'a865e96a56914299b372ace0c2c5c7c6.16'
- ap: 2537
  img: http://i.imgur.com/5j1qaiT.png
  lat: 42.261359
  level: '?'
  lon: -90.424042
  name:  '7303f97f88d6407db3d54d2e8f899b35.16'
- ap: 2537
  img: http://i.imgur.com/5j1qaiT.png
  lat: 42.263973
  level: '?'
  lon: -90.425098
  name:  'ab98793f968740bb91d4897b688620f6.16'
- ap: 2537
  img: http://i.imgur.com/5j1qaiT.png
  lat: 42.261982
  level: '?'
  lon: -90.424571
  name:  'd9f4a5f61cd74711a2fb64da592328d5.16'
- ap: 2537
  img: http://i.imgur.com/5j1qaiT.png
  lat: 42.248754
  level: '?'
  lon: -90.418098
  name:  '70d2dfbf423e4fd391721645fd5a6223.16'
- ap: 2537
  img: http://i.imgur.com/5j1qaiT.png
  lat: 40.434524
  level: '?'
  lon: -89.219048
  name:  'be2310d20a384a37a62070d394c1c56c.12'
- ap: 2537
  img: http://i.imgur.com/5j1qaiT.png
  lat: 40.823387
  level: '?'
  lon: -88.687292
  name:  'a4de986f46774e7b856107173f2de67f.16'
- ap: 2537
  img: http://i.imgur.com/5j1qaiT.png
  lat: 41.804238
  level: '?'
  lon: -89.689174
  name:  '0dc5746d2d3d47e19e4731f89fc890db.16'
- ap: 2537
  img: http://i.imgur.com/5j1qaiT.png
  lat: 41.794705
  level: '?'
  lon: -89.680392
  name:  'a80dea5461284780a3e983d148be0a02.16'
- ap: 2162
  img:  'http://lh4.ggpht.com/4_MOw_NKr2wZ2lzAzG2FlLtA3tfOfWqBZpNVP43LfN6ilD6qHRfZ-_wA1Xk8BnCqHKqKdqodC70X09pqtNXXqmNtK-uqo-fC9SZyOjT6ERfJorzg'
  lat: 40.118388
  level: 2
  lon: -88.245358
  name:  'Springer Cultural Center'
- ap: 2462
  img:  'http://lh3.googleusercontent.com/W5PjcRhelt3420IFjpSdOXtmIiv0M99Qv9Xupe6lckHDJDW4zHE9GyACkz8wXBF0_OIO2Jex9d7S8UQ4FJLa'
  lat: 40.118361
  level: 6
  lon: -88.244573
  name:  'Art Theater'
- ap: 2537
  img:  'http://lh3.googleusercontent.com/ZyXHLNlediISMVLqM9sUeZ0FEft3El4ni5P7GPOy5UF2YYBkTywnN5g1lkaer_lDNSvBUvg7bQ5yA_4Wd9qRWg'
  lat: 40.113521
  level: 5
  lon: -88.244122
  name:  'Artistic Graffiti at MCS'
- ap: 2537
  img:  'http://lh3.googleusercontent.com/vMuPZQrBjsuqibkb-FCbuVrZzyuUSOhjlXxxxRc9hq0Y7prkP-Fpk1Hh6o5Eq8BhT6s7GRP5S5z2KFUL7hJY'
  lat: 40.113606
  level: 6
  lon: -88.243766
  name:  'Mural on South Neil St.'
- ap: 2537
  img:  'http://lh6.ggpht.com/D-AymiJdf5gt94o_wgUJbOD9Fpl4V7PijJOjkztpP0_J2k82i1TBLDAaqcH_SUTUFe9VlllfQCsXFg_J0uAPeA'
  lat: 40.11569
  level: 3
  lon: -88.243433
  name:  'Christ Community Church'
- ap: 2312
  img:  'http://lh5.ggpht.com/FeG7Xn052FyJtG43yF0j2iYs3BdENjAx_oZUTzI70y4H0qeexU7B8NrXaT20cmXSKwnWV8xFSc3OlG_KQU09pE8fyCAYXWWPbTzC0_GZ1aynCFni'
  lat: 40.116185
  level: 1
  lon: -88.243429
  name:  'C.V. Lloyde'
- ap: 2537
  img:  'http://lh3.ggpht.com/AflEYleLSbb1ODQvIdBOrTrq1Zkk-rgHU4WaHjaZ6Md2zDSaqq8cERAJWcwG1QFkrzGf6gp3oC-DZuLOCDb4'
  lat: 40.112779
  level: 5
  lon: -88.239045
  name:  'Layalina Mediterranean Grill'
- ap: 2537
  img:  'http://lh3.ggpht.com/tXDyz6XRrR2AKSg9Rrj1z6jBG4dz7uR9qFmSUO1bWljMEw67ncNiq-2Hx3O9Fs029iRtvCV1gdlGN7pG69L0'
  lat: 40.114104
  level: 2
  lon: -88.237694
  name:  'Lo Park Fountain'
- ap: 2537
  img:  'http://lh4.ggpht.com/Nh7M4_i-advmuf0RWReev2TeUAZ57VTRzcf56-U_TuHsKcjIdqXGvbxpOccEx1CaYHKzGwI9mZVmnLdmhryGng'
  lat: 40.115557
  level: 4
  lon: -88.239009
  name:  'Honesty Best Policy  - Vernon A. Roland Building'
- ap: 2537
  img:  'http://lh3.googleusercontent.com/hvoLMUc9UoNVVPttxWTc8PzOWdu5MBmPETnBexH7Alyl20WGCrNa0G_j7DwvD3qbhqpTaeThFhGDV2rCtp8'
  lat: 40.107629
  level: 4
  lon: -88.224484
  name:  'Bucky Balls'
- ap: 2537
  img:  'http://lh6.ggpht.com/c2I39IJvSBKmCLonmhP_RN1vLEpYY1recBXFm8xpGHxES4bAN2kvAcda8ZzvT75uq0yWQCv7N_dzP6ce5-Tu'
  lat: 40.108043
  level: 4
  lon: -88.22469
  name:  'Building of Molecular and Cellular Biology Sculpture'
- ap: 2537
  img:  'http://lh6.ggpht.com/XqG3n3J3bCj61mM2c6ByPJaWYXv51nQkx7me8714asRsez8kx_rSW4mwH2Rm8Y6Yibx71YB6kMcbAYpGch4'
  lat: 40.079324
  level: 6
  lon: -88.209124
  name:  'Timpone Family Ornamental Tree Grove'
- ap: 2387
  img:  'http://lh5.ggpht.com/i_8huo_CxMxwTgcukj2dHefx7TgK3uMShcy5UJPAMHS9EfTTWEsWq2FpQew2G7N3KnatQxJjlQekJmvjhqc'
  lat: 40.078738
  level: 4
  lon: -88.208631
  name:  'Open at Meadowbrook '
- ap: 2162
  img:  'http://lh5.ggpht.com/YaIKBanBs_Nk5kstDaA9jBqnvY9vRfXO2YuO21JwbSo1c2OiJZvSlWe3x_6vyCPb-NZKQSBmnkOstTytpNxw'
  lat: 40.079832
  level: 2
  lon: -88.208385
  name:  'Herb Society Garden'
- ap: 2537
  img:  'http://lh3.ggpht.com/N3joo2vGiOAq-hh0peo2upcDO7iyxx1XC_6L1CBWIQ2PhXEpR1UI3dtCOYHcM8pchVwGj0GyVko-qxrGx3Q'
  lat: 40.078315
  level: 6
  lon: -88.208939
  name:  'Sunstruck'
- ap: 2537
  img:  'http://lh4.ggpht.com/efOG849cf8EKwVLL2BfNKzwBdkrAuNsMeYOZfeR8FYnK3axQJJON0VH191MLBwjJaQ1EeQC9Pt8LMtNI2LEa'
  lat: 40.07718
  level: 6
  lon: -88.203511
  name:  'Denise and Ernest Walker Grove'
- ap: 2537
  img:  'http://lh3.ggpht.com/SGh5Xw4MO1dVvrMemAzgB9RDDBXEv4yPJSQnS537XIPlaVnoge7FriTE0zXjRXDxMtFiaTHXXihwZpbush_dbg'
  lat: 40.077367
  level: 6
  lon: -88.203354
  name:  'Meadowbrook Trail Map'
