- ap: 9472
  img:  'http://lh4.ggpht.com/tLO2wjyCgyune3KDOlQMV_oiDRxVsHqO1gAG_0xs9TvKOiuWRVmJcO29WI7jELxoxncaXpy91kMa89Uj65JVNw'
  lat: 40.11784
  level: 6
  lon: -88.24286
  name:  'Kaufman Memorial'
- ap: 7785
  img:  'http://lh6.ggpht.com/nbUJivBo0zF8f8aBbk1GwakUpPbLUVOoEovTTETYwJvfNIHXwG9XUbwoV0x-ly4ZO5Hsyv5KPo3c9cE6Nh8'
  lat: 40.118832
  level: 5
  lon: -88.243643
  name:  'Tesla Ball'
- ap: 6848
  img:  'http://lh5.ggpht.com/KadNuhjGK6FUXezGHW1W1kfPOQV5l7gJP594EQm5nPZFLTgcTsjl4ixa-j7XitgtyJyou3q0pTfMr4i2E_avIA'
  lat: 40.118013
  level: 6
  lon: -88.243445
  name:  'Clock at Neil and Main'
- ap: 6848
  img:  'http://lh6.ggpht.com/rGhR45ZFbHtxmrZSSy9V19eFoyHIDB42c6MK188isPJFWpUsW9ywNHayKt3acNvKNC8DAV6mDkUloj3aiS4'
  lat: 40.118422
  level: 5
  lon: -88.24346
  name:  'Entrance'
- ap: 5161
  img:  'http://lh3.ggpht.com/bltQwmnzp2vSKYhLpzNLqB4iddy6ie0kWk9G7Wce4U9qmW3CABxbXAhF7v0oG9QLFD2q57UZuVqZCMgN3MHZfA'
  lat: 40.118335
  level: 4
  lon: -88.243408
  name:  'Downtown Fountain'
- ap: 5161
  img:  'http://lh5.ggpht.com/nirQKdy3s9r8TSV7cB7_B0l-0EsFXBkg1aitH05R0ttPhOEewGxlq1GRnlDvYFT2V8Z91hWnB9YD3WjxBvyZ'
  lat: 40.11868
  level: 4
  lon: -88.243426
  name:  '"Pointless"'
- ap: 5161
  img:  'http://lh3.googleusercontent.com/FMrsRGg4e1AuMu6m4uCIpM5nawtelx8reIfMtog4nuxXU9C7--UKQnUEAm9s4Vc7OfMjfIDX5loNOw4Agz2HAw'
  lat: 40.118715
  level: 5
  lon: -88.242373
  name:  'Richard D James Mural'
- ap: 3474
  img: http://i.imgur.com/5j1qaiT.png
  lat: 40.778321
  level: '?'
  lon: -89.67447
  name:  '649a82519808467ba90055d73673616e.16'
- ap: 3474
  img: http://i.imgur.com/5j1qaiT.png
  lat: 40.778755
  level: '?'
  lon: -89.674026
  name:  '6b83342c4fde4298bdb186836bb418c2.16'
- ap: 3474
  img: http://i.imgur.com/5j1qaiT.png
  lat: 41.302375
  level: '?'
  lon: -90.19526
  name:  '8af4452cb459425d982b7bb24dd90914.16'
- ap: 2724
  img:  'http://lh3.ggpht.com/nHykU-r6nAcUQliLD4vcs6UTayaoX6Aay87D-bgyrRjGaqMQQYuxIbHuVKSTH0vbqNO9g2sBdp_ZBWLM3LDYeQ'
  lat: 40.103044
  level: 5
  lon: -88.211741
  name:  'Great Neighborhoods Dedication'
- ap: 2537
  img: http://i.imgur.com/5j1qaiT.png
  lat: 40.779221
  level: '?'
  lon: -89.673801
  name:  '684444e63a55494fa0ed03c633d231dd.16'
- ap: 2537
  img: http://i.imgur.com/5j1qaiT.png
  lat: 41.303135
  level: '?'
  lon: -90.19288
  name:  '0583d678e29c42389aa92f8982096fc1.12'
- ap: 2537
  img: http://i.imgur.com/5j1qaiT.png
  lat: 39.809612
  level: '?'
  lon: -89.398152
  name:  '389b2d3460584fb58c24cb38556cbddc.16'
- ap: 2537
  img: http://i.imgur.com/5j1qaiT.png
  lat: 40.026078
  level: '?'
  lon: -88.783718
  name:  'edce8f4594c948e790402f25987eea45.16'
- ap: 2537
  img: http://i.imgur.com/5j1qaiT.png
  lat: 45.038827
  level: '?'
  lon: -87.128633
  name:  'effaa78694de43a2a8fb1b5893e66a7d.16'
- ap: 2537
  img: http://i.imgur.com/5j1qaiT.png
  lat: 42.772688
  level: '?'
  lon: -86.21244
  name:  '8552938d383e44fb8994d5885d59a9ed.12'
- ap: 2537
  img:  'http://lh6.ggpht.com/CFr5FDgsztNbeSQUq6x63c17MTKeKxsaUoY7uq6eft3-_1XjCjDOPcpjtaA8iqU-gi7m9txMeWkfG0UuT6mv'
  lat: 40.099069
  level: 3
  lon: -88.225654
  name:  'Frank Kern Robeson Memorial'
- ap: 2537
  img:  'http://lh3.ggpht.com/O6KWMS3yeRHd2EWk2OjTB00RVhM_Qhb2N2cDdMTObRRym9RV_RKbca6MkCx6JKPdqJgFoetXy0BR1jWxjvZ15g'
  lat: 40.096357
  level: 1
  lon: -88.218009
  name:  'Idea Garden Prairie House '
- ap: 2537
  img:  'http://lh6.ggpht.com/P5Q3TM1HY9mqPQbQNDUn_h5cdo4MVdphUfMLaEb25EJWIN2xAqYTkLQUtPy4sY-0hHFESUrH5Nn0KYogzjM'
  lat: 40.104921
  level: 1
  lon: -88.192636
  name:  'Boomerangs Bar And Grill '
- ap: 2537
  img:  'http://lh6.ggpht.com/LlpW022wV7lzYKZ3vPdegSJ5yfDa992j4CfqoWqSCvuvGoH_oQgMdheMd5Ug4DZabZO-WsZ8FO_bbsKKFp4'
  lat: 40.100992
  level: 2
  lon: -88.200602
  name:  'Pennsylvania Avenue Baptist Church'
- ap: 2537
  img:  'http://lh3.ggpht.com/nEmxwddo6XwjpSBtzzXHCx_v9wYD5ITuVRx4VF0emrxiLFZGpsBb4HkcXFS4BAR3ZhrmD8t2YDKEWF7NGxV7'
  lat: 40.099595
  level: 5
  lon: -88.206642
  name:  'Blair Park Shuffle Board Courts'
- ap: 2537
  img:  'http://lh4.ggpht.com/sz_e7469a1MnmlNIKBE9ABOh9Z5c-TMUKTj_dlubknMbwU0IKI_4hZ8QQtHWwjgbnkA_Plk1yb2bT4XQ3UjA'
  lat: 40.104561
  level: 1
  lon: -88.21207
  name:  'Carle Park'
