- ap: 2911
  img:  'http://lh6.ggpht.com/0IsQORyEW-bPA7sEbGspygtoI7ixEshm_2fUw5oeh9AeXg6JN5w0ypYIshpuKm-C0nG4Vm2XmpLvtWTZzWzd'
  lat: 40.111607
  level: 5
  lon: -88.233753
  name:  'Chabad Menorah'
- ap: 2911
  img:  'http://lh4.ggpht.com/CZA6uXTYgSkrccw1vqf6XFlfkzl6I7Rj79GOKIYGvd1Zem8O1u-opoJu65ma2eHnKdfysF0mOVGzc_am2Ns'
  lat: 40.110623
  level: 4
  lon: -88.22799
  name:  'Eta Kappa Nu Plaque'
- ap: 2537
  img: http://i.imgur.com/5j1qaiT.png
  lat: 44.607633
  level: '?'
  lon: -87.43205
  name:  '8e6a8255e7c342e8806313a728bf9918.12'
- ap: 2537
  img: http://i.imgur.com/5j1qaiT.png
  lat: 42.781389
  level: '?'
  lon: -87.757824
  name:  'f1b338e3321c46a3b934d916b9212aa6.16'
- ap: 2537
  img: http://i.imgur.com/5j1qaiT.png
  lat: 40.541395
  level: '?'
  lon: -89.630645
  name:  '255b38cd8b5040b7b3321725ab3a7dd7.16'
- ap: 2537
  img: http://i.imgur.com/5j1qaiT.png
  lat: 39.738831
  level: '?'
  lon: -90.228582
  name:  '0a5e4abebcbf42fdad4267387e575247.16'
- ap: 2537
  img:  'http://lh3.ggpht.com/W8FBEELyDwLQMeanXFx-Fgunxvd31WdpPq5IhpOEXVv-NygLJqO5o8a74hVaiQzxEGWm3XPPu4IWJEUcJQzN'
  lat: 40.055019
  level: 5
  lon: -88.295155
  name:  'Savoy United Methodist Church'
- ap: 2537
  img:  'http://lh4.ggpht.com/N6E1iW7R1Dt6SCyd1q4Ym_HeSnFZ2mHHlXE-jkX1_YLy9BgSRPcDZK8ri2PWx6-sV1IEsClFGgMgpdI2Bgg'
  lat: 40.069187
  level: 5
  lon: -88.295335
  name:  'Friendship Lutheran Church of Joy'
- ap: 2537
  img:  'http://lh4.ggpht.com/vKkSwERLa3zQO2UUIiYl1AEruAx1QTPcP4jSmPt89PG4AviJ1WhlVVH8qmqJ0aY2gqJmHcqdZFcM2pQconc'
  lat: 40.139375
  level: 5
  lon: -88.272793
  name:  'Salt And Light Ministries'
- ap: 2537
  img:  'http://lh5.ggpht.com/pSVHjk6puyYdv3ztHlpJGnbkZyGsGsirMnxkDhlt8UMko4AhtTQbrzwInBCu5lK4Ttf7furE5pNW2AZh8HuSZQ'
  lat: 40.138109
  level: 5
  lon: -88.270158
  name:  'Glory Center International Church'
- ap: 2537
  img:  'http://lh3.googleusercontent.com/3nkY0B9PDqzlWJ_EKh5GnTZ8z0U6X9-2dI5dapKA5Q3F4iKrE99AJZoy6NSvh2nU1WTG2hL70276yJjJ0G8'
  lat: 40.141598
  level: 5
  lon: -88.238817
  name:  'Red Shield Center'
- ap: 2537
  img:  'http://lh3.ggpht.com/07XrBN-er6Ecleor0n9RJ4DfGO6B2yn-ZxjI-Uy8Ba46Jtb6cXNVmATPiPiGyk-1jZ4wxa7-EeIWbWUqArCG'
  lat: 40.142554
  level: 6
  lon: -88.243468
  name:  'Dog Heart'
- ap: 2237
  img:  'http://lh3.googleusercontent.com/FMrsRGg4e1AuMu6m4uCIpM5nawtelx8reIfMtog4nuxXU9C7--UKQnUEAm9s4Vc7OfMjfIDX5loNOw4Agz2HAw'
  lat: 40.118715
  level: 3
  lon: -88.242373
  name:  'Richard D James Mural'
- ap: 2537
  img:  'http://lh4.ggpht.com/BEyFLhgqk0ySf2zElnARv5eyaQggj_zbHSagW3_DGt9BieScmU4jGPvJCjezTjbiCP-DOJPLPfJ3HhnYAiQLEQ'
  lat: 40.119288
  level: 6
  lon: -88.248086
  name:  'The Hartford'
- ap: 2537
  img:  'http://lh4.ggpht.com/ETgOsKlMmsv5wRT-aM33VVVEgFvp3ZoMxqXmYKxROpFAYnfPqjWhltqYBG7ajEuM8XKf3mVeSaF7r9grm2t8'
  lat: 40.113448
  level: 6
  lon: -88.237188
  name:  'Boneyard Creek Second Street  Basin'
- ap: 2162
  img:  'http://lh4.ggpht.com/xS51--rXA9M_IHpXWgFQxKZU-YbD-1zk-nug6k7RyKl8rYeam_YFwMmLNWRRHHzI-rOTGyhTJQQ314WudSQJ'
  lat: 40.117132
  level: 2
  lon: -88.243009
  name:  'Fountain in the Alley'
- ap: 2537
  img:  'http://lh3.googleusercontent.com/M1BXbCtfOfi1ipACxyQaE2jCbcLCxQTsJVIUli8GgprQaS2WmnVuSsqMoFaWub8LM6VF7KK4wSH9SSGdrXM'
  lat: 40.117287
  level: 7
  lon: -88.242984
  name:  'Mural for the Blind Pig Brewery'
- ap: 2537
  img:  'http://lh5.ggpht.com/f710C9AvOEB7ieCI4f382wWUP4OgDxiqPzbxqxct6Ugf2PWBfyXyDpG_JcRQ6PaZ_jS0jpXXBhNSt_u9rFA'
  lat: 40.113864
  level: 6
  lon: -88.224839
  name:  'Plato: A Social Networking Revolution Begins'
- ap: 2537
  img:  'http://lh5.ggpht.com/AmsS7GEfFX-_Icem2DP6mjQahV1jeut1CGdeqLqfpyzx0m5SqhVY4eoAohizF0xsevPQufmLRMoVj2rW7Fe8'
  lat: 40.111689
  level: 5
  lon: -88.231193
  name:  'Koi Building Art'
- ap: 2387
  img:  'http://lh5.ggpht.com/LPlCgoOAlClRaVCl_B1sHDkn38OgDbXat-l5Q1bDZLP7mOUMfU8pK-o3N8BEqh0vHJcZBHo3iz2AMQKAhot7Tw'
  lat: 40.110833
  level: 3
  lon: -88.227425
  name:  'Engineering Class of 1975 Monument'
- ap: 2462
  img:  'http://lh6.ggpht.com/1El0oK6CWDh7rAQeFmPEW_dA252pdq7piTtjtuQCkZvwRa689NLjEafLqQ35TI5qCW3Lmhja9PLQqKxFs9Ha'
  lat: 40.110627
  level: 4
  lon: -88.227584
  name:  'Tau Beta Pi Statue'
- ap: 2537
  img:  'http://lh5.ggpht.com/f1O8bFXHTg2PTOAUVLvrqk5xx5ps9SeqhpJ1RIPtSxm0I-e7J275e2ujJp3lFQGHUBW_vS90KOsrcdLDJ84l4g'
  lat: 40.110797
  level: 6
  lon: -88.225321
  name:  'Multiphase Fluid Dynamics Plaque'
