- ap: 11346
  img:  'http://lh5.ggpht.com/-UWK84I78Sftf7yg-E2pg6xEAWTvyiThgJBJlxbqOZPYKNmzQ8uGgEEMetzplrG1HpXG5kQqNItUeXKxOHDsGA'
  lat: 40.100286
  level: 8
  lon: -88.251747
  name:  'Tennis Anyone'
- ap: 9472
  img:  'http://lh5.ggpht.com/C6wRSaEWO1NYGY5luyYZKHG3Z3aib4aflaPdV7B9G6N6adE890g3QuPRSvCUhsdFHqjoVUjo27mfz9WsjXyuhQ'
  lat: 40.100521
  level: 8
  lon: -88.250864
  name:  'Gabriel Patrick Maxeiner Memorial'
- ap: 7972
  img:  'http://lh6.ggpht.com/yjfa0jJLjsfLRf9Zn9iafMp3MuIhgCi0WiOCF8GqTGiGvzEnsPGrFa0H1n-uzWhVehLbt44ShthsA32VzHd5iQ'
  lat: 40.099737
  level: 8
  lon: -88.251157
  name:  'Tyler Van Atkins Memorial'
- ap: 7972
  img:  'http://lh3.ggpht.com/lzCSS0_tjwUV7JQ2fgLI0e05IrzPxlVUs-6aEPOwUv67IanQJSTi71gkw0SGm8asmoE_r3Xoh048Fd9xRpE'
  lat: 40.099169
  level: 8
  lon: -88.251419
  name:  'Lyman Larson Memorial'
- ap: 7035
  img:  'http://lh4.ggpht.com/vKgqIecJshMQxrhO-ZhMjcIyARuJdyU63wKfzAG0wouZex6LVzO46Qi5zM1N3Jx8xyantDFk9sQGsSEBhb-y'
  lat: 40.101327
  level: 8
  lon: -88.251412
  name:  'Zeus Memorial'
- ap: 7035
  img:  'http://lh5.ggpht.com/ENeQgqydWbi9-Oyf7vizunoRqJdsZV4o0RA_956wjGI8hqpTCHBPyWMpbTrrkwYpj5tgzDRvevGmvH4eFRU'
  lat: 40.099593
  level: 8
  lon: -88.251724
  name:  'Blessings from Devon Elaine Cattell'
- ap: 6848
  img:  'http://lh6.ggpht.com/S7Utf4_59vQkAP5JhC3mdbzVLKBTt-0zoJ2UjfxUnN10VBbixO-_VwvssWd1LbFSx_yafaijd_U0wTGo870'
  lat: 40.100941
  level: 8
  lon: -88.251314
  name:  'Gabriel Patrick Maxeiner Memorial Plaque'
- ap: 6285
  img:  'http://lh4.ggpht.com/4LxsGZZMk3DnpJXUvqzrL54CHSP5TDXjUnDJyHmCCTtCJIjGEI7kxT9g4uxfSPh0X6yGLgQo1jfqbu7B8VEr'
  lat: 40.099084
  level: 8
  lon: -88.251826
  name:  'Irina P. Stewart Memorial Plaque'
- ap: 6285
  img:  'http://lh5.ggpht.com/4DJAFPeZ_w65Km7VDnsbOqouQaeBuPuxA0KHPQToT_B6o1hBxzdu3kn89UhHgv22Ygj52Fx9QqcbzOytuw'
  lat: 40.100078
  level: 8
  lon: -88.250683
  name:  'Brian Clark Memorial Plaque'
- ap: 6285
  img:  'http://lh6.ggpht.com/5CDidk0pqfUtSW_Yqouuf3diX8drdMu9DoT728QpSz8q6A-WxNhT0yLcgM_7gGpyIAeXrHiTkIzzaVJFgnN9WA'
  lat: 40.099852
  level: 8
  lon: -88.251947
  name:  'Our Friend Tim Palmer'
- ap: 6098
  img:  'http://lh4.ggpht.com/B_I1b0Jy3vW41RX8jjCNPP68AULplU0Pf8ddolyKmpEWCfBVShQkmjF1HfTPzDjmBBQGgOs0jHW-rUR0mv8BkA'
  lat: 40.098789
  level: 7
  lon: -88.251685
  name:  'Curtis William McKinney Memorial'
- ap: 5722
  img:  'http://lh3.ggpht.com/whrVudLIelW8yHGGZa7geAVXvbkevW5Vc4DbMBSrMTYN38-Cce_sYnEFxEDWHJQouK3L-LjMbbADmlyYto_D'
  lat: 40.131036
  level: 6
  lon: -88.2778
  name:  'AISC Steel Teaching Sculpture'
- ap: 5535
  img:  'http://lh5.ggpht.com/pSVHjk6puyYdv3ztHlpJGnbkZyGsGsirMnxkDhlt8UMko4AhtTQbrzwInBCu5lK4Ttf7furE5pNW2AZh8HuSZQ'
  lat: 40.138109
  level: 5
  lon: -88.270158
  name:  'Glory Center International Church'
- ap: 5348
  img:  'http://lh4.ggpht.com/PHV-1ZpFzCAl_ViCKwBY_x2pIDbVyaT7wJH1sTvFJCxrSdRrO1x7NaXq9OdRGwz_Mls4iwk6wuGHMBArfV54'
  lat: 40.098688
  level: 8
  lon: -88.25063
  name:  '"New Holland Yellow Dinosaurs" at Hessel Park'
- ap: 5348
  img:  'http://lh3.ggpht.com/G1CvGhpethi5UmprDWxZN9rTblHa3anSsQz1UPgJtkREkfN7lDFoxFObst0609Cg5mofuZxJKr0ddNKhY4VL'
  lat: 40.098464
  level: 8
  lon: -88.251426
  name:  'Ruth Haasis Memorial'
- ap: 5161
  img: http://i.imgur.com/5j1qaiT.png
  lat: 39.975583
  level: '?'
  lon: -87.635066
  name:  'f5f0a6d80c654f7996f456efa59d011b.12'
- ap: 5161
  img:  'http://lh3.ggpht.com/8FqlniFErK7cq59awiT84u8KyV4FIRd5krZzfYa58zJToFps7whdBnriPqvO_kFKeLUE3SWbJhCOPuvUQzaGFA'
  lat: 40.100691
  level: 8
  lon: -88.251337
  name:  'In Loving Memory of Zeus'
- ap: 4972
  img:  'http://lh5.ggpht.com/ulBje3DZHcOGkPDTXihNL1tamRAm_GO1CREW8fA5fV0Znq1eF2J1hnbSZh35emEA1h9cL1qTj9FqGtb8VywgXQ'
  lat: 40.13765
  level: 4
  lon: -88.273074
  name:  'Garden Hills Park'
- ap: 4785
  img:  'http://lh6.ggpht.com/g4DT6SGoajyo3AEVQR_e1LuxmgdTecqzlqjxrY3qYL6mnr6FHMUAtS6E9ZnWczuWrf7WWRNC0XRF5iVTWdS-uQ'
  lat: 40.132002
  level: 4
  lon: -88.277467
  name:  'Dodds Park'
- ap: 4598
  img:  'http://lh6.ggpht.com/MA9eCvz-pj6K00ulfaZfIA2Saj3yQDg484VkIpdvKwCwb2VWMg7rq15hjirk-2ea3j-2MfOnszGDTopXgf3N'
  lat: 40.12735
  level: 6
  lon: -88.282547
  name:  'Heritage Park'
- ap: 4411
  img: http://i.imgur.com/5j1qaiT.png
  lat: 39.54185
  level: '?'
  lon: -87.846066
  name:  '8c51d8a98d234698bf0c47f3af2d0391.12'
- ap: 4411
  img: http://i.imgur.com/5j1qaiT.png
  lat: 39.411911
  level: '?'
  lon: -87.724509
  name:  '8e35136bd1f64490a6bed10f177ba2a1.16'
- ap: 4411
  img: http://i.imgur.com/5j1qaiT.png
  lat: 39.680223
  level: '?'
  lon: -88.288274
  name:  'f0ae5f8377c046e2b413e075d00bedcb.16'
- ap: 4411
  img:  'http://lh3.ggpht.com/VrbXGwlUosNLEkVdshWUFoVa3KtlJQoEU4yLYygvftYbPCmxo644Uvar_v8Kb9RS53hB0tXgvV44GotrxZyu'
  lat: 40.098592
  level: 8
  lon: -88.251676
  name:  'Ruth and Fred Steigmann Plaque'
- ap: 4411
  img:  'http://lh5.ggpht.com/tfAfnmo6mSMc6U0P533NMFJRGwn6lasmx-MLR2JJg1QOizMKkghFU8E7hb2zgYgdQEbgnCJUlvZIMdrrJe4'
  lat: 40.100822
  level: 8
  lon: -88.25193
  name:  'Seeds of Kindness Bench'
- ap: 4411
  img:  'http://lh5.ggpht.com/HhVreJipNvxPRVFpmsh2BPo9PcpPO2Q2l3jCpDjIKgfKGycoTNPXR4DKiYccBXW4X-4dJf_vV0ESsWAWHcChsg'
  lat: 40.100936
  level: 8
  lon: -88.250855
  name:  'Donald F. Bresnan Memorial'
- ap: 4411
  img:  'http://lh6.ggpht.com/qSCp5fQMlyCQ-GOAgiSFy5gaHJei705Pa3eOlJiYO5wGjZTYtjA8q7QWWfAWcLKjxZSaFiMfXOPR8SO7rWU'
  lat: 40.099353
  level: 8
  lon: -88.251876
  name:  'Raymond B. Cattell Memorial'
- ap: 3660
  img:  'http://lh5.ggpht.com/9VuH5-qaoobAtdEZFkn2uoAcJS5Luq9QLXRevRpv9WAzkjoAB_9hftbELGCCm8M4rxAJ5xTfJWd6E6kb0Or7'
  lat: 40.102016
  level: 1
  lon: -88.281983
  name:  'Centennial Park'
- ap: 3848
  img:  'http://lh3.ggpht.com/tXuCgd1tvCtlonW_e1jLC_5DH6g4Qh6zIUKhJeoBZuLvyB0ql69PlymRU3Ywf5lq_8PFYNylEKOiC_qJnnzJpg'
  lat: 40.138006
  level: 5
  lon: -88.272375
  name:  'Jericho Missionary Baptist Church'
- ap: 3436
  img:  'http://lh5.ggpht.com/M2qxWsTwaMcr-AB3UJByAcCokQ0ptyf7KOh8-SmB1Rsu9ZR9D_hI6lWNZF3oGtoU6FzZVeT08h3IEn-e-_8'
  lat: 40.1279
  level: 2
  lon: -88.289974
  name:  'In Memory Of Charles Eddy Shumate'
- ap: 3436
  img:  'http://lh4.ggpht.com/WYG3ESlqovedGYxESaI2-VIu4-NxEKeo32DuX9E1hpXAQKySBaEbuyVUoRex6E6m4O_qpXGVFcZ9Ktc2d7c'
  lat: 40.126923
  level: 3
  lon: -88.283365
  name:  'Heritage Lake Fishing Regulations'
- ap: 3661
  img:  'http://lh3.googleusercontent.com/hJZWoErzM-MuXulq4FlhlZwMbJX1Isd81GBUBVKayd57jVIVxUle3itd-1DRKo2VaNXznWr1X639fa44Etk'
  lat: 40.141919
  level: 6
  lon: -88.244611
  name:  'Marketplace Mall Carousel'
- ap: 3661
  img:  'http://lh6.ggpht.com/duOeXcOSQLWosdD0JJXg3pWWQp4t5sL0x9qDHoTIBFNOzEW0t53Lt2cnwgV2E_Su0l1ajIQxPtVbbK_sDRaS'
  lat: 40.141775
  level: 5
  lon: -88.242671
  name:  'Marketplace Mall Fountain'
- ap: 3099
  img:  'http://lh3.ggpht.com/uMCsrCj0b8EWJ6Hinp58rZ4hjaPm9kBAK5q0aDNtkP3e1Zk6Gh_0COjtW2YYBNzPxGDjJLB4DIXmiyvmrCJkRA'
  lat: 40.128083
  level: 1
  lon: -88.290812
  name:  'In Memory Of James D. Pruitt'
- ap: 3174
  img:  'http://lh5.ggpht.com/5bCoRsqGBM0hx50ymfbZ8NhvyAyQDJWMnSg6qaDe-zxvwzVZW6O5IZWCDefH-pIsFZzvUaCcBBK9kqNDwXW3'
  lat: 40.128048
  level: 2
  lon: -88.290536
  name:  'In Memory of David Foster Wallace'
- ap: 3474
  img:  'http://lh3.ggpht.com/BTOxkIG5jV6VaSJtyt1Kge-WlIsvddZuz7YzzqkQhAMWxgfE71ab2wqWdKY20M9-6zbGlVq43XMJ2CrZDqU'
  lat: 40.127246
  level: 5
  lon: -88.276738
  name:  'Kraft Giant Macaroni'
- ap: 3474
  img:  'http://lh3.ggpht.com/LI2lDP17lvIghR6Sltj6ECmzcCBHl8dTLBG7BVkPOqTkM9h8PGuXRp7mS8x3bxL-pbQzjV2HyP1y8XWbUzi4'
  lat: 40.100762
  level: 5
  lon: -88.282846
  name:  'Sholem Aquatic Center '
- ap: 3474
  img:  'http://lh4.ggpht.com/8Yhp3k9rCZps2AgalC_ip3F4DfS_sWuoDsILaXrP4RmZLhthvaiibjiEOn68zQ_QZyQu1Jyj8yb2lmNUNmrR'
  lat: 40.101186
  level: 4
  lon: -88.282524
  name:  'Rotary Shelter'
- ap: 3474
  img:  'http://lh5.ggpht.com/nWEtxuKQdy0teBBue1DYmG7P3SF5-3A6zlB7GwVHBWlolAZYGq6Br78lWcF9ltFy-KeSlozXie2RmU6JfCUX'
  lat: 40.142673
  level: 6
  lon: -88.244603
  name:  'Italian Statue'
- ap: 3474
  img:  'http://lh6.ggpht.com/RW34ntixvJkg7fD71TPYo_4KIsBzA0-a-6yXO0jKPbpGxX5gIGC7kBI-pXEF9OHhuolcAGW2fxyK3Pt42Iev'
  lat: 40.110489
  level: 6
  lon: -88.227412
  name:  'Bus Stop - Illini Union, Westbound'
- ap: 3474
  img:  'http://lh4.ggpht.com/RF7EbCh1YRbFHfis_PEc88NF1v4Ndhj-Rm7rrlY7F8s-Mrv1EMEFnajFbYiNffZ_3kMNL80Zv-_jtaMYMtLA'
  lat: 40.110655
  level: 6
  lon: -88.22725
  name:  'Gothic Brass'
- ap: 3474
  img:  'http://lh5.ggpht.com/LPlCgoOAlClRaVCl_B1sHDkn38OgDbXat-l5Q1bDZLP7mOUMfU8pK-o3N8BEqh0vHJcZBHo3iz2AMQKAhot7Tw'
  lat: 40.110833
  level: 6
  lon: -88.227425
  name:  'Engineering Class of 1975 Monument'
- ap: 3098
  img: http://i.imgur.com/5j1qaiT.png
  lat: 44.607633
  level: '?'
  lon: -87.43205
  name:  '8e6a8255e7c342e8806313a728bf9918.12'
- ap: 2349
  img:  'http://lh4.ggpht.com/h3t9nwbrudSHJ4Ll-zBceLi_U0iwpgbsVd8Wjzy_JgqMiXIqIu4CILUiFnKdayIi0htMXQ5CNowcXO7XUqI'
  lat: 40.13401
  level: 2
  lon: -88.28239
  name:  'Eddie Albert Gardens'
- ap: 2724
  img:  'http://lh6.ggpht.com/_MJDV4NA2u24dbhr1ulyabSdnTuUBUv1xFpOPKbit_dHtoaRkFxqDHaRZBZ196LNyiSHUE5lNT4MCbhqCrzh'
  lat: 40.098459
  level: 7
  lon: -88.282083
  name:  'Flower Island'
- ap: 2724
  img:  'http://lh6.ggpht.com/ukIJOts1W6BPpII4XC4_Q5Wh8Gz8aCNeGUuAtaLknm7OKhNYvlDd71ZN8hcxCRcJDhDjV0qBZgFRyYMGNeS6'
  lat: 40.100203
  level: 3
  lon: -88.281602
  name:  'Karlee Elizabeth Feinen Memorial'
- ap: 2649
  img:  'http://lh4.ggpht.com/lpJC8CMq12VKjzn5jKxDzhuO6-wy48dUIJ1qAD7jiTQom4qZYFUDgxd3-1wexag_aT8akZC3P7VTqei0H48YKQ'
  lat: 40.100482
  level: 3
  lon: -88.281627
  name:  'Henry Bradbury Memorial'
- ap: 2724
  img:  'http://lh5.ggpht.com/7iVmAcVyJIn8L3igZXGYGwViTb9r4HAzVxhWliawC7ufMhOhxXGx2_JlRghvetTHkNn8Wisk718zIFRlEDquGA'
  lat: 40.099194
  level: 4
  lon: -88.283703
  name:  'Children''s Prairie Farm'
- ap: 2724
  img:  'http://lh3.ggpht.com/UoqoA4-SqK1X44o_0alM-QL57jhssYrhXZdeS1Ph9C5k_PjEXhPB_rJsbzTZ2hWbGDdartAlnZnfw3vb7DAG'
  lat: 40.099177
  level: 5
  lon: -88.283099
  name:  'Bradley D Riden Memorial'
- ap: 2724
  img:  'http://lh3.googleusercontent.com/9QA69H7Pr4YSLDo8gKmXgbDNGmrnheNC-3AgVL1eiVhh8ZUtZ9IaPMQtiOWlxjY2OSbHxN03GWTETFj-wzM'
  lat: 40.098416
  level: 5
  lon: -88.283763
  name:  'Centennial Park'
- ap: 2724
  img:  'http://lh3.ggpht.com/M4bKZ-CKQxZ9kYbwoDe79j6v5hIrWVwAcRzAUm9hg6fREm0ubCBwul695BAa_BhnyxOXdXIub7UvBaqxHnk'
  lat: 40.098803
  level: 6
  lon: -88.283425
  name:  'Taylor Memorial'
- ap: 2724
  img:  'http://lh6.ggpht.com/0vHaOKrH35vUHDfapI4QDvHSJLenhiXHIhdWBwVKzEB741Ky8B7mMeXnUtOlIYycCbLUO-dRzHZFrPQFFbFZ'
  lat: 40.085791
  level: 5
  lon: -88.265411
  name:  'Karen A. Sayers Memorial'
- ap: 2537
  img: http://i.imgur.com/5j1qaiT.png
  lat: 42.052212
  level: '?'
  lon: -87.669411
  name:  '104d9a0bac384f00b3dfa667adecb86a.16'
- ap: 2537
  img: http://i.imgur.com/5j1qaiT.png
  lat: 41.37168
  level: '?'
  lon: -90.165095
  name:  'c95c110111b44cd08149a1712123ed13.16'
- ap: 2537
  img: http://i.imgur.com/5j1qaiT.png
  lat: 41.556343
  level: '?'
  lon: -89.461309
  name:  'fd2af0e93c084aa19be07f93e4a11add.16'
- ap: 2537
  img: http://i.imgur.com/5j1qaiT.png
  lat: 41.895544
  level: '?'
  lon: -87.609918
  name:  '69b5b12452284cfe80ee2aa3f5052d16.16'
- ap: 2537
  img: http://i.imgur.com/5j1qaiT.png
  lat: 42.360656
  level: '?'
  lon: -87.813488
  name:  '87e6b7fcb07746b5a09fb3a68424e565.16'
- ap: 2537
  img:  'http://lh5.ggpht.com/V9AFUiWKES88x0FruZILBXEBv1d476XQMgH8JsCHDQgvjDvk95Mgjf5vcl-Nx7CkPvfhwVGIrvB1EA5Tlh2j'
  lat: 40.132437
  level: 4
  lon: -88.29022
  name:  'Dr. Ray Braun Memorial'
- ap: 2537
  img: http://i.imgur.com/5j1qaiT.png
  lat: 42.401374
  level: '?'
  lon: -86.288005
  name:  '9c168d55307d46deafd3684ceac79063.16'
- ap: 2537
  img:  'http://lh5.ggpht.com/bxjTJmHRd1_7x6zw7y1Eir0opWUqtbJOdAC4FxDOfOBVdUI1zEVV9wo5FiHzTxqR7hajj-4tQrnSyAe2b8Y'
  lat: 40.113974
  level: 5
  lon: -88.311234
  name:  'WBGL Radio Station Headquarters Plaque'
- ap: 2537
  img:  'http://lh3.ggpht.com/eFFdc4ogWkS9n6Texp4aw9BhK-M6FRxwvMRH-YkXj7JP7qSRQdo7E0-0O4P7NawgvduxpxgjnbGHbN1BjW2_'
  lat: 40.114585
  level: 5
  lon: -88.311371
  name:  'Joe''s Park'
- ap: 2462
  img:  'http://lh3.googleusercontent.com/mRLfm7nmeWoRTWuL9j9CIdpj5Wi6Lj_ghejJOVgI2tREVdkZjp_vLtvGFd53n6ey4lYuJCvRblhcq2QJAzHc'
  lat: 40.132819
  level: 6
  lon: -88.286151
  name:  'Dodds Park'
- ap: 2312
  img:  'http://lh3.ggpht.com/Uce4t5Ws7-KzD_MUqPDowXTtAg4burxyAm5ez3FhjTqU4ctVVDwec8NkSjzcauhAUbdqgYCAPNIeQ7dolo4t'
  lat: 40.128012
  level: 3
  lon: -88.289763
  name:  'In Memory Of Marian Rodemer'
- ap: 2162
  img:  'http://lh5.ggpht.com/XSTOU98iZoBFcDNR_YYJQfmQaiD_vXAP5Z7R79nVC7k06VMhH8tHSb9Yb9Pe8OnV1svwvlvy6iyz6vMjg3_EzA'
  lat: 40.132804
  level: 2
  lon: -88.285013
  name:  'W Glenn Karr Memorial Plaque'
- ap: 2537
  img:  'http://lh5.ggpht.com/DebAit5dt4fRUaqvm-qbtIu1w1qep15Lpzb1kkMbiUT3_qT31rdXxCeIVQ_szOWqP16Es-q5irPAf-80kc6IAA'
  lat: 40.0986
  level: 4
  lon: -88.283262
  name:  'Diaz Memorial'
- ap: 2537
  img:  'http://lh5.ggpht.com/uICg1AgxErKugaXSVrAGclLigtqDUyOsaOIldV_S086SuGvckMN90PIxdZehZMktOsdxW3Ok9k7Hcx5UJSd9ZA'
  lat: 40.102217
  level: 4
  lon: -88.283855
  name:  'Lisa Dodds Memorial'
- ap: 2387
  img:  'http://lh6.ggpht.com/aHhLEb8O6JqkElC1drnlJBmq8qeC2WzA4W48qkRQwuE9B6opSfHVKARNHu-uAZN-jvPRznVdmobggqRbw9E'
  lat: 40.100674
  level: 3
  lon: -88.281589
  name:  'Catherine Josephine Feinen Memorial'
- ap: 2537
  img:  'http://lh4.ggpht.com/GH0L77ajJqdeWLVc2Mn_FFhT4HGW8EMC3C1us7H_4f8LxWfQRnYQL6J8MDPNvomSwZP9gl8yMqo0qmwuOphB'
  lat: 40.098826
  level: 5
  lon: -88.284599
  name:  'Bocci Ball Court'
- ap: 2462
  img:  'http://lh4.ggpht.com/Iw1zFYmvkp5-xEIthuGSfIqcCRd0lVw_uGS4y_I5DIg6xQ0CUp4_S4GL3JOWv7XFZLFqFH9O572bGCNhB78IMQ'
  lat: 40.102126
  level: 4
  lon: -88.283224
  name:  'Leonhard Recreation Center'
- ap: 2537
  img:  'http://lh6.ggpht.com/hMOV7ym8XEIsqpMDPaoQ0zfvtxYc8wi6ViH7YTtHB2OBpFGMOEpqjeIs-_7tfCzioA-1WvQwRKfYcGvUqgM'
  lat: 40.098948
  level: 6
  lon: -88.283274
  name:  'Austin Cloyd Memorial Plaque'
- ap: 2387
  img:  'http://lh5.ggpht.com/_quRYtw1nQsDlSn7VjdJ72LlgiwnF7tlWU9s2H40vdM6ILPMiOgmzt_fUXz7ocFI5MT7YWs-smZ9a6H7XR0'
  lat: 40.101822
  level: 4
  lon: -88.282612
  name:  'Winifred Nielubowski Memorial Plaque'
- ap: 2537
  img:  'http://lh6.ggpht.com/uaO1clC1eOzxRVRPPU6mVM4lEPV2U6uxh64a8kJNRglHSObClWlHGEcfJTknzwB_7Wli3doxQJbZKiBHIXI'
  lat: 40.102834
  level: 7
  lon: -88.241672
  name:  'Rehabilitation Education Center'
- ap: 2537
  img:  'http://lh3.googleusercontent.com/enpZZ8JRREFPTvYd3jbeUlpS-mmcwKe5fsvoWRPkfMUj6PijyI-5tbR55UItBoNJAFSl9fAAOvXb6BpWCJT4'
  lat: 40.102495
  level: 7
  lon: -88.242132
  name:  'Nuclear Physics Lab'
- ap: 2537
  img:  'http://lh5.ggpht.com/3RlX64kTBLKCXBSds_94_nwH_9CuOIDqOXJSr4wBmVRx_XLPiftZQxH_5SeR_rgh0Hpgww3dUsNKCyRno3ey7Q'
  lat: 40.08557
  level: 5
  lon: -88.265106
  name:  'Lauren Kay Benninger Bannon Memorial'
- ap: 2537
  img:  'http://lh5.ggpht.com/dpsEP8PFhsghyhulqyixJWOBciNBQP3X10g1YPnE63hnUhWZvxZBXplQAcjQI71ddCRWVkuJ8Af_AIfDpGnF'
  lat: 40.086929
  level: 3
  lon: -88.263899
  name:  'Dan Morrissey Park'
- ap: 2537
  img:  'http://lh5.ggpht.com/jQxBvX2jWXZCQP5ap9HmKaDDgG40pdH5nPpBNcYppZdxce6GWdxMRTYyqKrLxnk_TsmMAd7G6gRwJ6YI7S-v'
  lat: 40.107574
  level: 5
  lon: -88.227843
  name:  'Iconic Pillars'
- ap: 2237
  img:  'http://lh3.googleusercontent.com/vRH1cgHOuzbgU69F49MdsOQye4VG9lH8rjDcYQWGq9_8VcBu010oHhoinNmA_Dn9JZGLmS7ehSQJ9h1uDMGBaw'
  lat: 40.107087
  level: 3
  lon: -88.227801
  name:  'Class of 1912 Pillar'
- ap: 2537
  img:  'http://lh3.googleusercontent.com/hvoLMUc9UoNVVPttxWTc8PzOWdu5MBmPETnBexH7Alyl20WGCrNa0G_j7DwvD3qbhqpTaeThFhGDV2rCtp8'
  lat: 40.107629
  level: 6
  lon: -88.224484
  name:  'Bucky Balls'
- ap: 2312
  img:  'http://lh4.ggpht.com/3_LELG2r-A5s2d-x2dWyz6h7HzfjVR_KZn9AG0vhih9EalQIG43iL6LdKqKNpnGdGwguP9ZfnGF0KMq_KDE'
  lat: 40.105799
  level: 4
  lon: -88.230188
  name:  'Color Glass Windows at the Newman Center'
- ap: 2537
  img:  'http://lh3.ggpht.com/QXNgz_dPkVpVuz9Qr0CZkUJDftEdF2Hs8m3XkLjsM8Q3YkwkWpxt0rmtqJ-fFylVNnP4_r193_ZhBl2kSfg'
  lat: 40.129216
  level: 5
  lon: -88.219323
  name:  'Angel Statue'
- ap: 2537
  img:  'http://lh3.ggpht.com/TNDkyQnVEXdm2c8_gpZa0jhlwhKtO0T8Yaqx9BCnvpjJHBRKYMu71Kz7U4wOp-eSKD5jlReyruVEwFyyvRLuZQ'
  lat: 40.129028
  level: 5
  lon: -88.218345
  name:  'Flagpole Dedication'
