- ap: 8722
  img: http://i.imgur.com/5j1qaiT.png
  lat: 40.106513
  level: '?'
  lon: -88.5585
  name:  'Lodge Christian Church'
- ap: 8535
  img: http://i.imgur.com/5j1qaiT.png
  lat: 40.312242
  level: '?'
  lon: -88.201368
  name:  '2012 Employee Dedication Bench'
- ap: 7222
  img: http://i.imgur.com/5j1qaiT.png
  lat: 40.537258
  level: '?'
  lon: -89.358721
  name:  '4c82b7c9d8d14992bb8fefba14e18458.16'
- ap: 6848
  img: http://i.imgur.com/5j1qaiT.png
  lat: 41.052451
  level: '?'
  lon: -89.051292
  name:  'd5f8a7d523604257abcf8dbb69a636ee.16'
- ap: 6848
  img: http://i.imgur.com/5j1qaiT.png
  lat: 40.341598
  level: '?'
  lon: -88.525757
  name:  'c9c7bb1cc98a403fb4aff200ccc5f242.12'
- ap: 6848
  img: http://i.imgur.com/5j1qaiT.png
  lat: 40.341303
  level: '?'
  lon: -88.525734
  name:  'baa4782d579a4b15b184b207abe0257e.16'
- ap: 6848
  img: http://i.imgur.com/5j1qaiT.png
  lat: 40.346898
  level: '?'
  lon: -88.761737
  name:  '7146a4c659e449f08cdcfb28a7a9f30e.16'
- ap: 6098
  img:  'http://lh6.ggpht.com/ea6HxAw7m0OhhPqJJkZR9u60pR1sab_JdxaOyEltqmQd-63FFJzPY72jEnu08g9Gcjjj5cf3jyyS_M1E7OIbfg'
  lat: 40.11616
  level: 6
  lon: -88.241422
  name:  'It''s A Mistree'
- ap: 6098
  img:  'http://lh4.ggpht.com/H1kV6JSczzSbcCblAHg5ZOgITW1mBAz0_oLbqbzxBlijGTBn7TP6KwA6UI0AAGrCN4VF0DAF79Vcj6_2R4dsB8LRTq6tud6v'
  lat: 40.116164
  level: 6
  lon: -88.241661
  name:  'Zipcar-45 E. University Avenue'
- ap: 5909
  img: http://i.imgur.com/5j1qaiT.png
  lat: 40.537327
  level: '?'
  lon: -89.359087
  name:  '5b905bb09aa44c0db7cb4aa4dbe7b01c.16'
- ap: 5535
  img:  'http://lh4.ggpht.com/W2chhQwPqSJEkl57NVoIL-OE4KFvJfp7Bsrrxza1apCYltcT3npz95LJxqHxvT9ZZu7wxF2gQy-5bpKal2p2'
  lat: 40.115838
  level: 6
  lon: -88.241338
  name:  'Illinois Terminal'
- ap: 5348
  img: http://i.imgur.com/5j1qaiT.png
  lat: 40.537116
  level: '?'
  lon: -89.35723
  name:  '435d44bb31a54db5b2a0d7acae9039d8.16'
- ap: 5348
  img:  'http://lh4.ggpht.com/tLO2wjyCgyune3KDOlQMV_oiDRxVsHqO1gAG_0xs9TvKOiuWRVmJcO29WI7jELxoxncaXpy91kMa89Uj65JVNw'
  lat: 40.11784
  level: 6
  lon: -88.24286
  name:  'Kaufman Memorial'
- ap: 5161
  img: http://i.imgur.com/5j1qaiT.png
  lat: 40.275273
  level: '?'
  lon: -88.353476
  name:  '28272aaee3234a039246a4282f96c916.16'
- ap: 5161
  img: http://i.imgur.com/5j1qaiT.png
  lat: 40.342828
  level: '?'
  lon: -88.525765
  name:  '487b3aa9f43e4b18b2b7699b56f0d8e0.12'
- ap: 4598
  img:  'http://lh4.ggpht.com/3gTAX6rKgNjLmBOYvAVTgSPQej5yRF_38uRllp9H4n5N6pvwWo5kDMDwlIkFVPPl30BXPSGAlZ9pO9B4DMk'
  lat: 40.116218
  level: 6
  lon: -88.242141
  name:  'Live Action Games'
- ap: 4411
  img: http://i.imgur.com/5j1qaiT.png
  lat: 41.946998
  level: '?'
  lon: -87.639407
  name:  '19acef1b08684397bf268a34e9bdbb7d.16'
- ap: 4411
  img: http://i.imgur.com/5j1qaiT.png
  lat: 42.396552
  level: '?'
  lon: -86.283274
  name:  'Kids Corner Park'
- ap: 4411
  img:  'http://lh5.ggpht.com/quR7Kzalr2uxeV70VwLSj7LDpe5ywDhO4LlSp1eTAhoVOCsyWIga42hKlmcrjiGlI3hZd24DWvtOfYe21RM9yA'
  lat: 40.11721
  level: 5
  lon: -88.236627
  name:  'Don Moyer Boys and Girls Club'
- ap: 3474
  img: http://i.imgur.com/5j1qaiT.png
  lat: 41.961753
  level: '?'
  lon: -87.635149
  name:  '6c2507186ab34c85872712308bb809fe.16'
- ap: 3474
  img: http://i.imgur.com/5j1qaiT.png
  lat: 41.946678
  level: '?'
  lon: -87.638965
  name:  '7a817a2d2b8a473e90bb1d0607ebdf0b.16'
- ap: 2724
  img: http://i.imgur.com/5j1qaiT.png
  lat: 39.680223
  level: '?'
  lon: -88.288274
  name:  'f0ae5f8377c046e2b413e075d00bedcb.16'
- ap: 2537
  img: http://i.imgur.com/5j1qaiT.png
  lat: 40.346594
  level: '?'
  lon: -88.761436
  name:  '83592ef62eeb43df9fbdbbc56033fe42.16'
- ap: 2537
  img: http://i.imgur.com/5j1qaiT.png
  lat: 40.273821
  level: '?'
  lon: -88.676394
  name:  'Blue Star Highway Memorial'
- ap: 2537
  img: http://i.imgur.com/5j1qaiT.png
  lat: 40.24314
  level: '?'
  lon: -88.642466
  name:  '49318246285449e19ab7b796855d480d.16'
- ap: 2537
  img: http://i.imgur.com/5j1qaiT.png
  lat: 39.984616
  level: '?'
  lon: -88.263266
  name:  '6fc2b246c1ea47d0ba7c8aaacc073f38.12'
- ap: 2537
  img: http://i.imgur.com/5j1qaiT.png
  lat: 39.927387
  level: '?'
  lon: -88.827943
  name:  '3a93d428514c450199fb8ecd47e5b43b.16'
- ap: 2537
  img: http://i.imgur.com/5j1qaiT.png
  lat: 40.012126
  level: '?'
  lon: -88.725116
  name:  'dc665dcfd2fb45bd9e43f361d8096357.16'
- ap: 2312
  img:  'http://lh5.ggpht.com/6qIQAtIoPbAVQ1O3BoOnGg6gtTa9fd0JIkxt6P1kmSimVswLaPpCRaLEudsNcMfP_kKb4SCE1By1o3lhYevmIA'
  lat: 40.1172
  level: 3
  lon: -88.243745
  name:  'Circle of Friends'
- ap: 2537
  img:  'http://lh3.googleusercontent.com/0hydzoUNO41CcF2qZhlhMbaEgMVFjql3_RSDgrJLVIToqRsqh2aBcAoXsrxAlwXqgTcB1R71HZiHrjq1KdnXgA'
  lat: 40.11243
  level: 5
  lon: -88.235749
  name:  'Fountain at Scott Park'
- ap: 2537
  img:  'http://lh5.ggpht.com/3RfiPeOzF67ubNX-vkwUJ6-EYld6BKuoBernq0_9kOjlIsSPr3saR9FIQzN7uiw7ouF0CpNflOnL0mUj9zbqdQ'
  lat: 40.109452
  level: 5
  lon: -88.229031
  name:  'Illini Hall'
- ap: 2537
  img:  'http://lh5.ggpht.com/1yq3oFq9p_Yl5cUf5h7IEfZPAbae2MT7lA0DFo1DHwPWPZJJ-Ez-2AE2oTzHEHWsEJQVUcUwh3j_d3kOYgDS'
  lat: 40.110095
  level: 6
  lon: -88.22862
  name:  'Alma Mater Plaza'
- ap: 2537
  img:  'http://lh4.ggpht.com/q2L_InMJy4JZq79dX9LLf9XauoaXGOLl7SWvVyD9F_jIgyqpn7SsqHfY9EMYq1SLteTpj0cQDZN4f9x0IuvV5w'
  lat: 40.107273
  level: 6
  lon: -88.222942
  name:  'Tryon Festival Theater'
- ap: 2537
  img:  'http://lh5.ggpht.com/o-kaBPu6kwiDnL2T5S5uQNOaquEtumPFT9hq4jX9uRcqpMRXMO4B80QO3gskaj677koefR0kBxjAnWHs6uwL'
  lat: 40.108675
  level: 6
  lon: -88.221303
  name:  'Levis Faculty Center'
- ap: 2537
  img:  'http://lh5.ggpht.com/YocRb1dDCcpm0U8keXOUw8027b8CDe6BEVz67_8upRGTD4LmkMdcszz7gGWAnWWHrPD-fgNmRRVukdg-s5u8zw'
  lat: 40.127387
  level: 5
  lon: -88.18759
  name:  'Judge Webber Park'
- ap: 2537
  img:  'http://lh3.ggpht.com/4NvHbplhArQJrKIkJMw4Ia0q_OtktXP-jC6FtPlgn6V49hv8LJbu0RC2ff0eTy3bF3ihXL12v5CPGwvlRNBF'
  lat: 40.127538
  level: 8
  lon: -88.199119
  name:  'Perkins Historical Site'
