- ap: 14529
  img:  'http://lh4.ggpht.com/HEEvU2OlgWiV5huAu3cvNKaI-C8YKYTO3qB8WMTO7EbsjTO84KS6jLjbGCq7THZq6l63UiUKCSEqY2IADYns'
  lat: 40.091766
  level: 8
  lon: -88.250003
  name:  '"The Cranes" at Fox Corporate Center'
- ap: 11905
  img:  'http://lh6.ggpht.com/tenpgw5pr4OCsrdIgmmHP_sx4RHH2ywHdbNxw556d5JpHC4u64HFYqCdRSeAJgfTN_7BcUv11v8NtBdlaUV8'
  lat: 40.100717
  level: 8
  lon: -88.243989
  name:  'Rainbow Garden'
- ap: 11533
  img:  'http://lh6.ggpht.com/yjfa0jJLjsfLRf9Zn9iafMp3MuIhgCi0WiOCF8GqTGiGvzEnsPGrFa0H1n-uzWhVehLbt44ShthsA32VzHd5iQ'
  lat: 40.099737
  level: 8
  lon: -88.251157
  name:  'Tyler Van Atkins Memorial'
- ap: 11155
  img:  'http://lh3.googleusercontent.com/enpZZ8JRREFPTvYd3jbeUlpS-mmcwKe5fsvoWRPkfMUj6PijyI-5tbR55UItBoNJAFSl9fAAOvXb6BpWCJT4'
  lat: 40.102495
  level: 8
  lon: -88.242132
  name:  'Nuclear Physics Lab'
- ap: 10968
  img:  'http://lh5.ggpht.com/oCw3ZC6UKF3aiK6dkbz72dhzUsJNhOmfVjVsXJET_YP5e1p53pLTa8Dep24gLqeY9FghWE0kaAB64vvn7nq0'
  lat: 40.105008
  level: 8
  lon: -88.243265
  name:  'McCollum Park Peacock'
- ap: 10781
  img:  'http://lh4.ggpht.com/-2q6p_jcZ5xVswdwpO98pGsMWXnqxUlsBmhWA2F6xs0MbwejV7FTN7-kHSb4nlsfg3uUsrvdDmUM5v1lQ-Ia'
  lat: 40.086252
  level: 7
  lon: -88.249351
  name:  'A Lady Waiting for the Bus'
- ap: 10596
  img:  'http://lh4.ggpht.com/MvwoDsxwfyNLHzfGkFJl-4VFeX7OvqB0hsMCrZ2D9Olh8GSghAJDfFfDh7a7cOtMIGwEDMyesZoKvKCXAGj4'
  lat: 40.116553
  level: 7
  lon: -88.242268
  name:  'Esquire Lounge'
- ap: 10407
  img:  'http://lh4.ggpht.com/mlUN5QXAR7rKFvUg7yhxcae3udkR7zCJVaWt5sq_YA47piV6tRi42RNN9fEtT_FafT7lhqg26WM1VETbz5E'
  lat: 40.098239
  level: 7
  lon: -88.25376
  name:  'Hessel Park Christian Reformed Church'
- ap: 10407
  img:  'http://lh4.ggpht.com/vKgqIecJshMQxrhO-ZhMjcIyARuJdyU63wKfzAG0wouZex6LVzO46Qi5zM1N3Jx8xyantDFk9sQGsSEBhb-y'
  lat: 40.101327
  level: 8
  lon: -88.251412
  name:  'Zeus Memorial'
- ap: 10220
  img:  'http://lh5.ggpht.com/tfAfnmo6mSMc6U0P533NMFJRGwn6lasmx-MLR2JJg1QOizMKkghFU8E7hb2zgYgdQEbgnCJUlvZIMdrrJe4'
  lat: 40.100822
  level: 8
  lon: -88.25193
  name:  'Seeds of Kindness Bench'
- ap: 9846
  img:  'http://lh5.ggpht.com/C6wRSaEWO1NYGY5luyYZKHG3Z3aib4aflaPdV7B9G6N6adE890g3QuPRSvCUhsdFHqjoVUjo27mfz9WsjXyuhQ'
  lat: 40.100521
  level: 8
  lon: -88.250864
  name:  'Gabriel Patrick Maxeiner Memorial'
- ap: 9846
  img:  'http://lh3.ggpht.com/rUgM7jkTqL0VHxvsSW0yWuNJF5UrU62ITflghfn4PfKjn6L4WGz0ALkv98fc_q9dmK9SSpU1PXIawGvcRwE'
  lat: 40.098246
  level: 8
  lon: -88.251974
  name:  'Hessel Park'
- ap: 9846
  img:  'http://lh5.ggpht.com/aeGh3iXJqJ7skg-2JHEpngMSfcp1qDIEPoLMxzQNqbS5Y7HcxN7oE789bXiVFoFIcdCn7-3AhLPtxT_WE2E'
  lat: 40.0985
  level: 8
  lon: -88.248681
  name:  'Siti Sculpture'
- ap: 9844
  img:  'http://lh4.ggpht.com/XlTZ26_29c4-74t23p1lgghqNfLI7aS3_kradmcl7vVQzV9jJRu78D1HdzJf-sWibnak644kxCBJDnA594PVaw'
  lat: 40.092849
  level: 6
  lon: -88.251586
  name:  'Boulware Trail'
- ap: 9844
  img:  'http://lh3.ggpht.com/swF7asGHDD1L9hslewSBg2z-tocpd_HXkIYuOmz739SWxCj8KBqf-kcOPOFPoE8pLXKDxR6Z8jAJ8Kx7Fbnc'
  lat: 40.089334
  level: 6
  lon: -88.253652
  name:  'Mattis Park'
- ap: 9659
  img:  'http://lh3.ggpht.com/VLipBehsKPCp8ewQnBV1ZCz7uE75zcY46iGDyFfFHgX1o55t3DONb3wcBcL5RMYSqABRK0TgIW3DluNy8y6WaA'
  lat: 40.101131
  level: 8
  lon: -88.250539
  name:  'Hessel Park'
- ap: 9659
  img:  'http://lh6.ggpht.com/5CDidk0pqfUtSW_Yqouuf3diX8drdMu9DoT728QpSz8q6A-WxNhT0yLcgM_7gGpyIAeXrHiTkIzzaVJFgnN9WA'
  lat: 40.099852
  level: 8
  lon: -88.251947
  name:  'Our Friend Tim Palmer'
- ap: 9657
  img:  'http://lh6.ggpht.com/f3cOUn1gqLkJZQzs4-Y9j6j2ZXbb1Kmzf3klCFzF8zmFSlZZ-B6O4-5t1KIX95jbYUjeqMgOohEf1ilF75Uqyw'
  lat: 40.132777
  level: 6
  lon: -88.287351
  name:  'Parkland College Prairie Restoration Reserve'
- ap: 9657
  img:  'http://lh5.ggpht.com/Q32BPmFRIQYqXI5gLOV9ifHvFlGdyD_yws2172-sHnSZ-StunhCM0Abqd9rBWSaKBWN7RPpa1h-nok4Mc23i'
  lat: 40.101062
  level: 7
  lon: -88.249275
  name:  'Narayan & Shanti Achanta Memorial Plaque'
- ap: 9470
  img:  'http://lh6.ggpht.com/hPutcAvS7zQN-tagfEY-fvkvdlgj7j5sZwUSLY883Twc7tHyslIAp7lzWYciJmCytDfsbFQtavAlzqGwCgFZkw'
  lat: 40.105562
  level: 6
  lon: -88.234991
  name:  'Acacia House'
- ap: 9281
  img:  'http://lh6.ggpht.com/CNYgRYuSUdbcdD0c5swcKnijf_aUAm4MrRE5ywl5AvGV5jc7gZOIjqgvq2z4zZFXYffjzJMYV-RxNg2RrgiV'
  lat: 40.094514
  level: 7
  lon: -88.218612
  name:  'University of Illinois Arboretum'
- ap: 9096
  img:  'http://lh6.ggpht.com/pYay9oPZwUNKfLdWJ1JMI5tA9-Gd0vsBddLTz7fXN6wUW7F23hLMWRwFZNnXyomRkc2f9sqCGMxNWuYHPFZx'
  lat: 40.109142
  level: 5
  lon: -88.228748
  name:  'Kappa Alpha Psi Plaque'
- ap: 8909
  img:  'http://lh5.ggpht.com/q-mJ2EvrjGn2PfbBh3Pl3XIGUyzTqxGjZmTMhn3k9_2Qi0S2hs3k2ZvpKb4kvt60AXHiyQdxqft5ZecPcg7x'
  lat: 40.098959
  level: 8
  lon: -88.250141
  name:  'Bob and Wilma Tinkham'
- ap: 8909
  img:  'http://lh3.ggpht.com/sisvfsphxy7AK_2qrrqb7lNJk3_7ciHSVJyodINYITBc-UqugyNOooCxKupgJKEg5m_x95eZwouSO2WCmN60ew'
  lat: 40.098579
  level: 8
  lon: -88.249603
  name:  'Chef Ra Memorial Plaque'
- ap: 8909
  img:  'http://lh3.ggpht.com/KzADjdPRAvwycpfTBdAeDwFJ0AxZJG2dPmbPWkXq55QLV9PfpJ_-DsXWIlVgsISUApRdJ5cAxRWx0k0W2hI'
  lat: 40.09979
  level: 8
  lon: -88.249107
  name:  'Jerome Cook Memorial'
- ap: 8909
  img:  'http://lh3.ggpht.com/GXyi2ghi2DR3h7uIHNYiEZPYixRhDo7LO0WHQ0PyEzb-150r7ar7JGeVjUoPuObC-GFWf22UWqnYCMtED0M-'
  lat: 40.100341
  level: 8
  lon: -88.249937
  name:  'Alice Marie Weber Plaque'
- ap: 8909
  img:  'http://lh5.ggpht.com/6MHa8mHyPoZr8QcAXRVJp6cTJ-Besa5bB801GzhlToXL5ff4Zg6U6VtnrbMINQ441jCzYNZDWNxHIBtf7VXvVw'
  lat: 40.087719
  level: 6
  lon: -88.253446
  name:  'Milla Gross Memorial'
- ap: 8909
  img:  'http://lh5.ggpht.com/EaT0PxhOud4vjm0kHYMit1zq4b2aTjV4M2olWNI-rM0oUVFeEI4kgeWGcrbk_EvcGBz6hwrN_wYLDLK3CUBi'
  lat: 40.088861
  level: 6
  lon: -88.251811
  name:  'A Flagstone Garden in Mattis Park'
- ap: 8909
  img:  'http://lh4.ggpht.com/vxjetUOC6_S8Ru3Q1ivzG4NE4bAAWg7_opiMwStExCoUHiRaIab8NyXLypEOAo7KBtsRQRzJX-TimhsOlBu3'
  lat: 40.087121
  level: 6
  lon: -88.251406
  name:  'Amdocs Shelter'
- ap: 8907
  img:  'http://lh5.ggpht.com/THzk1iE4eBFdHkEgW_OGBWS54BbJw46faUZQS1Ad_IROHGgmVaXrphXJuL1O8N9k4G8_jaDT4P9tmLxMNi0W'
  lat: 40.131713
  level: 7
  lon: -88.29276
  name:  'Campus Solar System - Sun'
- ap: 8907
  img:  'http://lh4.ggpht.com/zZ2YpVpDiI1KdIQ9iI7mGJD_VtwFztJ4ZF1vRehD9OSnQ2K3433SIg22svwcqDJVfeO2fjE3fdT4eHAJWGpi'
  lat: 40.104339
  level: 7
  lon: -88.234788
  name:  'Pi Kappa Phi Fraternity'
- ap: 8907
  img:  'http://lh6.ggpht.com/y10QgRCNt0Bsefqp3olKgJp98whQkS0-vWqPskj3421hcSq96BG-b_KROqsO1mBEcNiYtAKhXuXG0EV0eaUW'
  lat: 40.107152
  level: 7
  lon: -88.235244
  name:  'Bromley Hall'
- ap: 8722
  img:  'http://lh6.ggpht.com/qSCp5fQMlyCQ-GOAgiSFy5gaHJei705Pa3eOlJiYO5wGjZTYtjA8q7QWWfAWcLKjxZSaFiMfXOPR8SO7rWU'
  lat: 40.099353
  level: 8
  lon: -88.251876
  name:  'Raymond B. Cattell Memorial'
- ap: 8720
  img:  'http://lh5.ggpht.com/_9uqsDQROIwqIhKx_URY4DdZAapoZBEWK6Eaclt5mM5vPsjwQAD-v8Bv-4b-Smq2F8X4zOgzLx2KwySkFWc'
  lat: 40.118448
  level: 7
  lon: -88.25211
  name:  'First Church of Christ, Scientist'
- ap: 8720
  img:  'http://lh3.ggpht.com/_K7sIxE489M-QkUoRrgaLB_XBi9BcOI563VzvhOcmhjwHsLO51ORrhkiWZkqThKNBlPAYzclT_qdR_sGe8g'
  lat: 40.114277
  level: 7
  lon: -88.238879
  name:  'Prow 2'
- ap: 8533
  img:  'http://lh3.ggpht.com/DpFBT6YsInBvoo-6DUZeryDpITUgNnrw3j-iMPdeg6S2h9pL4DSqJLbMzsMqmLRwgJKLHa-xMVjHKDoSqwE'
  lat: 40.089107
  level: 6
  lon: -88.251579
  name:  'Donald M. Decker Memorial'
- ap: 8533
  img:  'http://lh5.ggpht.com/hjAc940kWyt9QT4G_BJyJKaTef3jL_Njnm8ubUtQD7u6qVsD9_7TiJbgZpKeqAv60kNw8FYspVxkn-Bt1cxYBw'
  lat: 40.109959
  level: 8
  lon: -88.24318
  name:  'Mini Park II Sculpture'
- ap: 8533
  img:  'http://lh4.ggpht.com/Nh7M4_i-advmuf0RWReev2TeUAZ57VTRzcf56-U_TuHsKcjIdqXGvbxpOccEx1CaYHKzGwI9mZVmnLdmhryGng'
  lat: 40.115557
  level: 7
  lon: -88.239009
  name:  'Honesty Best Policy  - Vernon A. Roland Building'
- ap: 8346
  img:  'http://lh6.ggpht.com/NMgUdPOdhvhvKZh7ugwXgybshZBZ2mkaEWMNKYdFPX6cfIYENSCqE9YpAXSNVuq_9VVWXJB-ShCBAPfF2Yvs'
  lat: 40.102513
  level: 8
  lon: -88.243679
  name:  'Robert Hosier Memorial Garden'
- ap: 8346
  img:  'http://lh5.ggpht.com/_gJqtOHLZ9UHsmd_iLjxMsPw5eF5YzqE63qEAzURvSp_3OL9ZrPjM-usiUeYx95b7zTdNodab42cQiyiRRja'
  lat: 40.087835
  level: 6
  lon: -88.251299
  name:  'Amdocs Shelter'
- ap: 8346
  img:  'http://lh6.ggpht.com/9IW6Hm5bd65CbdAqPB8OgjAYQoF7CaPE37U44dbXIYzTWE7ulgSEzfxqVTOGVqCglU_0W2iHo9ZjRqRefq27'
  lat: 40.116904
  level: 6
  lon: -88.249558
  name:  'Gerald Guest Memorial Tree'
- ap: 8346
  img:  'http://lh5.ggpht.com/AsiP7X99phJsAWWLusxVx9jztxrqq-wjSe7AQS2KrK6muMt4sB3UIjlshPNUA13BR-o8cX70DxvhbxODvrY'
  lat: 40.087526
  level: 6
  lon: -88.253714
  name:  'Plotner Memorial'
- ap: 8159
  img:  'http://lh4.ggpht.com/Gyz7BDhWdUinBQfD8duByX5-aBgPmB9oSesH20dH8uGJnTiaIHkeRJARtH6YQUUD5A5X2IjPTlT989AfutNc'
  lat: 40.092773
  level: 6
  lon: -88.250951
  name:  'William C. Fox Waterway'
- ap: 8159
  img:  'http://lh4.ggpht.com/S734i_6SihPtJW8WdegLb3gEuKeNx8e1qDm6CXjREzYHohw7XqL82m4EF2K5nS2TixHweLn3EuJ4YoQnrsw'
  lat: 40.107751
  level: 6
  lon: -88.231532
  name:  'Graduate School of Library and Information Science'
- ap: 7972
  img:  'http://lh5.ggpht.com/fDRifvVcFT_dKhPuNBN4rR9lNHL0Q6NvbMnGr2-ZdiirR2rJrBcWRi4vyM3-DYNHymUs7bWchaWRaUtBpg'
  lat: 40.098541
  level: 8
  lon: -88.250389
  name:  'Dennis Robert Costello Memorial'
- ap: 7972
  img:  'http://lh3.ggpht.com/lzCSS0_tjwUV7JQ2fgLI0e05IrzPxlVUs-6aEPOwUv67IanQJSTi71gkw0SGm8asmoE_r3Xoh048Fd9xRpE'
  lat: 40.099169
  level: 8
  lon: -88.251419
  name:  'Lyman Larson Memorial'
- ap: 7972
  img:  'http://lh3.ggpht.com/G1CvGhpethi5UmprDWxZN9rTblHa3anSsQz1UPgJtkREkfN7lDFoxFObst0609Cg5mofuZxJKr0ddNKhY4VL'
  lat: 40.098464
  level: 8
  lon: -88.251426
  name:  'Ruth Haasis Memorial'
- ap: 7972
  img:  'http://lh5.ggpht.com/yEiiHAgbSW12_Cpdb0_ksVrjWt6yb6BFtEwm3wjzPJN68wl0QhkI_oaTXxM__Dud8x9jZitaHmpZHZNxDHrD'
  lat: 40.099056
  level: 8
  lon: -88.249136
  name:  '"Cricket" and Bob Barger Memorial'
- ap: 7972
  img:  'http://lh4.ggpht.com/PHV-1ZpFzCAl_ViCKwBY_x2pIDbVyaT7wJH1sTvFJCxrSdRrO1x7NaXq9OdRGwz_Mls4iwk6wuGHMBArfV54'
  lat: 40.098688
  level: 8
  lon: -88.25063
  name:  '"New Holland Yellow Dinosaurs" at Hessel Park'
- ap: 7972
  img:  'http://lh5.ggpht.com/T0WLAJf0s4nu2Phxax31eu6pO6zNoA4JpvHMLyfMKttzJALEWB8EAWOziQwgjdWE3YjBbG1XjGYsgihqCSX9'
  lat: 40.100414
  level: 8
  lon: -88.249061
  name:  'Randy William Auteberry Memorial'
- ap: 7972
  img:  'http://lh5.ggpht.com/4DJAFPeZ_w65Km7VDnsbOqouQaeBuPuxA0KHPQToT_B6o1hBxzdu3kn89UhHgv22Ygj52Fx9QqcbzOytuw'
  lat: 40.100078
  level: 8
  lon: -88.250683
  name:  'Brian Clark Memorial Plaque'
- ap: 7972
  img:  'http://lh6.ggpht.com/BKeORacgeVrG8XzxTuXmpq5UxomWpK-I2n7Xy0PVbdSciNx9MJl869TcibnFIiV5PJHGv5R3QOpX6ZgLUwU'
  lat: 40.099706
  level: 8
  lon: -88.250065
  name:  'Lois Barham Memorial Tree'
- ap: 7970
  img:  'http://lh5.ggpht.com/BoAN9OSCH5u7G1sestzZaXjjik82i-SteF6-r5KTTyl530q9H5G3ibjJdqpGGY-nL8MypRXn2twwvn_y5nMmug'
  lat: 40.133159
  level: 7
  lon: -88.28778
  name:  'Campus Solar System - Saturn'
- ap: 7783
  img:  'http://lh6.ggpht.com/HvC073U-qgv-Zdd0zHS5_UQsybUORqZiuhnRY5V1bWxlRPwBG9564LEVab8tUebtP8OzNkBVp3K39WZkahjw'
  lat: 40.118119
  level: 8
  lon: -88.24714
  name:  'Police and Firefighters Memorial'
- ap: 7783
  img:  'http://lh5.ggpht.com/kElaGOaV9aI8SrnM1D65gx9J0Ky1AKrN9Yo-pXVmDhELt2pee4MwVRiCqCmlqWzUWj5pS33GnEzAiXmiWKsw'
  lat: 40.108111
  level: 7
  lon: -88.229625
  name:  'Illini Sports Mural'
- ap: 7596
  img:  'http://lh3.ggpht.com/0IkSOblVdAgYOJ2Bk2QqvqWjdstWNQgp7g9oSz1Sq70jG6cLusjwYW76irF9h-c7cafatMcyGsjw85xwYgPQyw'
  lat: 40.118353
  level: 8
  lon: -88.246658
  name:  'First United Methodist Church'
- ap: 7596
  img:  'http://lh5.ggpht.com/xcqe13f85fuXohGUUBZkNrUU1PunkcZ6xMNmHpAp0GJBtydVqCCGj5MqP3Uax4M7Qq4JzDFGqICFrFb6PNEXRw'
  lat: 40.08932
  level: 6
  lon: -88.251883
  name:  'Boulware Trail'
- ap: 7596
  img:  'http://lh4.ggpht.com/aXG2XQNJXyPDBz0o8tyfv07VIfskZuFMOWW2ylZpZKkWMnFjoiBmBiWg2VedsjdIorpfX5mtUGnwVLFb7Ga6'
  lat: 40.091438
  level: 8
  lon: -88.25077
  name:  'Fox Development Corporation'
- ap: 7596
  img:  'http://lh5.ggpht.com/FeahTnHcc-Tb0sWOd6cQiYz5QrczzT5-Behz0KlyeiGyzYhvAlNlhPI72BVkREal1tU_4g4r2UklF7lcQgKr'
  lat: 40.087292
  level: 6
  lon: -88.253528
  name:  'Agnes Sweikar Memorial'
- ap: 7596
  img:  'http://lh6.ggpht.com/q48Oqk2mm3dXQ2ppK-aYGXKjIiTAOEZfrFkiLK9LXRz2uN9hSKihKeCwfg33q1Z2zMTIMjqJRjPA1U_V3pbR6Q'
  lat: 40.104417
  level: 7
  lon: -88.231962
  name:  '1926 Sigil'
- ap: 7409
  img:  'http://lh5.ggpht.com/X-Tq3QbQ3JvCApWIGFxRwDJId7aLa8hY_ka0eU3QySTcZBgXcbPC4UXEQ9VVMsA-dYRxGqAdCotw-q7dby8f'
  lat: 40.088412
  level: 6
  lon: -88.251667
  name:  'French L. Fraker Memorial'
- ap: 7409
  img:  'http://lh3.ggpht.com/lSr_gDGX9o1BHZX9FUPCKAO2VVQjZ_NwTBaSNhNgjVyJ2p6BnLDByC_vIkhu637-W5nKMW2SShi0gXOlXNqY7A'
  lat: 40.097979
  level: 7
  lon: -88.247785
  name:  'Jarling''s Custard Cup'
- ap: 7409
  img:  'http://lh5.ggpht.com/jz0XvZSSYKqKSa4lJDK-rludOns_o36jZ8ZTzfEr42piZamiTjSASTLdII6pkxgjZgnCwKirjhEouS77BPB8Dg'
  lat: 40.094288
  level: 7
  lon: -88.248914
  name:  'Boulware Trail'
- ap: 7409
  img:  'http://lh3.ggpht.com/NfRR7PyM2-UNoQGKgRsf6sUZdUTMp0sWqha9caVs49hYb0AnT9OznQX0dQGxKJNP6KiHWJ0WRUMSQh1m4-rwvg'
  lat: 40.117976
  level: 8
  lon: -88.245082
  name:  'Robeson Building '
- ap: 7409
  img:  'http://lh4.ggpht.com/GO8F5d9Gz5q0tize1_1NxJ51SfmjJESFilw1OhfyI3I0RcdLFN2uKHr8prPX1KAdmabYL8PNJNjyqlgn7r9o'
  lat: 40.117537
  level: 7
  lon: -88.249445
  name:  'Buerkett Family Memorial'
- ap: 7409
  img:  'http://lh4.ggpht.com/aFcisvUEjvw8cW_JZB2JIOpPXr_cWq9tGzjT65AMZfaR6Dwevg8S6dfNMTVswut9cKOr9-SCQdSqoOnQ4c1Q'
  lat: 40.087914
  level: 6
  lon: -88.253489
  name:  'In Loving Memory of Robert and Elizabeth Grubb'
- ap: 7035
  img:  'http://lh4.ggpht.com/EN7YTfA2hkKHBgucyx2FudbTwod0dGUfuekb2VFLAjuj-emNpWEKKgAPi1SN_vsdkbJblYOm5aYiA7MF8CA13A'
  lat: 40.116655
  level: 8
  lon: -88.24954
  name:  'John Patrick Sherlock Memorial Plaque'
- ap: 7035
  img:  'http://lh4.ggpht.com/PfcTU4XsA06ThtmCWydIWhTsN3gR4jrqnrKxu0O5lhyibhRdKMEaf3jM8VNhViF8qLf13b01E71wr_ajxn0'
  lat: 40.118465
  level: 7
  lon: -88.245077
  name:  'Mural at Nitaya'
- ap: 7035
  img:  'http://lh6.ggpht.com/YdeB0EKlsopL39a9YXWj4JBZgXNNLWHgfe4PQzdpWCNWc0fR1YTj8WjARDHnmrusvKWTqKLcGg8U9frhtsw'
  lat: 40.09821
  level: 8
  lon: -88.249879
  name:  'Hessel Park'
- ap: 7035
  img:  'http://lh6.ggpht.com/3o0ObAARFV_8mBVCC_QD0iLOPVzNkakXybhLnSVEuXIJfDLKMxeYj-EkWIw9NPoZIVRf5Dkrid2yf_NEQ-iE'
  lat: 40.100347
  level: 8
  lon: -88.249385
  name:  'Travis Marmion Memorial'
- ap: 7035
  img:  'http://lh5.ggpht.com/CRkkFx_9jq2hCt1HtflqZDqCdmSG5MN88FV0rLXk1PZm7maZWzLTKZhjqlSKUx1Tg0tSB62l75w2VFsyUZI'
  lat: 40.09991
  level: 8
  lon: -88.249899
  name:  'Benjamin Biddle Memorial Plaque'
- ap: 7035
  img:  'http://lh6.ggpht.com/YVbqGVTjJuDMDdj71CP2mWvnUIdgO25PgoDdJwEGnEE_M9I1aDgKyjSr9JOZVU6UQTZQtfUo9RAWyz92n3jtCQ'
  lat: 40.098475
  level: 8
  lon: -88.249208
  name:  'In Fond Memory of William Moore Jr'
- ap: 7035
  img:  'http://lh3.ggpht.com/J_h4tdb4wqy8bmmQfDuy5yqTR2IlkzKojfvsMOvlD-3tf1pKxbDlhA6W9Q8RX-JaSxhItMr4bmCxiUQXTLbz'
  lat: 40.10064
  level: 8
  lon: -88.24958
  name:  'Edward A. Cousins Plaque'
- ap: 7035
  img:  'http://lh5.ggpht.com/N1cFx79JwZqPlYPDW3HkNwRX8N4Auriii45qzYkAx9l-cKeK81qgZ6nuBpTBEIOyLzy4aIIhQKt2E7ZiysSjkg'
  lat: 40.10036
  level: 8
  lon: -88.250515
  name:  'Mark Foutch Pavilion'
- ap: 7035
  img:  'http://lh4.ggpht.com/4LxsGZZMk3DnpJXUvqzrL54CHSP5TDXjUnDJyHmCCTtCJIjGEI7kxT9g4uxfSPh0X6yGLgQo1jfqbu7B8VEr'
  lat: 40.099084
  level: 8
  lon: -88.251826
  name:  'Irina P. Stewart Memorial Plaque'
- ap: 7035
  img:  'http://lh5.ggpht.com/3t7XZHqwxLZ8Lc9YomR8FInm74U2PAA-DBk8kmdxXIrcXbKa1CoBDTlgdDJeO-_yVT3qNKRnNLzbdil1eH41iA'
  lat: 40.09935
  level: 8
  lon: -88.249766
  name:  'Jim Bickel Honorary Plaque'
- ap: 7035
  img:  'http://lh3.googleusercontent.com/awNe0JGlWWAtHv9iiLcqQjVyppWY-io4ybTL_ir2ZKsMLJgkZcW4rdUAuDjOFdWQvIcp5jlTWiROgHANh1Y1'
  lat: 40.087822
  level: 6
  lon: -88.253161
  name:  '"Ice" at Mattis Park'
- ap: 7035
  img:  'http://lh3.googleusercontent.com/vJ_iyOb44eFzOJUNpRouOPDI8rKgOESn7TWw9U9BR3OcWsb6Oak-SSfVH4iPPmtXJdk30rqet1D0KxVohiBC'
  lat: 40.114712
  level: 7
  lon: -88.238392
  name:  'Mexico Mural'
- ap: 7035
  img:  'http://lh3.ggpht.com/aiChar0HYKb_3M9or6hd38rkSeuoh1TUUL4LtW726Z-JKNYpIttW_3dFH4DHDYGBAkxkwBiz5Ye8_zqttsgs1A'
  lat: 40.092797
  level: 6
  lon: -88.217182
  name:  'The Ponds at UI Arboretum'
- ap: 6846
  img:  'http://lh3.ggpht.com/ahylfFHnKd7tl8EDQopVPlqhdiJblx_p3TWsELUFACXM_9qS9N8agb-ypr7EOOemNFMUrRGaUQ23LY6F1ssb'
  lat: 40.095094
  level: 7
  lon: -88.257764
  name:  'Faith United Methodist Church'
- ap: 6846
  img:  'http://lh6.ggpht.com/uaO1clC1eOzxRVRPPU6mVM4lEPV2U6uxh64a8kJNRglHSObClWlHGEcfJTknzwB_7Wli3doxQJbZKiBHIXI'
  lat: 40.102834
  level: 8
  lon: -88.241672
  name:  'Rehabilitation Education Center'
- ap: 6846
  img:  'http://lh4.ggpht.com/H1kV6JSczzSbcCblAHg5ZOgITW1mBAz0_oLbqbzxBlijGTBn7TP6KwA6UI0AAGrCN4VF0DAF79Vcj6_2R4dsB8LRTq6tud6v'
  lat: 40.107753
  level: 6
  lon: -88.228913
  name:  'Zipcar-Wright Street & Daniel Street'
- ap: 6659
  img:  'http://lh5.ggpht.com/auV57ljlnFqueFTLTeFUjp6iIJxsNFs7P_alBDZ2FNvEvUPvRMBhZCrgQOVfMPf7RIyYAHZLElyAiVoJXCFYkw'
  lat: 40.135716
  level: 7
  lon: -88.291946
  name:  'Campus Solar System - Jupiter'
- ap: 6659
  img:  'http://lh4.ggpht.com/0UzQDuaKLiiPhEgEmKghfkzvXj6lROhxPIDJuI4nWLJFvdxJwGNcJZ1va0K_9cy4L2u0Zyeqv_qlIAwch5o'
  lat: 40.133475
  level: 5
  lon: -88.293988
  name:  'Parkhill Applied Technology Center'
- ap: 6659
  img:  'http://lh5.ggpht.com/Sgu5qG2Ltp9axQc8nEr3fJ_qvNo6-gwd5TuKMrk2LM9d5P7DDy0oCoWiGnr6Ybp84FGMh9DQYLnFtBTZtBIm'
  lat: 40.113606
  level: 8
  lon: -88.243766
  name:  'Mural on South Neil St.'
- ap: 6659
  img:  'http://lh6.ggpht.com/sASzuKZleVbY8UGdZnFzs0GXiOHosiNDf-GldJNSs-w2k410HzHcqBrjuvNoklKZ0G4mwuhXmvFPOMlrFXRZ'
  lat: 40.085468
  level: 6
  lon: -88.251369
  name:  'Mattis Park'
- ap: 6472
  img:  'http://lh6.ggpht.com/PrKWQe_StHjP7QQeyxlKiMSxAelIQlmbHzFMejewhMdVT0J-uvMpZCUGvQy_dZfrqfDnkmrIZYWkZORSGrnp'
  lat: 40.088449
  level: 6
  lon: -88.251396
  name:  'Boots''s Garden'
- ap: 6472
  img:  'http://lh6.ggpht.com/ZB8W5NNUt_ghaLF4gE_7_e_uguOocj1k6qCQvq2eAsayVQyZFUsUA3H5SFkHOwg20GluChbe2MSO_xWoB0bk8g'
  lat: 40.11813
  level: 8
  lon: -88.247413
  name:  'West Side Park'
- ap: 6472
  img:  'http://lh6.ggpht.com/xQx5BUJcAI_QUroJGe77pPkgV7s_ACVui8PXvCyvmehuDvenmRIvKBGeevOacNR6W3pLMMSh4sVrvXm87QeN2eylsZEtz7pxB-CMvzLmH1WyVZ16uw'
  lat: 40.11786
  level: 7
  lon: -88.248031
  name:  'Lincoln Megalith'
- ap: 6472
  img:  'http://lh4.ggpht.com/vUhKhmK0pteJi8_0n25xIa4EpgpVSS432OxXv1UQBDLjju5SEGcm_2WWl99OUPtDyNLlXirJu--KDbCoYjM'
  lat: 40.08956
  level: 7
  lon: -88.257733
  name:  'Good Shepherd Lutheran Church'
- ap: 6472
  img:  'http://lh5.ggpht.com/BkbaZlRlq44d6DiMOVuIlrel2Hsi_RzzHhhdmJH6BLzJk5RKxAcvh2mMd93BFhKgTKLk-yZsNLTaJiTbZsk'
  lat: 40.086686
  level: 6
  lon: -88.252282
  name:  'Elsie Mattis Springer Memorial'
- ap: 6472
  img:  'http://lh5.ggpht.com/WtLGJ5PPeFPGSKegRKCurNiGVHvfV53LdGHbVkCfDXxVvUpneEqngOPUTZJgZL4RdA1_YVGUXlpWs0ZDr6OH'
  lat: 40.086378
  level: 6
  lon: -88.251308
  name:  'Life Lessons from Kimberly Kueffler'
- ap: 6285
  img:  'http://lh6.ggpht.com/WVVbmiu2GGTnPTszcnYYILHKlkZDoxB-QY6Yv7YPoUfdVn92jYnKjpVKNkfWdFrPjq-BaFeKGJWLZlE-bbA'
  lat: 40.120467
  level: 6
  lon: -88.2577
  name:  'Salvation Army Church'
- ap: 6285
  img:  'http://lh4.ggpht.com/6iTxW6HC8WFx3nf6xEGhZryWVxW9NNijqTsEKvcBCBkmkmLZdUjaDHKReKT58cl8RUaCwDCL7pMFmBEyj3Fc'
  lat: 40.117602
  level: 8
  lon: -88.249943
  name:  'Megan Schneider Patel Honorary Plaque'
- ap: 6285
  img:  'http://lh3.ggpht.com/l6drxc16dn91XarTz8Tkkeerjhu28Hf3x7nh-pHe05BLyOA6fuV75A5gB8UdUNt3cRN_eXIHmTE8c5Ypvcw'
  lat: 40.117248
  level: 7
  lon: -88.249929
  name:  '"Tootsie" at West Side Park'
- ap: 6285
  img:  'http://lh5.ggpht.com/NUOCD82iNRGW1NGqEC4FKet1u5_cm4WRNc2c9_YABAjGf6-OSCLz7HgYkP1ZuVAbpMl6Qi10HRW16Oc9jNM2'
  lat: 40.106401
  level: 7
  lon: -88.236182
  name:  'Washington Park'
- ap: 6285
  img:  'http://lh6.ggpht.com/mSAh6wYw-KItnZ6a3rENHXfrC4cNGwgJL-7gf4_JO-Psf_ZIIPXppWlrRi7QN-8SZX4QyXna_0SAY4VDHzdxu4nMS1TiL0fWYdJhp-GQ3O7KHB0pZQ'
  lat: 40.092682
  level: 6
  lon: -88.217865
  name:  'Japan House'
- ap: 6098
  img:  'http://lh4.ggpht.com/cto8Dge7ibAGn25ZzLL8yZnBBKDh1LQFZKt3bJdWpHM-bg7YxYBQIhRKlHpNBvkAI-pEoHohme9DWJim8lp3'
  lat: 40.123377
  level: 6
  lon: -88.300159
  name:  'The Powell Picnic Grove'
- ap: 6098
  img:  'http://lh4.ggpht.com/4_MOw_NKr2wZ2lzAzG2FlLtA3tfOfWqBZpNVP43LfN6ilD6qHRfZ-_wA1Xk8BnCqHKqKdqodC70X09pqtNXXqmNtK-uqo-fC9SZyOjT6ERfJorzg'
  lat: 40.118388
  level: 8
  lon: -88.245358
  name:  'Springer Cultural Center'
- ap: 6098
  img:  'http://lh5.ggpht.com/9XV46K2cUd84oc6HPyqlj53LKJS8lVs0f0gPHSCBkkTwiHaxivu36dlAj5M38EzK-2U4xhvZJ7AiVvGM5yk'
  lat: 40.118175
  level: 8
  lon: -88.244562
  name:  'The Russell Building'
- ap: 6098
  img:  'http://lh6.ggpht.com/n0f7lyo15OzZn5IJHsohIGAA58iioentPZGEY4zeMZCCoX4GjEEkqfaTCIbrx9OnezriThnbFV14kYcwKTgL1g'
  lat: 40.098444
  level: 7
  lon: -88.248167
  name:  'Healthcare Not War Mural'
- ap: 6098
  img:  'http://lh4.ggpht.com/B_I1b0Jy3vW41RX8jjCNPP68AULplU0Pf8ddolyKmpEWCfBVShQkmjF1HfTPzDjmBBQGgOs0jHW-rUR0mv8BkA'
  lat: 40.098789
  level: 8
  lon: -88.251685
  name:  'Curtis William McKinney Memorial'
- ap: 6098
  img:  'http://lh3.googleusercontent.com/Tixp17uCaP682s77UzvCwWCOE6vg7iB2qEFLjACq7xtVJdHE0K3yKYsl3_SwKbiUfQWwgTQRbvfka3U0NvNc'
  lat: 40.098819
  level: 8
  lon: -88.249214
  name:  'Bette McKown Honorary'
- ap: 6098
  img:  'http://lh5.ggpht.com/-UWK84I78Sftf7yg-E2pg6xEAWTvyiThgJBJlxbqOZPYKNmzQ8uGgEEMetzplrG1HpXG5kQqNItUeXKxOHDsGA'
  lat: 40.100286
  level: 8
  lon: -88.251747
  name:  'Tennis Anyone'
- ap: 6098
  img:  'http://lh5.ggpht.com/8zq5tMevCiipZK8N9-8SZw3vdsA2HwH0E02ormQshGxHVZrB2WPK7OPC8zt6pjLlgpXVuEYHVA_08_Q8fPw-'
  lat: 40.099647
  level: 8
  lon: -88.249648
  name:  'Max Overmyer Memorial Playground'
- ap: 6098
  img:  'http://lh3.ggpht.com/VrbXGwlUosNLEkVdshWUFoVa3KtlJQoEU4yLYygvftYbPCmxo644Uvar_v8Kb9RS53hB0tXgvV44GotrxZyu'
  lat: 40.098592
  level: 8
  lon: -88.251676
  name:  'Ruth and Fred Steigmann Plaque'
- ap: 6098
  img:  'http://lh4.ggpht.com/aQomBYYXuWBUbnpgDH92zk4VBmLMOuf5n6WXkMHGTzf1DUlyXL-u4a9ulFUrqE5AO82s_LFM126E-B0HqONp'
  lat: 40.088127
  level: 6
  lon: -88.253036
  name:  'Peggy and Robert White Garden'
- ap: 6098
  img:  'http://lh3.ggpht.com/rlm0tE7Js-ApRSIfi0JxzxMVzrls50Gpr-Dbml7uBn7o0sCMtpiVa81HJc88eD0VlJiuzy9UTBFPebVcw-GK'
  lat: 40.087494
  level: 6
  lon: -88.253476
  name:  'Rotary Club Meditation Garden'
- ap: 6098
  img:  'http://lh3.ggpht.com/-xag7tp3BReTAhfRmVAvpMw1Af15prESg4rve7QnsiIC5IKmKjBszxDIj8F212BmRU1apH_2u_9wAmq58_91'
  lat: 40.114157
  level: 7
  lon: -88.238621
  name:  'Bombay Indian Grill'
- ap: 6098
  img:  'http://lh5.ggpht.com/Zoidr1eUAO2UEM6SyifBpkC3K42Ctl355Krd3S2ZU3BbbIMt1XFKF4C35huJT7a-K1PMF6JCK3ztTnr2Wbc9zw'
  lat: 40.109178
  level: 6
  lon: -88.22945
  name:  'Pineapple Pillar'
- ap: 6096
  img:  'http://lh5.ggpht.com/dRrlHXlT2nMNgZNHiYo52ha9L-Xay9DyOJR2Cpqs74hgAJ09abn9OTAtMzRVedt1_R9ObZllLO98vRhNMfgTgVsJCk1S-HJwX_XgiGpG4lz3a328'
  lat: 40.11671
  level: 6
  lon: -88.24263
  name:  'Cafe Kopi'
- ap: 6096
  img:  'http://lh3.ggpht.com/2bCNiD7SWsS3uzFLMO2cZh-LpHUEMQGnfTmcNx5vJapXho2TuXke630-7zop2Sq4fuY8nWVqy4VCG23mvnIJ'
  lat: 40.104168
  level: 8
  lon: -88.238808
  name:  'Alpha Gamma Rho'
- ap: 5909
  img:  'http://lh4.ggpht.com/h3t9nwbrudSHJ4Ll-zBceLi_U0iwpgbsVd8Wjzy_JgqMiXIqIu4CILUiFnKdayIi0htMXQ5CNowcXO7XUqI'
  lat: 40.13401
  level: 7
  lon: -88.28239
  name:  'Eddie Albert Gardens'
- ap: 5909
  img:  'http://lh5.ggpht.com/QruW49d2dc1uhQlK1BaZIeo6ruDNkqQfmvZz83eQ-1aC9ytGUcpFaHnKRTnXRc70F2EZ0-pVKGr9Slo0_9RfxA'
  lat: 40.139749
  level: 7
  lon: -88.273955
  name:  'Northside Church of Christ'
- ap: 5909
  img:  'http://lh3.googleusercontent.com/W5PjcRhelt3420IFjpSdOXtmIiv0M99Qv9Xupe6lckHDJDW4zHE9GyACkz8wXBF0_OIO2Jex9d7S8UQ4FJLa'
  lat: 40.118361
  level: 7
  lon: -88.244573
  name:  'Art Theater'
- ap: 5909
  img:  'http://lh3.ggpht.com/LunaMtSKD9yiLQClolDY-Iqh0ENm9AgJdL4D1QxGs0j6TXPgqxDZea35x5ilAfeI5_0TGh5x1q1EqRsJsLFi'
  lat: 40.114111
  level: 7
  lon: -88.243697
  name:  'Champaign Surplus'
- ap: 5722
  img:  'http://lh5.ggpht.com/uym8nSsevMrrg8UM6iXqTAyUjRlW1TdnBVLbaPVy4PxonceIo1yyp71x4TChEETc7UVpRVdg6-Gy0WfbV2c7'
  lat: 40.128024
  level: 7
  lon: -88.290239
  name:  'In Memory Of Craig Kieffer'
- ap: 5722
  img:  'http://lh5.ggpht.com/KuDVZqnpBQnne0a_UqpN4wpsQFlw3nVXAWtRKP_AdZ3CjQ0MHUBgU_2hE8hb71h31FTQbduYmB6DNuVKA0s'
  lat: 40.116822
  level: 7
  lon: -88.243445
  name:  'Remembering Horeb'
- ap: 5722
  img:  'http://lh3.ggpht.com/HX3mWBGofQk08Qdp7A6KMK1AnSXlLEPJR-n6oeX69Efiiss29GHsLiDsHhRS5K8DrXh-QXP1T0AMaOsJmx_w'
  lat: 40.106921
  level: 6
  lon: -88.230145
  name:  'University Lutheran Church'
- ap: 5722
  img:  'http://lh4.ggpht.com/bYrhTw8QophdiqDG-upqJ6JX2g2tZYX4N1jC4d_cciIj4ep8oQvIgjJlfge2VCmzSZe9irj-BTpbj9Jcv7U'
  lat: 40.103009
  level: 7
  lon: -88.233215
  name:  'Mac and Diana Garret Memorial Tree'
- ap: 5722
  img:  'http://lh4.ggpht.com/0j8eeTKJgjnYhHpf4qH_70CZHLbujC5v-XP_ndcqh1xIR-5V2K_CGdjIe1ZfMbwvSyISxxYKoZynw1DaQcj8'
  lat: 40.105874
  level: 5
  lon: -88.230562
  name:  'St. John''s Rectory'
- ap: 5535
  img:  'http://lh6.ggpht.com/v2m1E6vVK4ZRaRPhGli7jCsG7xZQZ7I3vV_5AogdEpPU_A1vz9WEkH0vZ-vau2IAdmydYJcXrOA6SMr7vUfT'
  lat: 40.128726
  level: 5
  lon: -88.290287
  name:  'McMillen Ehler Homestead'
- ap: 5535
  img:  'http://lh6.ggpht.com/g4DT6SGoajyo3AEVQR_e1LuxmgdTecqzlqjxrY3qYL6mnr6FHMUAtS6E9ZnWczuWrf7WWRNC0XRF5iVTWdS-uQ'
  lat: 40.132002
  level: 6
  lon: -88.277467
  name:  'Dodds Park'
- ap: 5535
  img:  'http://lh6.ggpht.com/XsUl74M1oxj6ptAvGEBOMH2wivRhxBNns62UJSGcPiQkuJIgPrmUYxMpSZZUfXRMMjrwoxlFK_DbAM78UrOh'
  lat: 40.113499
  level: 8
  lon: -88.244374
  name:  'Shatterglass Studios Mural'
- ap: 5535
  img:  'http://lh5.ggpht.com/UTu16bRRNKyJj2cFsU4mRCMkGJbH7YCAm0gQdiJKjnnZtB00kMEb_-Lhf6AnAXRia4MH6FBrWQGkBCrMUz8'
  lat: 40.120135
  level: 5
  lon: -88.253121
  name:  'Rain Garden'
- ap: 5535
  img:  'http://lh5.ggpht.com/vYay8RKsCV_BP_MkeFm7se0VZoYthm-1pThiATAADleBlTsPowobgZyUoU7DUto6p5cpg9adpCcTgNR6iop0Jw'
  lat: 40.120121
  level: 5
  lon: -88.251967
  name:  'Sesquicentennial Neighborhood Sign'
- ap: 5535
  img:  'http://lh5.ggpht.com/I3HJjY6jOYl6ivwUaejRmReBjka9NyCW1ufaILf7cfo4VGwjX6kNB9J6PlIZCBIuTfI1jb9arxjssMTa_hisxr2ObqDCJ55lCxXFccxme5erNEY2_g'
  lat: 40.116859
  level: 7
  lon: -88.249043
  name:  'Bilbrey Bandstand'
- ap: 5535
  img:  'http://lh3.ggpht.com/5iH9kzVECg-dsKRPYTzLzAT5eoYnDhGrcJB1N-hLShal9eEun1_Ml0oFX2c42cGNjKj8-yvsEnUn2j4C_90'
  lat: 40.11792
  level: 7
  lon: -88.249845
  name:  'Thomas R. Sandrock'
- ap: 5535
  img:  'http://lh4.ggpht.com/1BgYrJYdcGdepVZ6ibhTjtjZ6MyzKnQzLL4wxEnn_CEPnrJmOKHzPXm1qinGRA78MqKq11gKRlprm3Z7mDr0'
  lat: 40.115645
  level: 6
  lon: -88.243036
  name:  'The Art Party Studio'
- ap: 5535
  img:  'http://lh5.ggpht.com/arF148UpHKIzlt5NezBSpFkItJk3gWq__xkPolNCeVTwHNpQNm1rzIwSdA2oAJBPtaLhpTHcVdAFFdHAXm8k'
  lat: 40.118383
  level: 8
  lon: -88.247003
  name:  'T E Berger Memorial Plaque'
- ap: 5535
  img:  'http://lh3.ggpht.com/rm0mJKw5ksUEH6_YQLi-f3uo56Wv-4h1P-Q_Ws61holRtnLG9Qt0NObbSBzDxPm3tvIhWgzHLvftIMBC_5dZ'
  lat: 40.118435
  level: 7
  lon: -88.247677
  name:  'Burnham Athenaeum'
- ap: 5535
  img:  'http://lh4.ggpht.com/DXAAQEV-pW-laeGTPphalYn5MoUFYMOyKbjs7rL1bBgkOlCxtaEH7bLcuvNbiQTWzFZK1ZPcNbwuEjw20-od'
  lat: 40.116869
  level: 7
  lon: -88.249849
  name:  'Don and Ruth Dobbins Memorial'
- ap: 5535
  img:  'http://lh4.ggpht.com/3gTAX6rKgNjLmBOYvAVTgSPQej5yRF_38uRllp9H4n5N6pvwWo5kDMDwlIkFVPPl30BXPSGAlZ9pO9B4DMk'
  lat: 40.116218
  level: 6
  lon: -88.242141
  name:  'Live Action Games'
- ap: 5535
  img:  'http://lh5.ggpht.com/0m1i3CJSj3bKhLj5BgXi8SFpgoihNsBoN6fpccgDU2tjtPcA5BqB1IxvR0yAX9FWkgt3_Q8gbAyGfdJDliGP'
  lat: 40.115142
  level: 7
  lon: -88.238658
  name:  'First Street Antiques'
- ap: 5535
  img:  'http://lh3.ggpht.com/wOZOXhKOnhbKEPMQke-zGIG_vheDkHM8q19B1n_is5H7t1whBcQxBIGZI6VIPNw8mdCNXG6EUZeSjd1YLdngdg'
  lat: 40.108965
  level: 7
  lon: -88.227184
  name:  'U of I Mother''s Association Plaque'
- ap: 5535
  img:  'http://lh5.ggpht.com/tGPCRHNr4nuHRON7RaLcO3CcrRygkmN1XBdp0HsdTAkUF_IrbfmlyzJuqHTZzJonP7RBwdy8c6q5llROUur7YA'
  lat: 40.10975
  level: 2
  lon: -88.225299
  name:  'Methodist Scriptures'
- ap: 5535
  img:  'http://lh6.ggpht.com/j712bbvDknzGlAU87nZA1Bx45Ng-0MGA9Uvuv-3WzIKA3W51mXOZpJ-TzVSbuU3uE2AsJ5wcO7_B6WDpdRr0'
  lat: 40.110684
  level: 5
  lon: -88.226053
  name:  'BCS Superconductivity Theory Plaque'
- ap: 5533
  img:  'http://lh3.ggpht.com/AflEYleLSbb1ODQvIdBOrTrq1Zkk-rgHU4WaHjaZ6Md2zDSaqq8cERAJWcwG1QFkrzGf6gp3oC-DZuLOCDb4'
  lat: 40.112779
  level: 7
  lon: -88.239045
  name:  'Layalina Mediterranean Grill'
- ap: 5348
  img:  'http://lh6.ggpht.com/L2LdCXwXyxkV_ENkb567X8EtQ8713-lEbbpVfOAg4_yiMbHvUnq9u0Ks4DCgqlvRAUMgsoMJJR3RPsup2oU'
  lat: 40.122772
  level: 6
  lon: -88.30035
  name:  'Barb Babb Memorial Plaque'
- ap: 5348
  img:  'http://lh3.ggpht.com/ej9Hc79rnglv03WlxEOMw0g1DQAavAbonJWaENeyKBRbSRnL-KEkhv7XMi9bi1H2ka-91k_lSEGb91IVCh8'
  lat: 40.123554
  level: 6
  lon: -88.300592
  name:  'Jo Ann Powell Memorial Tree'
- ap: 5348
  img:  'http://lh3.googleusercontent.com/oYQaQpOQ2HICancOs0DcaCqX1KiTJEoAeKp6EUWBs5u-TjTKqJlzTSzA0QMldAg6HLWb3rX4m4_cwKwGCtpV'
  lat: 40.118684
  level: 6
  lon: -88.244894
  name:  'Farren''s Pub and Eatery'
- ap: 5348
  img:  'http://lh6.ggpht.com/EiNXerTyRNFVC9pti48SExCtqR9p6t3-Xne_jw2YB90-VjUeJ3KGX8Se436SNVkFb5wOw0N7CKCz9brOeVg6WQ'
  lat: 40.117802
  level: 7
  lon: -88.249547
  name:  'Warren and Mary Filer Memorial'
- ap: 5348
  img:  'http://lh6.ggpht.com/cZVUlNaHjfsB6Lu5hnj8JjUk4lvsgOV7DFz4Nl47-RaQObW1VPRpos6hTDD6WgYrNxCh9UKfn5DFU-K7lRe9pQ'
  lat: 40.1164
  level: 6
  lon: -88.242747
  name:  'Sidewalk Art'
- ap: 5348
  img:  'http://lh3.ggpht.com/-MRGQEVV5mNMzB4sb8JAsgVC56kTzYaFEf3mpRsfXAiO4KIrLw3LGFkt7Au97yDwY-AUSfghHcri53Zpmn-Z4Q'
  lat: 40.11621
  level: 6
  lon: -88.242535
  name:  'Inman Building Historic Plaque'
- ap: 5348
  img:  'http://lh5.ggpht.com/c-upLAoA6V12_Enn5doC2Hqtp3W9dLMIb34VHt0aVni2lW2OF5Lddn2c-1XcxmmaN7um9eyxqOF5c3c0hs4'
  lat: 40.118139
  level: 8
  lon: -88.248407
  name:  'The Americans Creed'
- ap: 5348
  img:  'http://lh6.ggpht.com/5NJ7qgqdGdq2TNgKDadFhTo4SudsgsHoSbhrgyc2axnUeV_4VOo4bzyr40gIwc1T_AvyH47lClwrz_V8Mtg'
  lat: 40.117008
  level: 7
  lon: -88.249287
  name:  'Terry R Bilbrey Memorial Bench'
- ap: 5348
  img:  'http://lh3.ggpht.com/tXDyz6XRrR2AKSg9Rrj1z6jBG4dz7uR9qFmSUO1bWljMEw67ncNiq-2Hx3O9Fs029iRtvCV1gdlGN7pG69L0'
  lat: 40.114104
  level: 7
  lon: -88.237694
  name:  'Lo Park Fountain'
- ap: 5348
  img:  'http://lh5.ggpht.com/1yq3oFq9p_Yl5cUf5h7IEfZPAbae2MT7lA0DFo1DHwPWPZJJ-Ez-2AE2oTzHEHWsEJQVUcUwh3j_d3kOYgDS'
  lat: 40.110095
  level: 4
  lon: -88.22862
  name:  'Alma Mater Plaza'
- ap: 5348
  img:  'http://lh3.ggpht.com/A87H2Ev-nSq_HCpnUCxDLdRG04MKhj9Uap_0Ii4kdUx_db5SwcKhAAOey5ls43XiDLYaw7uYymdNMcsAXfNo'
  lat: 40.106182
  level: 6
  lon: -88.235521
  name:  'Evans Scholars'
- ap: 5348
  img:  'http://lh5.ggpht.com/dzjsWdreD6jZuCG_DDonrZu-gYlDIxk5j3rPzt67sbmq7yWjo9I_Op69SM3fzvlGKnlp8QMGcztFWOhpSe4'
  lat: 40.093629
  level: 5
  lon: -88.216064
  name:  'Dr. Frank W. Kari Memorial'
- ap: 5346
  img:  'http://lh6.ggpht.com/MzDfG6eMMwVr56zIpVxRJKU2aoUq-95CLeBhoiEQQKzpC2zulq5jFDLv1IK0JcRy5Q0PhRAreZ1p2ElsdnNu'
  lat: 40.108048
  level: 4
  lon: -88.226279
  name:  'Nuclear Magnetic Resonance II Plaque'
- ap: 5161
  img:  'http://lh5.ggpht.com/HhVreJipNvxPRVFpmsh2BPo9PcpPO2Q2l3jCpDjIKgfKGycoTNPXR4DKiYccBXW4X-4dJf_vV0ESsWAWHcChsg'
  lat: 40.100936
  level: 8
  lon: -88.250855
  name:  'Donald F. Bresnan Memorial'
- ap: 5161
  img:  'http://lh5.ggpht.com/ENeQgqydWbi9-Oyf7vizunoRqJdsZV4o0RA_956wjGI8hqpTCHBPyWMpbTrrkwYpj5tgzDRvevGmvH4eFRU'
  lat: 40.099593
  level: 8
  lon: -88.251724
  name:  'Blessings from Devon Elaine Cattell'
- ap: 5159
  img:  'http://lh6.ggpht.com/6pMlM7pPsp-5PTNYZ8AJgo5ODURCPJO-_LigeHL2TMhjfK9MS17iEcpQqc89n5gyUdEO8seZrlThTGbKEqg'
  lat: 40.132999
  level: 6
  lon: -88.292808
  name:  'Campus Solar System - Mars'
- ap: 4972
  img:  'http://lh5.ggpht.com/M86zCVcXjmwIC0SQgJ3q_heSiWsj4BJoAcO4SpBWLGzt7XQ3kJMk_1GdLAM_SOt_OkZnGrAEV9_g2KSQCguZ'
  lat: 40.133808
  level: 7
  lon: -88.284367
  name:  'Dodds Park Softball Complex'
- ap: 4972
  img:  'http://lh3.ggpht.com/wkPcdDupubV3THJo6r2OpMtshziiIkqBISPTCPe8boa-8nH33u83Mznkr1yYWNR_l60RCy8HO_obqrdNGUI'
  lat: 40.093633
  level: 6
  lon: -88.246611
  name:  'Fountain at Illini Plaza'
- ap: 4972
  img:  'http://lh6.ggpht.com/yoGdHEqpRRqOE5pA5wHdi_ismU_TrB-kTiqVV63EO630KsU608TIfjLijcqJ38At7MyyrE2urWFMPY1Sops'
  lat: 40.118121
  level: 7
  lon: -88.258039
  name:  'Mini Park V'
- ap: 4972
  img:  'http://lh4.ggpht.com/ryDcZUJK2aQ_fI0-hY850_t4ZmG2hNmtCx7cxbX83w3cnUWdI-ywpTuQrUVQNxGl3_DcxxNr6bupfDTsagRa'
  lat: 40.117107
  level: 7
  lon: -88.242467
  name:  'Radio Maria'
- ap: 4785
  img: http://i.imgur.com/5j1qaiT.png
  lat: 40.312242
  level: '?'
  lon: -88.201368
  name:  '2012 Employee Dedication Bench'
- ap: 4785
  img:  'http://lh6.ggpht.com/rbEeQxbZyvrUu5nCQma0PzHtlA4cmaa9jItLke0b5KBmVlYP0q0d9OYg0_jrSi-8RiYOSdJklSevnYpoyjBWgA'
  lat: 40.118265
  level: 6
  lon: -88.268383
  name:  'Hays Recreation Center'
- ap: 4785
  img:  'http://lh6.ggpht.com/0IsQORyEW-bPA7sEbGspygtoI7ixEshm_2fUw5oeh9AeXg6JN5w0ypYIshpuKm-C0nG4Vm2XmpLvtWTZzWzd'
  lat: 40.111607
  level: 7
  lon: -88.233753
  name:  'Chabad Menorah'
- ap: 4785
  img:  'http://lh6.ggpht.com/o-Si4_DCq7Qwa_fFJhaTZ0-zCScbl7wDS4PHIFGMbnP9TuPVe9ZauXV3lAreyYvxN7B7n8mlrOR2SsPzXmU'
  lat: 40.115703
  level: 7
  lon: -88.239504
  name:  'Chester Street Bar'
- ap: 4785
  img:  'http://lh5.ggpht.com/wX6-mbTE7nT00T6ildapKbI5ZrnhPIt4l91DhMseyo3GYFrgQIuqbjh8ntZY6NxGZ-qa6fKWlyoBOPdIdNIt'
  lat: 40.114653
  level: 5
  lon: -88.243729
  name:  'The Phoenix'
- ap: 4785
  img:  'http://lh5.ggpht.com/k_9eqZVvGcr3ZNyeeSNDM1-Y7od35KmnQQptB9usrdpTdpGW2c_5-12rYy9hGazdx7qhlYrEXxaJ_ZIVFywlcA'
  lat: 40.106706
  level: 7
  lon: -88.232116
  name:  'Illini Tower'
- ap: 4785
  img:  'http://lh6.ggpht.com/pxaCt7clhIXc1RVGMMJZsmnbEWNWjFYJiUrQMev_SeOmXBothvOzmfnirQ5_W8CMa7hpigqydQhKMa4XFCAi'
  lat: 40.108173
  level: 6
  lon: -88.230209
  name:  'Mural on South Sixth Street'
- ap: 4785
  img:  'http://lh6.ggpht.com/EpDmgl9Bi8qdvvRTrGPo2oNcd7kOJPiS2S30s9QEI-CzsTS1vWcWU1xds42YMD4AxCuLpDoKvGSeGtvjDNu-'
  lat: 40.189224
  level: 5
  lon: -88.397522
  name:  'Lions Pavilion at Barber Park'
- ap: 4598
  img:  'http://lh3.ggpht.com/H-PBJdkLSDPmDXVvBId2yTx2v03Kx-7jJSQ76BkEyORxCjulslBLOnylRdS74AB6FKKMVrBt_8JE52zY-k23MQ'
  lat: 40.123652
  level: 6
  lon: -88.300148
  name:  'Powell Memorial Plaque'
- ap: 4598
  img:  'http://lh3.ggpht.com/dBiWv3vHrjSkLU93Ft0Pn_EBnwlnMxpzM8GhwZeM6MEGvqyqO8jGVz0VgmSgJEzhXa3gvPLnx1Gz0R4whIg'
  lat: 40.196017
  level: 5
  lon: -88.395508
  name:  'Mahomet Village Tower'
- ap: 4598
  img:  'http://lh5.ggpht.com/YrrWNVDbF2PvWks7XHMzdNnH29Fm_9w3w-XsfCu_aNeRWe3yogvbKL0L2xuhUlUcT_FrvGouyLbPNDe37GVk'
  lat: 40.132123
  level: 7
  lon: -88.277273
  name:  'American Revolution Bicentennial Plaque'
- ap: 4598
  img:  'http://lh4.ggpht.com/Iz-O9-kJLlEdRO9osaqkCvLRsSNF24c95jHG0lhtE95b99-cC2bKuCEiznIs1-ytpoCITEwQ7s5VuyURgrpM'
  lat: 40.117288
  level: 2
  lon: -88.248506
  name:  'Prayer for Rain  Fountain'
- ap: 4598
  img:  'http://lh3.ggpht.com/I2Up882o0nHzQof3uWaDFK7KQHkYOu1XgKoXUgQotITYJDh--80GzLnOSI8TxKF3RxsF32zcsYmRF8Fiugpt'
  lat: 40.116413
  level: 7
  lon: -88.249814
  name:  'West Side Park'
- ap: 4598
  img:  'http://lh6.ggpht.com/YEHyAsx3ysK3IxTTbSx5dLEcHRtRVKQ4XTvE0Kvkd3iIW3mA6lplwojkVOpWCemyQS6G3JESxZnMFQtVf7V3'
  lat: 40.11652
  level: 7
  lon: -88.241845
  name:  'Mike ''N Molly''s'
- ap: 4598
  img:  'http://lh5.ggpht.com/g7QDa6-HDyxpwueVfcxh6KOOM1S5jAd2MOOL2H5PYpeafOfFl-8hbijtMhWLHWrvlOdKqglGRiiaWMsEWLN4vw'
  lat: 40.116989
  level: 7
  lon: -88.242255
  name:  'Blind Pig'
- ap: 4598
  img:  'http://lh6.ggpht.com/yQPHFh4brRKGyXx9PtGN3hQza65T2PIyjArUf9NgW5fqFvx9m22oY2acMcEwFcVRNh0MTfGqc0WfMJFOt1io'
  lat: 40.10725
  level: 7
  lon: -88.244219
  name:  'Titan Games'
- ap: 4598
  img:  'http://lh4.ggpht.com/uAYfykn0e2h2UqP-anbYfkJNa38P0L1WY8FpF-CwRCPklg5wL1xYFkpGOCMt7SJ37qO8PGVE42nYX9Ba_-jG'
  lat: 40.105025
  level: 7
  lon: -88.243919
  name:  'Mural on Good Fellas'
- ap: 4598
  img:  'http://lh5.ggpht.com/f1O8bFXHTg2PTOAUVLvrqk5xx5ps9SeqhpJ1RIPtSxm0I-e7J275e2ujJp3lFQGHUBW_vS90KOsrcdLDJ84l4g'
  lat: 40.110797
  level: 5
  lon: -88.225321
  name:  'Multiphase Fluid Dynamics Plaque'
- ap: 4598
  img:  'http://lh5.ggpht.com/85X0vnlHzLPww3OziBoMSVfkwq66eKQNZ9Mn6qsjghvteOQZiAVlsY80NVcsErHao0QYd9IyF7PDJyp-jaQ'
  lat: 40.101632
  level: 7
  lon: -88.233133
  name:  'Sunken Cube at Art and Design Building'
- ap: 4598
  img:  'http://lh6.ggpht.com/cYQLNtCsiRGXd_y7-ZdI4jGlNRpC4oiy2Z7UT7etDH3FBvBRQDtOW_rY0NBvKLJMnTw_EXH75NDGMcI6UkeV'
  lat: 40.105618
  level: 6
  lon: -88.229005
  name:  'The Chapel of St. John the Divine'
- ap: 4598
  img:  'http://lh4.ggpht.com/3_LELG2r-A5s2d-x2dWyz6h7HzfjVR_KZn9AG0vhih9EalQIG43iL6LdKqKNpnGdGwguP9ZfnGF0KMq_KDE'
  lat: 40.105799
  level: 6
  lon: -88.230188
  name:  'Color Glass Windows at the Newman Center'
- ap: 4598
  img:  'http://lh6.ggpht.com/Ors-OZvQMSkeYwIrZFCN6ltDminG-DehbQHdnKr_u983KJbBTIGGWU0wOofHOrpwgSk_mIaD5Fgcv7xNs6_n'
  lat: 40.092259
  level: 6
  lon: -88.216448
  name:  'Lichen Covered Honeylocust Plaque'
- ap: 4411
  img:  'http://lh5.ggpht.com/aQ8b5PgXfzXy9_ygEUVeyrDoWsMYI5hbzCQed6vsWCAKGuIJ2n7QoxdfXCw_IrD8OFepLBgrLkkdM-tqd3aP'
  lat: 40.123697
  level: 6
  lon: -88.299824
  name:  'In Memory of Steve Barnhart'
- ap: 4411
  img: http://i.imgur.com/5j1qaiT.png
  lat: 40.152792
  level: '?'
  lon: -88.253532
  name:  'Toalson Park'
- ap: 4411
  img:  'http://lh3.ggpht.com/whrVudLIelW8yHGGZa7geAVXvbkevW5Vc4DbMBSrMTYN38-Cce_sYnEFxEDWHJQouK3L-LjMbbADmlyYto_D'
  lat: 40.131036
  level: 7
  lon: -88.2778
  name:  'AISC Steel Teaching Sculpture'
- ap: 4411
  img:  'http://lh3.ggpht.com/hBux3yLZOMWBK1dtc47OrhISfV3SPojGgtZOxqqf7-yoc82f280WMG1r2mi43iZQsqfwzmN53VJHHHEFVs0'
  lat: 40.116458
  level: 6
  lon: -88.247065
  name:  'West Side Park Entrance'
- ap: 4411
  img:  'http://lh5.ggpht.com/v26lJtVx6k_bS8UIv0cuwFV2H-bR_kPwjkydaZjqk7BOG1VyLpoQFvuFB7ZmKZpWB_uCHi70HLzZoI4xZgo1'
  lat: 40.116491
  level: 5
  lon: -88.246701
  name:  'Emmanuel Memorial Episcopal Church'
- ap: 4336
  img:  'http://lh6.ggpht.com/uAhsK1gCBrCPvIEZ8lZRhDGbO9Q75uu9su3qhSkktViExCuvIvXGCLwZXT-_riPd4rI3tTvsLqqn6XO3msF4'
  lat: 40.116558
  level: 6
  lon: -88.249136
  name:  'Babe and Gene Wilder Memorial Plaque'
- ap: 4411
  img:  'http://lh5.ggpht.com/DDClbLn6LNW1_Kr2O24_eIFuz6BfPSolc8s9i2SV9KvgoE8D_n6SY1mOzPFAUoLMe9HHKhD-azeRgoyYPNcaPw'
  lat: 40.115917
  level: 7
  lon: -88.243438
  name:  'Shay Memorial Plaque'
- ap: 4411
  img:  'http://lh6.ggpht.com/2lDM_Uj6QcUJmWkmPhNWg-vfkJbBQAo6zb7eXC5qDTaJ5xAsoU7jPPqYmLo7zztC2Za1oH3QVrHQ78-XabqR'
  lat: 40.116398
  level: 6
  lon: -88.242485
  name:  'Champaign Servicemen and Women Memorial'
- ap: 4411
  img:  'http://lh4.ggpht.com/maBwz4G9LJZ5aVuX_WF1Z73xSbqoFsm3l6oyrNQ16LkJMvaEbFa-amdfCpKDVDe7NzjReNu8IGnn7BAI8yef'
  lat: 40.103534
  level: 8
  lon: -88.243478
  name:  'McCollum Park'
- ap: 4411
  img:  'http://lh6.ggpht.com/S7Utf4_59vQkAP5JhC3mdbzVLKBTt-0zoJ2UjfxUnN10VBbixO-_VwvssWd1LbFSx_yafaijd_U0wTGo870'
  lat: 40.100941
  level: 8
  lon: -88.251314
  name:  'Gabriel Patrick Maxeiner Memorial Plaque'
- ap: 4111
  img:  'http://lh3.ggpht.com/ugJXpaIWZ-wI1vpderJmQjM8r0T5_Li2j4hvvsu4fRM9k3MeBpETqj2LFNd1pEkcfH0I9bgZh--5g1AEJKkq'
  lat: 40.092745
  level: 3
  lon: -88.251235
  name:  'William C Fox Honorary Plaque'
- ap: 4411
  img:  'http://lh4.ggpht.com/ETgOsKlMmsv5wRT-aM33VVVEgFvp3ZoMxqXmYKxROpFAYnfPqjWhltqYBG7ajEuM8XKf3mVeSaF7r9grm2t8'
  lat: 40.113448
  level: 5
  lon: -88.237188
  name:  'Boneyard Creek Second Street  Basin'
- ap: 4411
  img:  'http://lh5.ggpht.com/GN_FYcjKjamCNlfD8yA995MpcEHa9gIZVV6FBYtdeiNr_XgtCIN6gnN6_dSKwt-DenNMN_ZiJaG12iLuY6wt'
  lat: 40.103588
  level: 6
  lon: -88.233095
  name:  'Huff Hall'
- ap: 4411
  img:  'http://lh6.ggpht.com/yYW6Egg1lWn6UqqLzlgqwCQhtbuxiZSW4TmvI1XBPs33OTTJ0oh51XZXOIILxGI2juoO-E_YfG5UHmeb34rSOw'
  lat: 40.109165
  level: 6
  lon: -88.230269
  name:  'John Street Plaque'
- ap: 4035
  img:  'http://lh6.ggpht.com/fucvhGlnRoH9QYMkBK1r2Qy9oOUZI9LZdwLXsHqHS7XxfmsgA664AxnJIiuZbPqBqjL4bEh26NiX3a3QfkoIY--DKozCDKry192H0Pl_l_XL4Mk'
  lat: 40.118481
  level: 6
  lon: -88.268463
  name:  'Huber''s Antique Street'
- ap: 4035
  img:  'http://lh6.ggpht.com/fhMd686ql-IYC_DqSfUdbHHl3jAaBKjkykuSJ_Lx5nPI46OaE-pA_penftiqIC_r-xDmrFhRZU5vmcweUncZ'
  lat: 40.127665
  level: 6
  lon: -88.284336
  name:  'Dodds Park'
- ap: 4035
  img:  'http://lh6.ggpht.com/3Z_ahLKZKpEJ_5dh8wG1jTBp6wvIadDrU8lnAkZ4flL_mtxKtbh2HxixutEK3usEaP47L6jU0VA1by70WIuJ'
  lat: 40.110984
  level: 6
  lon: -88.196857
  name:  'Victory Park South Entrance'
- ap: 3848
  img:  'http://lh4.ggpht.com/vKkSwERLa3zQO2UUIiYl1AEruAx1QTPcP4jSmPt89PG4AviJ1WhlVVH8qmqJ0aY2gqJmHcqdZFcM2pQconc'
  lat: 40.139375
  level: 6
  lon: -88.272793
  name:  'Salt And Light Ministries'
- ap: 3848
  img:  'http://lh6.ggpht.com/4K7T7_gGrfag_-Hep7ygH_rklKsjale4oo2CqJAFTpPB5EM4Dv8ZGyz7i_qUOuLnt16GWxDSJWCS8TZYyGY'
  lat: 40.115421
  level: 7
  lon: -88.243168
  name:  'Walnut Street Tea Co.'
- ap: 3848
  img:  'http://lh6.ggpht.com/uyv64Hvc1y5cxlCwT2wsWkD3sPpcam6VXjBGrZ5qOpqIyyynSqXKCeBXqdW39vyyoAaOpvm-gIHYaE_bit8'
  lat: 40.120632
  level: 6
  lon: -88.243669
  name:  'Colonel Sidney Gauntlett Cornerstone'
- ap: 3848
  img:  'http://lh3.googleusercontent.com/DJEd6b3-MwXXA5oX_rKCuAtk2dlQ1yS2p9nG8oDmc86DmbzFvhKsP-KR9nKAzn84UUf_K5LjjTMgrt7AjCoU'
  lat: 40.110853
  level: 6
  lon: -88.238339
  name:  'Boneyard Greenway'
- ap: 3848
  img:  'http://lh5.ggpht.com/R4YsY7oUfZDrMJ3QJtIKwNvcX7K4vxIpwfLebL2U4x5m1UibakO0KUZJXqdfYe-W9IUNBmlCu5LlSy6jtKGM'
  lat: 40.105323
  level: 4
  lon: -88.239595
  name:  'Campus Post Office Services'
- ap: 3848
  img:  'http://lh3.ggpht.com/by946OhJ5ooOkbG4f662qjbXqvrQAd98E36mSJLgTsLgL_tb8GDpNxTOEhtgsjEhY-OzKmRxAmLFbYPscSH6'
  lat: 40.101619
  level: 5
  lon: -88.233644
  name:  'Taft-Van Doren Hall'
- ap: 3661
  img: http://i.imgur.com/5j1qaiT.png
  lat: 40.198031
  level: '?'
  lon: -88.377986
  name:  'Lake of the Woods Park Entrance'
- ap: 3661
  img: http://i.imgur.com/5j1qaiT.png
  lat: 40.196926
  level: '?'
  lon: -88.366258
  name:  'Filippos Pizza and Italian Food'
- ap: 3661
  img:  'http://lh4.ggpht.com/j5qEdm6GsRybxCSX4X-mcXnDS-HO6__skWjWfYJD7KoQdhnmPT8tJH1t28UW1k-1PYH5J6mpdiX9mkOzvM0'
  lat: 40.077923
  level: 3
  lon: -88.288859
  name:  'Joyce A Millage Memorial'
- ap: 3661
  img:  'http://lh5.ggpht.com/0UmOEvpBIgW2PQGXcdi5IwCRj20o_XAvbFid1HDfkNsc-7eI6YTWM43QdZtBrA0b2Ln6mMEF-hF14BQiYfI'
  lat: 40.07833
  level: 3
  lon: -88.290166
  name:  'Millage Park'
- ap: 3661
  img:  'http://lh5.ggpht.com/pSVHjk6puyYdv3ztHlpJGnbkZyGsGsirMnxkDhlt8UMko4AhtTQbrzwInBCu5lK4Ttf7furE5pNW2AZh8HuSZQ'
  lat: 40.138109
  level: 7
  lon: -88.270158
  name:  'Glory Center International Church'
- ap: 3661
  img:  'http://lh6.ggpht.com/WA_L9RXB_ZwCyxpgQ7Lyjp1-4xTl5O-BQohOBQcoEMnP7-wKp--MGUdnY_DPuCGZ78-x0LtEWc8FT2n9QMPS'
  lat: 40.148879
  level: 7
  lon: -88.258423
  name:  'War Veteran Memorial'
- ap: 3661
  img:  'http://lh6.ggpht.com/dI4xaWnG0DZUP0uJY6mH7dt0Mym9RSF71Y9EW7cHcTwlxlumShbTK73b2epHwOng4JJOjyc52eMv188FeiHYfg'
  lat: 40.131965
  level: 6
  lon: -88.278016
  name:  'Augustus K Riggin'
- ap: 3661
  img:  'http://lh5.ggpht.com/_quRYtw1nQsDlSn7VjdJ72LlgiwnF7tlWU9s2H40vdM6ILPMiOgmzt_fUXz7ocFI5MT7YWs-smZ9a6H7XR0'
  lat: 40.101822
  level: 5
  lon: -88.282612
  name:  'Winifred Nielubowski Memorial Plaque'
- ap: 3661
  img: http://i.imgur.com/5j1qaiT.png
  lat: 40.133743
  level: '?'
  lon: -88.162534
  name:  'The Apple Dumplin'
- ap: 3661
  img:  'http://lh6.ggpht.com/QKHOcl5WKE1EB7Y8PfPqhuJQN7SxpWIvLb13vJp2KJC61ToSi1evTEpgeOtPjAfKuIlQnBq1tApVM5TwJHI'
  lat: 40.118042
  level: 7
  lon: -88.248912
  name:  'Indian War Memorial'
- ap: 3661
  img:  'http://lh4.ggpht.com/4rZUtsKLzttseF-bliT_X7wEGP_joarKKLt8DNtp99fViYcqD4TAWTfZ_Ur6oEdBJdT-1JeZl4tnk_sTtgN0'
  lat: 40.116361
  level: 6
  lon: -88.247369
  name:  'Gerry Schriefer Plaque'
- ap: 3661
  img:  'http://lh3.ggpht.com/8FqlniFErK7cq59awiT84u8KyV4FIRd5krZzfYa58zJToFps7whdBnriPqvO_kFKeLUE3SWbJhCOPuvUQzaGFA'
  lat: 40.100691
  level: 8
  lon: -88.251337
  name:  'In Loving Memory of Zeus'
- ap: 3661
  img:  'http://lh3.ggpht.com/ch_nluYT5gzNuJG1bx-wUfhv1JWNmo-DYdwq2rPOJaUrvUFpsWPH07BUuDj9xUKqsN0oIl8bX3iWOys5TuNV1Q'
  lat: 40.084517
  level: 5
  lon: -88.249848
  name:  'Boulware Trail'
- ap: 3661
  img:  'http://lh4.ggpht.com/PmGpygZ2fBs43twk2Y44XZbgGcHWv0YimAq7Fp3vlIRRqUyLpSmDmFwcn1ucfmJarcQrAAXJjYAXAhNyxSrz'
  lat: 40.110049
  level: 6
  lon: -88.231968
  name:  'Potbelly Mural'
- ap: 3661
  img:  'http://lh3.googleusercontent.com/JtDKcaLvXa-az4aUAoga4ikpwAKEsCsSIgnN9eVPp7q2Tiynz0iyg5e2mk0InXRsJclU6axBXOMi3NcfABUd'
  lat: 40.110065
  level: 2
  lon: -88.225155
  name:  'Wesley United Methodist Church'
- ap: 3661
  img:  'http://lh5.ggpht.com/Lup2et0i5h8oHqtBffIdoyX5uclC2MBn9ZnnKnYPr4RIFSflf9bi78zBHK7QqycA0qgEev9qOk0zU-1o1hg'
  lat: 40.108451
  level: 6
  lon: -88.228733
  name:  'The Centennial Colophon'
- ap: 3661
  img:  'http://lh6.ggpht.com/BzDhCANV_iNTHhKFBGLuaUqOvChRZtPWnJ2Xk4h7NsKJHmTGgCWtFHWv2PpDA2fCsHHKSCRTrUNK8AKrLRnS'
  lat: 40.108066
  level: 6
  lon: -88.230687
  name:  'Community United Church of Christ'
- ap: 3661
  img:  'http://lh3.ggpht.com/o6_RpCgHFDA4MceKnIqFkksRYWZkhEKsAZE3VNGl5iS5zkkQWJdBKOY-gNca5iB37jbgnoYsbc1ROtZ-bQhJIw'
  lat: 40.108833
  level: 5
  lon: -88.228125
  name:  'Class of 1902 Memorial'
- ap: 3661
  img:  'http://lh5.ggpht.com/dEeT4acpLu-WQFlZWd3psap5qAqqPTSVzm8Qt1QtpqtwZ0j1V9eKFcmpgN9K_x1PL4XVchuevw25rxHekz3tvQ'
  lat: 40.111968
  level: 5
  lon: -88.226793
  name:  'Bardeen Quad Structure'
- ap: 3661
  img:  'http://lh5.ggpht.com/oZQDrn1fO-Podf01z1Gb_GpmTXd3IRE2Zy0DnqvTWyDkEcOqkx-2w_hD2oHdf2AfJ614c2JL5ufvVEHhOug'
  lat: 40.117487
  level: 6
  lon: -88.210927
  name:  'Crystal Lake Park'
- ap: 3661
  img:  'http://lh6.ggpht.com/Qfyp6BK43B93Oo5kazv7b-62q_5cx5GKxXPyw6Juss-A6AgPx81B0lyWhzW7Ava9ztLzedt07gEh3ia2PPFDwQ'
  lat: 40.113636
  level: 6
  lon: -88.208146
  name:  'Jolly Roger'
- ap: 3661
  img:  'http://lh6.ggpht.com/FsUBggh0M3sjncoth6JaamkCglQtDsuiR89k30B2sMp7srgh0Hz6trgv7BhNRSJA6qI7OvipV8B3XEhzHmaNxA'
  lat: 40.113513
  level: 7
  lon: -88.207559
  name:  'Black Dog Smoke & Ale House'
- ap: 3661
  img:  'http://lh3.ggpht.com/TNDkyQnVEXdm2c8_gpZa0jhlwhKtO0T8Yaqx9BCnvpjJHBRKYMu71Kz7U4wOp-eSKD5jlReyruVEwFyyvRLuZQ'
  lat: 40.129028
  level: 5
  lon: -88.218345
  name:  'Flagpole Dedication'
- ap: 3661
  img:  'http://lh4.ggpht.com/dfv9WXc8AIG4SQiUR41qrJI0-s2-zl6hcMaPJOetGKZ2R1dknt0mX1ghGf1zcPNzXcOFpjVSvmXELswwTMO8'
  lat: 40.09627
  level: 7
  lon: -88.218588
  name:  'Idea Garden'
- ap: 3661
  img:  'http://lh6.ggpht.com/BMf1sXwsSlSYEGTfEK9_NSNrv7oe0wrmrBMmAiWFiLl88tHu50yGuaBNJA_gzRyAupGtmPAkHpOoMMVteYJUOw'
  lat: 40.095332
  level: 6
  lon: -88.218475
  name:  'Noel Welcome Garden'
- ap: 3661
  img:  'http://lh6.ggpht.com/MsCeiBKy8tV3-ziINPCBPzkisfwOnBClSPr68FUxT1uMHlVmqtyTYYxNAZapU8bvWdcmm0lsmIzjMyv0CTJ2tQ'
  lat: 40.095364
  level: 5
  lon: -88.217386
  name:  'Miles C Hartley Selection Garden'
- ap: 3661
  img:  'http://lh6.ggpht.com/tvtZZis6qG1YsnE4ZRp9fdL3-XEu08jw8oYvSOYqkbrIkD71abS7blCPv63VovyNFWlpHvmXTjl3tl-lXII'
  lat: 40.092821
  level: 6
  lon: -88.218095
  name:  'Japan House Tsukubai'
- ap: 3661
  img: http://i.imgur.com/5j1qaiT.png
  lat: 40.186983
  level: '?'
  lon: -88.384566
  name:  '50006796477543f889671801f60b7403.12'
- ap: 3474
  img:  'http://lh3.googleusercontent.com/eGP4sxnePximEFk88kdcqNxeClf1LjUbwiPTwKmCfStyP9CAq9qGtzAsbEcVWEaS0KyG8LQn7SgS3X07OU4f'
  lat: 40.122643
  level: 6
  lon: -88.300552
  name:  'Powell Park'
- ap: 3474
  img:  'http://lh6.ggpht.com/A3o1Nm3JPbfRGX8fs0D87GlAc2sSTKVl6IimAZxRyIfLyPcsMcbx7s4WqUTkMcz70wzyETv1zaJZtlBTRdBG'
  lat: 40.083723
  level: 5
  lon: -88.288027
  name:  'Windsor Road Christian Church'
- ap: 3474
  img:  'http://lh4.ggpht.com/XmQtS5vWS277-auG5r5x80jUieF2311Xfv6rWkYqVBZ3wz2cqxRtgabyzOhXn0fCpSpDD6Y_CFd9Rzti4eqj'
  lat: 40.148874
  level: 6
  lon: -88.268577
  name:  'Newt Dodds Tennis Center'
- ap: 3474
  img:  'http://lh4.ggpht.com/naCrG9-DL9k67Zqi0gC4SkIN_RQ_zodz4FK1IHNXbc08mmpwSYOasBdjXKK05UnqtA_LobI75w9qmf4dfQjU'
  lat: 40.11823
  level: 6
  lon: -88.267696
  name:  'Eisner Park North Entrance'
- ap: 3474
  img:  'http://lh4.ggpht.com/WYG3ESlqovedGYxESaI2-VIu4-NxEKeo32DuX9E1hpXAQKySBaEbuyVUoRex6E6m4O_qpXGVFcZ9Ktc2d7c'
  lat: 40.126923
  level: 6
  lon: -88.283365
  name:  'Heritage Lake Fishing Regulations'
- ap: 3474
  img:  'http://lh6.ggpht.com/MA9eCvz-pj6K00ulfaZfIA2Saj3yQDg484VkIpdvKwCwb2VWMg7rq15hjirk-2ea3j-2MfOnszGDTopXgf3N'
  lat: 40.12735
  level: 4
  lon: -88.282547
  name:  'Heritage Park'
- ap: 3474
  img:  'http://lh3.ggpht.com/LI2lDP17lvIghR6Sltj6ECmzcCBHl8dTLBG7BVkPOqTkM9h8PGuXRp7mS8x3bxL-pbQzjV2HyP1y8XWbUzi4'
  lat: 40.100762
  level: 6
  lon: -88.282846
  name:  'Sholem Aquatic Center '
- ap: 3474
  img:  'http://lh4.ggpht.com/8Yhp3k9rCZps2AgalC_ip3F4DfS_sWuoDsILaXrP4RmZLhthvaiibjiEOn68zQ_QZyQu1Jyj8yb2lmNUNmrR'
  lat: 40.101186
  level: 6
  lon: -88.282524
  name:  'Rotary Shelter'
- ap: 3474
  img: http://i.imgur.com/5j1qaiT.png
  lat: 40.134794
  level: '?'
  lon: -88.163256
  name:  '6f2aca4a64f34467a7f3617ca2d1a033.16'
- ap: 3249
  img:  'http://lh4.ggpht.com/kikXgFanbehTzblqLlN2WzEcVgfnP2HD4JE7GI1GOKTu44g13lknkSsdu9prj71y0zKIBFJv_0RIkFW3vXY'
  lat: 40.117574
  level: 4
  lon: -88.247603
  name:  'Travis Marmion Memorial Tree'
- ap: 3474
  img:  'http://lh4.ggpht.com/9dqmZPc9OI1ON-iEnfXAxSAMX2M07pEgKUsb47vLrTrW2BW61siFLquk1fXbldWXGPg69XGdSG4wKPGS5rI'
  lat: 40.113521
  level: 7
  lon: -88.244122
  name:  'Artistic Graffiti at MCS'
- ap: 3474
  img:  'http://lh3.ggpht.com/oHMQr2Z5LayQFbZOwOZK4ZbYQ1OVxs85-qNTvSj8epsP72vQiOdrzVmkuMPFQtCSf9Rr0oqcnSLFjLn-sPw'
  lat: 40.116592
  level: 7
  lon: -88.243236
  name:  'Champaign City Bldg. Landmark Plaque'
- ap: 3474
  img:  'http://lh6.ggpht.com/ka79B_ahK9kHLiOCOnKsp3SooZlPGgMuIOO25OaqPU7eoUALOBzaa40ZCStdo4v6rCYW0VS_pNgW3PJyUDKxpXI-n55zohIxJwRJEq5gslJKwS5ykQ'
  lat: 40.11794
  level: 7
  lon: -88.248679
  name:  'Fonderia'
- ap: 3474
  img:  'http://lh3.ggpht.com/K-b9T4FjMxrtkS2Awkze3fELfwY2Va92gMQloHtHf4bfeKPPRzOUJxaSYYi6-OHHQbpDVY3ONWwPgIa78fBX'
  lat: 40.118332
  level: 7
  lon: -88.250276
  name:  'Mckinley Aquatics Center'
- ap: 3474
  img:  'http://lh4.ggpht.com/LukOnZPQdxTvyW2kKwpCrzH9PWuOtO6LZyu0jeZSt8ijAhlA0l-3oYZ_m0HbPoF316Mhgbh-SaZNKtmX82c'
  lat: 40.11814
  level: 7
  lon: -88.249887
  name:  'Silver Cloud Oakley Washburn, Jr.'
- ap: 3474
  img:  'http://lh4.ggpht.com/VZT9NM5dfGAaJAZj9cFhDmCgknQCF0UI4Hv3AwcaZedRlXhGb2wfVLTFOWjtoSJRG7MEsjv784wAB1XZgQqpBA'
  lat: 40.126642
  level: 6
  lon: -88.198163
  name:  'Armored Gopher Games'
- ap: 3474
  img:  'http://lh3.ggpht.com/NuEE1yevEulYAFm9UHYKLrX8fVNrXyLgFXbQ8kTjAKuT9w-Fkj18Pop2B2wikf21LHDU24uSUkIvXbfKyvy2'
  lat: 40.11738
  level: 7
  lon: -88.250259
  name:  'Heath & Vaughn Funeral Home'
- ap: 3474
  img:  'http://lh6.ggpht.com/NXptd9bdifQT6cVxz-SPGUsryPaznp8rV3omDk0J50MnN5Mmu6oiYNa0FXIgG8FnFreUVsSPzRvQNZXYcO6G'
  lat: 40.11817
  level: 5
  lon: -88.249381
  name:  'Bicentennial Tree'
- ap: 3474
  img:  'http://lh5.ggpht.com/FeG7Xn052FyJtG43yF0j2iYs3BdENjAx_oZUTzI70y4H0qeexU7B8NrXaT20cmXSKwnWV8xFSc3OlG_KQU09pE8fyCAYXWWPbTzC0_GZ1aynCFni'
  lat: 40.116185
  level: 7
  lon: -88.243429
  name:  'C.V. Lloyde'
- ap: 3474
  img:  'http://lh4.ggpht.com/W2chhQwPqSJEkl57NVoIL-OE4KFvJfp7Bsrrxza1apCYltcT3npz95LJxqHxvT9ZZu7wxF2gQy-5bpKal2p2'
  lat: 40.115838
  level: 6
  lon: -88.241338
  name:  'Illinois Terminal'
- ap: 3174
  img:  'http://lh5.ggpht.com/qq3QmeyCYxWnJF_DzzI5wVvHF4foNyr_bF3_j5eVPHJ1omSbD2INOifPJEO3pjz4X1l4_wMGD4uOT1_w6Tid'
  lat: 40.086713
  level: 3
  lon: -88.248293
  name:  'Garden Patio'
- ap: 3474
  img:  'http://lh4.ggpht.com/DJiaqGgwCaKSjYczELIcjQOeBtoEqd--7TZYBJWO9_Nd16vjKwlco9tKatJTdAKT1CPoO7Cj39_rZvp8p0Ch'
  lat: 40.087241
  level: 7
  lon: -88.248222
  name:  'NCSA Blue Waters'
- ap: 3474
  img:  'http://lh3.ggpht.com/pVUYGCf7vsAndVd4vhK_pC9p6e9OvGa4ZiWuZg0ELOFDWptBba4H2N4PNZPjQdHXnV1GQyLTpCXQWDMKDUqn'
  lat: 40.108875
  level: 7
  lon: -88.227835
  name:  'Lion''s Head Planter'
- ap: 3474
  img:  'http://lh6.ggpht.com/ccBTHN5qNJjNkD0fG_ipEQKtSNVqZu8Rrp_xkW2wZqmKB-oUGkM97IzwRiThXQIQFp4KEsLk8bL06Bx6Z4s'
  lat: 40.109592
  level: 2
  lon: -88.22514
  name:  'Ecclesia Noctus'
- ap: 3474
  img:  'http://lh6.ggpht.com/yUOWOqDbf6AO83PFdgc9HePIDDDb-Ti1NAzLec_4AwYrO5NsnWsGH7K7MDb5q22wdtUh6uqekxpMHYjlnfRLEQ'
  lat: 40.104673
  level: 7
  lon: -88.233278
  name:  'University of Illinois Armory'
- ap: 3474
  img:  'http://lh4.ggpht.com/7U0YXCB_DIhnqPJyjyLpNn6kg4lU8HvKL87ddBKWq1sptvVLvCEiCuNEnghQtqDGSN2OBNcOUK9nZcYjY4Vr'
  lat: 40.107887
  level: 6
  lon: -88.225998
  name:  'Lifesaving Antibiotic Plaque'
- ap: 3474
  img:  'http://lh4.ggpht.com/9hzMj8KV-HraIucojjHAEgyMZsJAR9TWvNS-QSBB5LTYBOTwwqfTQySJ_Sz88eP3eyFWFYhx5qDVY93t8fk'
  lat: 40.108032
  level: 6
  lon: -88.225702
  name:  'Centennial Court'
- ap: 3474
  img:  'http://lh4.ggpht.com/BL7RVMX7ZBl59uh3qjTqPi1OQTCLnWHiY3GLhCR_f8oAL1PmddwJq3mnTe-UN1IYkQSOR5i2cgpaA6oNdny6'
  lat: 40.12807
  level: 5
  lon: -88.215897
  name:  'Busey Woods Trail Entrance'
- ap: 3474
  img:  'http://lh4.ggpht.com/Kq5hzq7sftozfR_8Nv4J5Kj_v6GRjAUYpOl5dY51VtoffI6BEICZDAVZx_fpVXOKjKsjz59uZjZRQ5jDaRhi'
  lat: 40.129687
  level: 5
  lon: -88.216152
  name:  'Stone Fountain at Woodlawn Cemetery'
- ap: 3474
  img:  'http://lh3.ggpht.com/kIPOZrdSLxjRUpoe8NT-Hxl3XqJU0zu9lhZMvxOgQGtxLn5PsOwlPVUxytoCVTDFtamcmFOt30S66SSIagUVew'
  lat: 40.093551
  level: 5
  lon: -88.218042
  name:  'Shozo Sato Honorary Azumaya'
- ap: 3474
  img:  'http://lh4.ggpht.com/CB2hO0soeZeH9zJcpUJoWxRBrHBJn5V73yPitFgOhBRdrsU4JiLlzjLCwGfLLqaR94_-TVg14cNjQWV7k6K9'
  lat: 40.095043
  level: 5
  lon: -88.217723
  name:  'Roy And Marguerite Racine Honorary Bench'
- ap: 3474
  img:  'http://lh4.ggpht.com/ZIOjKYlH2wMvdRD5A5HKGJPgBUYAaA7xHjGYnoXNzhzPIE6KR05FBciTJcN-AojoLyuwRlp3SF3TR1PXBrUPjw'
  lat: 40.094935
  level: 5
  lon: -88.216986
  name:  'Leroy Hubble Honorary Bench'
- ap: 3474
  img:  'http://lh3.ggpht.com/Q2rFQkcNHwItWNXX2B0B65sANQ_gCk482p2HilMp7BeswGN9qevW8WBFQ1zUg2xkvlz8bqbDCg-C5NaxK2Jf'
  lat: 40.092639
  level: 6
  lon: -88.216599
  name:  'Frank Kari Memorial Bench'
- ap: 3474
  img: http://i.imgur.com/5j1qaiT.png
  lat: 40.188669
  level: '?'
  lon: -88.389366
  name:  '159066e5659c44fd94310d4c0b9d986c.16'
- ap: 3472
  img:  'http://lh6.ggpht.com/NH1CnJnblS1bpZxZJ0VxAHy0tYw7BiYdVK5V9KnTw0N1KMf8OFR6FZP01shVet9ha4cEfSYufO9a1bv8Sqyd'
  lat: 40.12142
  level: 7
  lon: -88.243105
  name:  'US Post Office, N Neil St, Champaign'
- ap: 3285
  img:  'http://lh4.ggpht.com/dzQSyJummIX5lEBsPg0bjVUKgWuducW6OgwYfPUATs_OtoqhXsCvhVFuC98ULi8Gvi0ywyeTUACotvmS32A'
  lat: 40.130306
  level: 6
  lon: -88.253037
  name:  'Fagen Truck Accessories'
- ap: 3098
  img:  'http://lh6.ggpht.com/WtqWBwqpYTSw3g9ru5NwcFn5iK5STxWgy2kv4OUTWqwtzx76-9Msz0eqoiw0qpEYE1U4zdt9rzzNZMDNagNg'
  lat: 40.107943
  level: 6
  lon: -88.226751
  name:  'Class Of 1917 Plaque'
- ap: 2911
  img: http://i.imgur.com/5j1qaiT.png
  lat: 40.456986
  level: '?'
  lon: -88.380197
  name:  '4a8ea4fd88a348ea8d87cede62b4ce20.16'
- ap: 2911
  img:  'http://lh4.ggpht.com/yi9OPnLGsLTvtOMNuOUfed6edO9tB6h0QmSHJaKKaiMyEXC8Aj2hz9hIvgh8C2DY76mVgNHw4S0gsYpkPpkt'
  lat: 40.148692
  level: 7
  lon: -88.248724
  name:  'Fountain Town Center'
- ap: 2911
  img:  'http://lh6.ggpht.com/duOeXcOSQLWosdD0JJXg3pWWQp4t5sL0x9qDHoTIBFNOzEW0t53Lt2cnwgV2E_Su0l1ajIQxPtVbbK_sDRaS'
  lat: 40.141775
  level: 5
  lon: -88.242671
  name:  'Marketplace Mall Fountain'
- ap: 2911
  img:  'http://lh5.ggpht.com/ZfmaOk3UM4PNzP-z0AvBPFqYLc6wAEDSPhL1cSVjXMAFSv4Jadm-hV--eP3OaJuaksphYKN5s6bhWhluTGs'
  lat: 40.133327
  level: 6
  lon: -88.280335
  name:  'Prairie Grid'
- ap: 2911
  img:  'http://lh6.ggpht.com/DumXNsG-1ULiWogpcQw-VzQVxr3f1Rb57MKc3GWEGzCwoIfDc8ErqGSPeDPGDyg_6fYtNnLQpFMP0zbDGTE'
  lat: 40.141598
  level: 5
  lon: -88.238817
  name:  'Red Shield Center'
- ap: 2911
  img:  'http://lh5.ggpht.com/zUcdFy4LbfVjWynZZp4C5TfAppnK9Iiou6aV9idMEi-uHh7ZVcuIZxHz7Sqt4EqZY__obyqxWSrIBmWDtvwUpg'
  lat: 40.124036
  level: 4
  lon: -88.233662
  name:  'Macedonia Baptist Church'
- ap: 2911
  img:  'http://lh5.ggpht.com/MWJ2u6CgyftB6h05_WRqj_eYi-vhbwuOZ_9mxAS3eS-wY6XbpKlfBgzmohkwEj6Q2FoR0mm678IAtKTcei8'
  lat: 40.106846
  level: 4
  lon: -88.226647
  name:  'Illini Supersweet Corn Plaque'
- ap: 2911
  img:  'http://lh3.ggpht.com/1JgqaWx4DIU04ms-XmufSumQ5BDP07SB97-kBjzxDePlLQR9HagCTfqdviW9ErxCqpvXgynqeosQhERhCat6'
  lat: 40.108781
  level: 4
  lon: -88.226388
  name:  'Illinois State Water Survey Plaque'
- ap: 2911
  img:  'http://lh3.ggpht.com/KnNYiTjbSfT8lzl-5r3OkJW1ptOP-d5JkDibk9pg1eydNzpy_IgdiC-kCRNUSoBP9nFsblvWr7t9IC4qMU0'
  lat: 40.109369
  level: 6
  lon: -88.206018
  name:  'Urbana Market Square'
- ap: 2911
  img:  'http://lh3.ggpht.com/nHykU-r6nAcUQliLD4vcs6UTayaoX6Aay87D-bgyrRjGaqMQQYuxIbHuVKSTH0vbqNO9g2sBdp_ZBWLM3LDYeQ'
  lat: 40.103044
  level: 6
  lon: -88.211741
  name:  'Great Neighborhoods Dedication'
- ap: 2724
  img:  'http://lh3.ggpht.com/j0Yx7yuvUTJbnHtY38VFaty8xpyZMMDS_bSmvbHQx_2nQBiLqF4PGpLNdTGXkRgA3-OANQgASvn1mPGcuJi6HA'
  lat: 40.131715
  level: 6
  lon: -88.31369
  name:  'Mark L. Rambow Tree'
- ap: 2724
  img:  'http://lh5.ggpht.com/_Tp5JJFIIlt0iHHyC_A_gnEm1sxUEKDHmQr0oby74HL0rnFZ5JrnuvOTPk6_vulsU_GJue_7RAAX2Y7I2Wxw4A'
  lat: 40.132354
  level: 7
  lon: -88.292578
  name:  'Campus Solar System - Venus'
- ap: 2724
  img:  'http://lh4.ggpht.com/GcCZ7JTzkEHTZnUWfpUgibDh2Wa4nzGM9-k13AG4I2RwFiPa6exz1vCzj7Hwvf_oPwJvYJt0xoRE6GZXmCMX'
  lat: 40.132625
  level: 7
  lon: -88.292636
  name:  'Campus Solar System - Earth'
- ap: 2724
  img:  'http://lh6.ggpht.com/y9bxecO9Wm4VrE6p2LRWA8XIIUlHlYWbTSZJ6GrJrTpeVtxB7wI7cWjdLkM6gjq_eOk7n-nJOlSJ9WzGjgfG'
  lat: 40.137123
  level: 5
  lon: -88.277784
  name:  'US Post Office'
- ap: 2724
  img:  'http://lh6.ggpht.com/vqiOPPON1phvYOdOmbFDrxhN6cbYjeLHVgH42EV0XsJjVNd81EM1DKY_aRVM-rwJ9Il5tLc3QsL_gOS4qAkF'
  lat: 40.139891
  level: 6
  lon: -88.257367
  name:  'Market View Baby Fountain'
- ap: 2724
  img:  'http://lh4.ggpht.com/ik1uVZ-KWyRH4dh51LJI7gFmnM7bmfSZ-1YqfELbVQEvuo-gEx2QpG6jQpFPeAlFPi2rVPAuzRmXMD0Whsm2HA'
  lat: 40.122038
  level: 6
  lon: -88.245318
  name:  'The Old Residential Block'
- ap: 2724
  img:  'http://lh6.ggpht.com/uJ6kk4uQVfzQ22nbmRS5caadkRcM8fSpAlbvgM8KacYRDBYZtQTBKIHX7ju9ejvrdRG_oIr5QDELOwvb7L0'
  lat: 40.121759
  level: 7
  lon: -88.24366
  name:  'King''s Assembly Church'
- ap: 2724
  img:  'http://lh3.ggpht.com/QXNgz_dPkVpVuz9Qr0CZkUJDftEdF2Hs8m3XkLjsM8Q3YkwkWpxt0rmtqJ-fFylVNnP4_r193_ZhBl2kSfg'
  lat: 40.129216
  level: 4
  lon: -88.219323
  name:  'Angel Statue'
- ap: 2724
  img:  'http://lh4.ggpht.com/0JuC7vEVtmbgkx1FUhaTylcKfKuYoGNdW2P5GNZzGbeOzxEH0Q-9gP9gmmBzx2bkLNA0dnw9FiEJYiHjWXM'
  lat: 40.121329
  level: 7
  lon: -88.24558
  name:  'The Gregory'
- ap: 2724
  img:  'http://lh6.ggpht.com/TwC89nGrBzJ04y3Sg9V93v2G1oFzqJ-bZzRxnsFKM-THGVa5DqKX5Wd0kovQtOOSv-KqO5qjLITC9ITAr4O2fw'
  lat: 40.119588
  level: 6
  lon: -88.238445
  name:  'Allen a Rivers Memorial Plaque'
- ap: 2724
  img:  'http://lh5.ggpht.com/KadNuhjGK6FUXezGHW1W1kfPOQV5l7gJP594EQm5nPZFLTgcTsjl4ixa-j7XitgtyJyou3q0pTfMr4i2E_avIA'
  lat: 40.118013
  level: 5
  lon: -88.243445
  name:  'Clock at Neil and Main'
- ap: 2724
  img:  'http://lh5.ggpht.com/H3lz_PbTP4RFYuRMUyZuMouxslODKZQ3RjFiZrITFZcpj2FuEb1K2VVlveQtOyUHG2rYZ114AGuGqK4rATI5jg'
  lat: 40.097868
  level: 6
  lon: -88.242344
  name:  'Campus Information Booth '
- ap: 2724
  img:  'http://lh4.ggpht.com/-MJc8fCVxpxV7prlhkP3sXPWZ7jsr8Behc29zUJqdz_V57jSg7SzyMUUv7B9Frzu36mJhM2PQkr_LJk-zyM'
  lat: 40.117729
  level: 6
  lon: -88.243645
  name:  'Boltini Lounge'
- ap: 2349
  img:  'http://lh6.ggpht.com/2NvBiEF5E3wBXJ0JKc8NUUbuZm1PhUhLId32Sc_hNjaonDtojWnGWZRYwJgz-UJwMgucV2NHBfCK_51gIyU'
  lat: 40.084725
  level: 2
  lon: -88.251794
  name:  'Masonic Temple of Champaign'
- ap: 2724
  img:  'http://lh3.ggpht.com/161K1avC8teYs8PtJMANd0cBrff72XYRYh2Gjg2_KhkEh6_F6MLd3cfHIXwK8zegd65ISEVxmEoD5THpeY-Q'
  lat: 40.112553
  level: 6
  lon: -88.236253
  name:  'Scott Park North Entrance'
- ap: 2724
  img:  'http://lh5.ggpht.com/AmsS7GEfFX-_Icem2DP6mjQahV1jeut1CGdeqLqfpyzx0m5SqhVY4eoAohizF0xsevPQufmLRMoVj2rW7Fe8'
  lat: 40.111689
  level: 4
  lon: -88.231193
  name:  'Koi Building Art'
- ap: 2499
  img:  'http://lh6.ggpht.com/wt3gCGeGlsRNnOiaTX96Vh-viR16DO-cpnFyVgwzneUPTS5f0WHyCYLTRqDCgS7PRzg5IAEgkbnTLuc5782N'
  lat: 40.111681
  level: 2
  lon: -88.229683
  name:  'Shelford Vivarium'
- ap: 2724
  img:  'http://lh4.ggpht.com/tVyfzfM2_0lowNzuGzuyouGzKVa2p8D1Y1LrAjsxhWtHsK6y5mVL71dZLIu8wVv9kfkvsYrXoRNgrDWdmvmX'
  lat: 40.109736
  level: 2
  lon: -88.224983
  name:  'Methodist Symbolism'
- ap: 2724
  img:  'http://lh3.ggpht.com/F-cwL1kpN8KTxTiRAdaaAFictKYDbMRhPltdDuO0_6jhG8_6fxg1_yHzy1kBs1WXPRZ8UQDrxqY1fCdmHXFU'
  lat: 40.108042
  level: 4
  lon: -88.22808
  name:  'Earl W Porter Memorial Tree'
- ap: 2724
  img:  'http://lh5.ggpht.com/Z2EWM4D6YQHuqnLwtuPBawyQBZxTzVe9E17MKc8jOZkO0ZzkuD5zSQslY2iuXkkUnztPteUeOSHrSTz3voHC'
  lat: 40.111166
  level: 5
  lon: -88.228747
  name:  'Boneyard Creek Mural'
- ap: 2724
  img:  'http://lh6.ggpht.com/C7ThuP5fwrDTu5cMDpoeGmRjotNh6eUnPf3ksvSsUj5NkHZ0yKbIUnF8cSikhX-I_7O42CTwqjhLq9z3jkIL'
  lat: 40.111844
  level: 6
  lon: -88.228609
  name:  'Talbot Labs '
- ap: 2724
  img:  'http://lh6.ggpht.com/POBAhJlStu1uLv82RPSkd8lKQyojPByrKqAwgiZPyXTHQcNTCN7rkJM376YcVpMmZZVMgiXz9J1BXanexyA643e-FR9M70tksLdb1akPUe2Ra_xCyw'
  lat: 40.112411
  level: 4
  lon: -88.226875
  name:  'Grainger Engineering Library - William W. Grainger Medallion'
- ap: 2724
  img:  'http://lh5.ggpht.com/SBfXBUHhVCYeWAJfYerukWz8LsUK23PjqJjy2Ju0vy7BSdHawWeWl-wiy8KIVhqKGDeNGwFdmyUA0JVsHV6tDg'
  lat: 40.129436
  level: 5
  lon: -88.219316
  name:  'The Hope Center'
- ap: 2724
  img:  'http://lh3.ggpht.com/8xd4hzaj-4n3IEMDIUFJw_HTADXXd7fTzV_9Ek1vw5ICnOCBn25zK2b_0oXf8zHflAIcKuFW9XV9TyR9UiiE4g'
  lat: 40.10937
  level: 6
  lon: -88.202986
  name:  'First Wesleyan Church'
- ap: 2724
  img:  'http://lh6.ggpht.com/BtOK_UA_7UyJErE7xLTTwmLcG19nlTBIVAdTbfQVzDhL8s25D3rQ9JZNHM5m0liZck_hsO0vA_4ZVd5jeGI8cg'
  lat: 40.103643
  level: 3
  lon: -88.211298
  name:  'Quercus Robur'
- ap: 2649
  img:  'http://lh4.ggpht.com/J4angdYTKCPYybB0GhGqQPugzEy-7X48yLh6UFakxJsUTJY156aWvDAIxyqAbX9wGOUddPZcWQMvmhS10vVL'
  lat: 40.10391
  level: 3
  lon: -88.21116
  name:  'Carle Park Pavilion'
- ap: 2724
  img:  'http://lh6.ggpht.com/51i9X0vo9i3KSwtX622ajO6twhl2P39oT3p76HpUzdLGB3vT5Q8n3t-F08SZx6PqDxQQxOovXS-BybL6e07i'
  lat: 40.093995
  level: 5
  lon: -88.218417
  name:  '50 Cherry Trees'
- ap: 2724
  img: http://i.imgur.com/5j1qaiT.png
  lat: 40.203973
  level: '?'
  lon: -88.393369
  name:  'Mabery Gelvin Botanical Garden'
- ap: 2724
  img: http://i.imgur.com/5j1qaiT.png
  lat: 40.203721
  level: '?'
  lon: -88.39221
  name:  'dd9c9d84f4934d84a0769ff14c381db2.16'
- ap: 2537
  img: http://i.imgur.com/5j1qaiT.png
  lat: 40.566892
  level: '?'
  lon: -88.616741
  name:  '13d63d6da6bb41fb858b8e714d957975.12'
- ap: 2537
  img: http://i.imgur.com/5j1qaiT.png
  lat: 40.197611
  level: '?'
  lon: -88.379636
  name:  'c0d2f9a95059400cae0121be7c58b495.16'
- ap: 2537
  img: http://i.imgur.com/5j1qaiT.png
  lat: 41.900504
  level: '?'
  lon: -88.759599
  name:  '7cee4a550f344c90b460bc5ed68a9a7a.16'
- ap: 2537
  img: http://i.imgur.com/5j1qaiT.png
  lat: 41.448156
  level: '?'
  lon: -90.156814
  name:  '5124236dfc684b1ea5a1c0c6c17c6687.16'
- ap: 2537
  img: http://i.imgur.com/5j1qaiT.png
  lat: 40.568258
  level: '?'
  lon: -88.616424
  name:  'a768950918e840b489f44c8e9678f62b.16'
- ap: 2537
  img: http://i.imgur.com/5j1qaiT.png
  lat: 40.184013
  level: '?'
  lon: -88.425562
  name:  '6c02b2cd2891495896af56cd322b9e77.16'
- ap: 2537
  img:  'http://lh5.ggpht.com/6W_b3aoHNnxViA4TkycmE5hhV5q_VHfypLNlgG4sAyw2eJ5Meyzi2-vwTA8miyKA5pZApxbfpAa7uc0zlCM'
  lat: 40.134758
  level: 6
  lon: -88.313172
  name:  'Sunset Ridge Prairie '
- ap: 2537
  img: http://i.imgur.com/5j1qaiT.png
  lat: 40.026865
  level: '?'
  lon: -88.535309
  name:  '978bef9392354bf895fe9c00c1cf2a7f.16'
- ap: 2537
  img: http://i.imgur.com/5j1qaiT.png
  lat: 39.714759
  level: '?'
  lon: -88.473589
  name:  '3210233e62ce4931a16fbb519cdac05a.16'
- ap: 2537
  img: http://i.imgur.com/5j1qaiT.png
  lat: 40.568177
  level: '?'
  lon: -88.617642
  name:  '57a8871d872d4adaa2bdeeef216f64b8.16'
- ap: 2537
  img: http://i.imgur.com/5j1qaiT.png
  lat: 41.107659
  level: '?'
  lon: -90.396499
  name:  'a6c6a65b74564eab8696652601de746a.16'
- ap: 2537
  img: http://i.imgur.com/5j1qaiT.png
  lat: 40.940424
  level: '?'
  lon: -89.635886
  name:  '71a24851a3074428b37df8621c592f10.16'
- ap: 2537
  img:  'http://lh3.ggpht.com/xSCQSCRT6pHyQi9LDI3OamMdZnhLQ06OSlHRHnJC0FkDo93VgOcr3gyAV0aPAKagwq9V5iViSSCgIr6_fWCB'
  lat: 40.134441
  level: 6
  lon: -88.314067
  name:  'Seasons Within the Wetland Environmental Sign'
- ap: 2537
  img:  'http://lh4.ggpht.com/T04oZ0k13H90w4QZ7f_QTFH-yrHJNyKsJ-hRWmNk2YnqBSy8KwGZrO0fb-YN5RhCi3vg_903yE64_J-JZu4Z'
  lat: 40.092883
  level: 5
  lon: -88.26295
  name:  'Temple Baptist Church'
- ap: 2537
  img:  'http://lh4.ggpht.com/QglOgByM0vkX6053iLwC1J5_RJICPxQFhSLw8Nwpeb7Z_EWKBUBylLnuHPIZwJHSL2uw66c5ozET1BxTtt60'
  lat: 40.082434
  level: 2
  lon: -88.26199
  name:  'Copper Creek Church'
- ap: 2537
  img:  'http://lh3.googleusercontent.com/mFMoKbSLtdP7TnaDrMHLxDWN1FGdQeY6BuKqxtEYSN--Sp6L7DgrpNlGARlPutxd0UNQuEW3WwuNl_Hny6_1'
  lat: 40.13183
  level: 6
  lon: -88.288788
  name:  'Student Union Building'
- ap: 2537
  img:  'http://lh3.ggpht.com/uMCsrCj0b8EWJ6Hinp58rZ4hjaPm9kBAK5q0aDNtkP3e1Zk6Gh_0COjtW2YYBNzPxGDjJLB4DIXmiyvmrCJkRA'
  lat: 40.128083
  level: 6
  lon: -88.290812
  name:  'In Memory Of James D. Pruitt'
- ap: 2462
  img:  'http://lh5.ggpht.com/M2qxWsTwaMcr-AB3UJByAcCokQ0ptyf7KOh8-SmB1Rsu9ZR9D_hI6lWNZF3oGtoU6FzZVeT08h3IEn-e-_8'
  lat: 40.1279
  level: 5
  lon: -88.289974
  name:  'In Memory Of Charles Eddy Shumate'
- ap: 2537
  img:  'http://lh5.ggpht.com/XSTOU98iZoBFcDNR_YYJQfmQaiD_vXAP5Z7R79nVC7k06VMhH8tHSb9Yb9Pe8OnV1svwvlvy6iyz6vMjg3_EzA'
  lat: 40.132804
  level: 6
  lon: -88.285013
  name:  'W Glenn Karr Memorial Plaque'
- ap: 2537
  img:  'http://lh4.ggpht.com/_DdMD5B3oAmaUEJqlPNFfAWQrMTK0WD5vOIgHVghvtpeVkopnRr7-vjxpi9E9T1LgqRmxZQBleJuat7SCMNc'
  lat: 40.134378
  level: 5
  lon: -88.277984
  name:  'Champaign Water Tower Mattis'
- ap: 2537
  img:  'http://lh5.ggpht.com/93SMm7gYjGLu_6bFOqGL5MXKxKF_NsnHuxiDyywI_Jrhz-LaQoNlm0yw7lG0I9rhp5vnHkATk01A_CNYmYf-'
  lat: 40.128358
  level: 7
  lon: -88.243471
  name:  'Champaign Church of the Bretheren'
- ap: 2537
  img:  'http://lh3.ggpht.com/7sJlWdBFFcLCXWnnfB6SVTzCCDM0Q7KyV5jALfrWG3ICtkw7HXrjzaRrnzSiv19wIswpZoTxKYudzYiZnT9Shg'
  lat: 40.112536
  level: 6
  lon: -88.256779
  name:  'Framer''s Market'
- ap: 2537
  img:  'http://lh6.ggpht.com/Ga3KqqKjCVdJ61URIBqkyBWPxV3xirqZoKzANDZmHeorlcqipmRLJFOy4-GmWU_2_783_KDPu3hkA0PNh5s'
  lat: 40.124082
  level: 5
  lon: -88.243434
  name:  'Theb Sculpture'
- ap: 2537
  img:  'http://lh4.ggpht.com/0pYkppjw5D-G0gCZ1pULK83NAqN9qsyzbBnG8K8YMyMekJwqUrZQDRpTqgqB3rrRD6zJezplE_wlFOTPLovb'
  lat: 40.127745
  level: 6
  lon: -88.287039
  name:  'Parkland College'
- ap: 2387
  img:  'http://lh5.ggpht.com/9VuH5-qaoobAtdEZFkn2uoAcJS5Luq9QLXRevRpv9WAzkjoAB_9hftbELGCCm8M4rxAJ5xTfJWd6E6kb0Or7'
  lat: 40.102016
  level: 4
  lon: -88.281983
  name:  'Centennial Park'
- ap: 2537
  img:  'http://lh5.ggpht.com/tuo_ByFTbwLitFP5cBseOibqRxENxbCwOJ30dCnja5ijBI_qBv5vqNP7ZuZXnxhYM6ms_GbExZEwwKVUtwV2'
  lat: 40.093712
  level: 6
  lon: -88.281583
  name:  'Brownfield Dedication'
- ap: 2537
  img:  'http://lh6.ggpht.com/p2F3xw4xL4UdiMM9aSy628ISSglrvjPexpF3j340tMAP9MX07yh_sJv7kHVkeud8lyFf2ZwDohw3zsRS2PSd'
  lat: 40.093914
  level: 6
  lon: -88.281531
  name:  'Terry M. Warmbier Memorial'
- ap: 2537
  img:  'http://lh3.ggpht.com/F_QKFluz0Gh6sC9FPGcL_wT-n-zRGyp0qQ9mnghB2L5Aer_c6Qm1q7KeGoCaGwDoJax_R_sK1atr3F0hP4Ap3w'
  lat: 40.136807
  level: 6
  lon: -88.257174
  name:  'Champaign Fire Department Mural'
- ap: 2537
  img:  'http://lh6.ggpht.com/wk0l8Qe7j_Ph_LhyPvdNO6g8nwrxpswodrbNuOzLa3K1QNBrIVidi9iztmDXu3HtCWo5TpqDDjPsEbSl2aWUKg'
  lat: 40.144554
  level: 7
  lon: -88.248689
  name:  'Town Center Park Champaign Park District'
- ap: 2537
  img:  'http://lh5.ggpht.com/nWEtxuKQdy0teBBue1DYmG7P3SF5-3A6zlB7GwVHBWlolAZYGq6Br78lWcF9ltFy-KeSlozXie2RmU6JfCUX'
  lat: 40.142673
  level: 4
  lon: -88.244603
  name:  'Italian Statue'
- ap: 2537
  img: http://i.imgur.com/5j1qaiT.png
  lat: 40.152342
  level: '?'
  lon: -88.252345
  name:  'Toalson Park Basketball Hoop'
- ap: 2537
  img: http://i.imgur.com/5j1qaiT.png
  lat: 40.152192
  level: '?'
  lon: -88.252279
  name:  'Toalson Park South Entrance'
- ap: 2537
  img:  'http://lh5.ggpht.com/FEi_8ic1_FXYTyUlXgNz6IOiBsLCPTURCMQCXc2T-lpcQV-d_wdBC3YEDYltNn09_oi76voYbhGSi8P6r6QZ'
  lat: 40.141914
  level: 5
  lon: -88.235279
  name:  'Judson Chapel Baptist Church'
- ap: 2537
  img:  'http://lh5.ggpht.com/QNdE7Z3gNcz1M-mzDms1aMrHPZpKr43FIfnMxwfwdp6kP1N6fPKwUzIx5qrt3k_KBeBFRmcD-PXCWq7V2Ygo'
  lat: 40.119969
  level: 7
  lon: -88.243775
  name:  'Mural at Bentley''s'
- ap: 2312
  img:  'http://lh4.ggpht.com/eiIi_ozTDxkb4MdOndoTytdxfIB-1IAlz7B6mPPsVwLsPSvNxgR3f1ynOCQiAHPJAfWvPR6x6kWP0shmEfu5Mw'
  lat: 40.1198
  level: 4
  lon: -88.243467
  name:  'Incursion'
- ap: 2162
  img:  'http://lh5.ggpht.com/kcTMx3CqTnXQqNvx00fF4K5HQ34eOunlWHiU7JEB4nKyl3U14EbEpsqxVT2opoz78bQFDtIZR0IKDuewhKCG'
  lat: 40.119409
  level: 1
  lon: -88.242244
  name:  'Vintage Orpheum Artwork'
- ap: 2537
  img:  'http://lh3.googleusercontent.com/FMrsRGg4e1AuMu6m4uCIpM5nawtelx8reIfMtog4nuxXU9C7--UKQnUEAm9s4Vc7OfMjfIDX5loNOw4Agz2HAw'
  lat: 40.118715
  level: 6
  lon: -88.242373
  name:  'Richard D James Mural'
- ap: 2537
  img:  'http://lh4.ggpht.com/H1kV6JSczzSbcCblAHg5ZOgITW1mBAz0_oLbqbzxBlijGTBn7TP6KwA6UI0AAGrCN4VF0DAF79Vcj6_2R4dsB8LRTq6tud6v'
  lat: 40.116164
  level: 6
  lon: -88.241661
  name:  'Zipcar-45 E. University Avenue'
- ap: 2237
  img:  'http://lh6.ggpht.com/cnBQN3RYcZFSdxYB52bvMYRD2aTSlDG0_cqBQ8coo0ueKTtGxldE0xGjNPF6xlYJtnba8oUyEKwBeYbO8CY5'
  lat: 40.116631
  level: 3
  lon: -88.246951
  name:  'Lyle Blue Memorial'
- ap: 2162
  img:  'http://lh4.ggpht.com/ULEhKlvERD4aidwSKPhLFujl0N0mZWcHPxtcJ7hNJkyDjYek9yrB4UD_G8bU-O9-12L1LYpDkM068BiYmpm9weZeGJsz-K5whCvUYTfmDqaIp1Fp'
  lat: 40.117
  level: 2
  lon: -88.247111
  name:  'Wesley Robert Weedman Memorial'
- ap: 2537
  img:  'http://lh5.ggpht.com/PI7unWl258r16aSzGzVzmXA-tipsw3vs3MDDXFtwzlkmMfJBhVSwfeOHQxAZLTvdPTJSP8gNbAdJGdslEdkZXg'
  lat: 40.119636
  level: 6
  lon: -88.243213
  name:  'Sunder Planet'
- ap: 2537
  img:  'http://lh3.ggpht.com/qkbAVT5J9ZNQHzzLNSiw9MN3XrDX3B8bj-xJzu8jKrFdykdTZdsEIlzOKXKVfJ5dZNrhJmG8VHZNeF5pR1G6'
  lat: 40.119977
  level: 5
  lon: -88.242247
  name:  'Seed House Historic'
- ap: 2537
  img:  'http://lh4.ggpht.com/EbBkWl7u8IzfuSOKbXTBKdMileYrjubgGK5MOwxzEGIDtOO8oYloK2Mh-oe6t3SLxiC4Dul0W7en-SG0hw4'
  lat: 40.124346
  level: 7
  lon: -88.243367
  name:  'Bannon Mini Park'
- ap: 2162
  img:  'http://lh3.ggpht.com/S2DoIWxkTKxG56hK4lv2QLq8peGyxtsYcpRM7vWxcHOxECyRXDdeMhD-3E7munflftWVVu_FusxLxzJKIOI'
  lat: 40.110892
  level: 2
  lon: -88.241745
  name:  'Twin City Bible Church Midtown'
- ap: 2537
  img:  'http://lh6.ggpht.com/IaC06rT1aNxUg_4UOc0RHOio2PUjl5w1cZcGYE56zHNZN9ZeRuAGzoAPG4XB6eJURfP8M5v7bDcq_AdB1E5A'
  lat: 40.119861
  level: 6
  lon: -88.238491
  name:  'Skelton Park'
- ap: 2537
  img:  'http://lh6.ggpht.com/f43AXqkZOVuig6JgnORI4vC7QZWr2a0lnTW39-gMaRiWW13AuK6U0ZSoFc1k6xi2YvZU6ad6EC-xTq404ZM'
  lat: 40.103258
  level: 6
  lon: -88.241752
  name:  'Medical Services'
- ap: 2537
  img:  'http://lh6.ggpht.com/2Rx43j2Btq5GI7Atdo-QNNLuFVJkY-7DiyLMNbg2kD1wjE77IXmedVtWOjr6wu_mgieNLBnA0GJLZ6zNF3s'
  lat: 40.110735
  level: 5
  lon: -88.236736
  name:  'Park Place Tower'
- ap: 2537
  img:  'http://lh3.ggpht.com/X30u-Y3JoCurNlH3pvt-DlJeV7obUlOeBDbH-tkN6QcPEHvknjSz3nYF8EGtXWani_tyNgcyl2naDFhje8E'
  lat: 40.083706
  level: 6
  lon: -88.251419
  name:  'Harlan E. Moore Park'
- ap: 2537
  img:  'http://lh5.ggpht.com/eefWnoj-zmJ0-dmFtwO4--l3JpC-5UTlkz_yG4cVZcBjcgS48Bk82xPKzNAZ7G9J11AuSNUduWWN8MGCaZgA'
  lat: 40.125013
  level: 4
  lon: -88.231935
  name:  'Douglass Park'
- ap: 2537
  img:  'http://lh4.ggpht.com/-TY2TO77KoFgKpX3BQsYHwD81bqYYr9WE797XFrv_YpO6N5Lf0WdpqwqTEigpXL_xjihxLFgF6l4vYBlgyM'
  lat: 40.12059
  level: 4
  lon: -88.235253
  name:  'Deliverance Temple Apostolic Church'
- ap: 2537
  img:  'http://lh3.googleusercontent.com/8-4OkyRuEuagHGkNAbCDDtz9k34_nWE1lFlUqdqVSLAtsWkVNv5G84IpnbtVcup3-x3u4q6_AJ0OxQdkdt1-'
  lat: 40.113304
  level: 5
  lon: -88.240009
  name:  'VW Bug On The Roof'
- ap: 2537
  img:  'http://lh4.ggpht.com/1n-hHkU1cTz6dykw37WBVQqctZlzyl9gYgy7IMi1zcMf1t0ry6F1JPnwlvUjq_6YNdolofY_rLbuL_uLQwg'
  lat: 40.112913
  level: 6
  lon: -88.237848
  name:  '2nd St. Basin Ampitheater '
- ap: 2537
  img:  'http://lh3.ggpht.com/ei2Kly4PJYB7wpv5MtMVvHz793oQIWOLbz-mjq2ICitv-6BTGVsfA0kPQXiwg3O2Mi__LvZvuashS63u2rwa'
  lat: 40.117638
  level: 6
  lon: -88.227214
  name:  'Under the Sea Mural at Presence Covenant'
- ap: 2537
  img:  'http://lh3.ggpht.com/gmbd8dsk--9MGBF9b8_huzNpPbjrzDw5R9UjqSiA05cRHUIOQRcR-dODKZ9oGUjBnMfufSVzvCekV_YsoOM_'
  lat: 40.118013
  level: 6
  lon: -88.227532
  name:  'Presence Medical Center Triplet Mural'
- ap: 2537
  img:  'http://lh5.ggpht.com/pnMcOl0FAs-A861T6mvs4EQGCm08ZQGxUcMdclhxsgyUThD6KymilbixZqTcT464ZFRUnjMoFee37DuNXxcm'
  lat: 40.10719
  level: 4
  lon: -88.226585
  name:  'College of Agriculture'
- ap: 2387
  img:  'http://lh3.ggpht.com/b9HBD2zL4T02YqqDOnuBzYEU0UECTZDRgjLjZJV7cnX75wbmiWtc5yBUo_FZrZ8yBH69UsrbeJlq-VS-mPmi'
  lat: 40.109438
  level: 2
  lon: -88.226301
  name:  'Illite and Clay Mineralogy Plaque'
- ap: 2537
  img:  'http://lh5.ggpht.com/dgQfoxxVeHT5ODqLiUYHV45qvkC_BMS0kIFRqvHvE2GO0TduZ0-XzhW8RE80LtPDK0Ay5xwA6PtjM7G3C9U8'
  lat: 40.108947
  level: 7
  lon: -88.232251
  name:  'McKinley Church'
- ap: 2537
  img:  'http://lh3.googleusercontent.com/hvoLMUc9UoNVVPttxWTc8PzOWdu5MBmPETnBexH7Alyl20WGCrNa0G_j7DwvD3qbhqpTaeThFhGDV2rCtp8'
  lat: 40.107629
  level: 6
  lon: -88.224484
  name:  'Bucky Balls'
- ap: 2537
  img:  'http://lh3.ggpht.com/lGjbP2iz0XvlEWLhgCBNqkWukvjrBowKmX-1_O44U1A3_4b3-vuXzkfp7rasqU81TcPBoQO82gAzEGtBBYcR'
  lat: 40.106058
  level: 5
  lon: -88.223672
  name:  'Music Building'
- ap: 2462
  img:  'http://lh6.ggpht.com/rnWumKyBYpVW5hCfQDlvRaT_666UPI5lo3k6HGdxWuLVsDbD8c7l-BU1HwhBqiGeCW28iEghSQtvZFzqK4w'
  lat: 40.109013
  level: 3
  lon: -88.22587
  name:  'Understanding Photosynthesis Plaque'
- ap: 2537
  img:  'http://lh3.ggpht.com/POVqVDorpNyT78a1jNBYargU2WzX94oR7tmPRWdJpIYV2w5OZwXO5M0mJU_sIMCB-b3l1-mcCmck-f87iAw4'
  lat: 40.090059
  level: 6
  lon: -88.219342
  name:  'Illini Nellie Memorial'
- ap: 2537
  img:  'http://lh3.ggpht.com/7qvblF8IJPE_GlNC-0H-3-uvbw-LO0WvGTcs3eGsfxl9qIfPSHIoEP0WVScW5akBfIuNtHggyR43gyD6aQw'
  lat: 40.099867
  level: 7
  lon: -88.233082
  name:  'Stevick Family Memorial'
- ap: 2237
  img:  'http://lh5.ggpht.com/fHd4PN9y6K8vITWYf02HBqZwj7gTOYz9XqUVbI3_bHVW0KUAbFgY_jdyXgwKOFRz8VeKMD2BkELNjIedp5Le'
  lat: 40.108821
  level: 3
  lon: -88.228411
  name:  'John Milton Gregory''s Grave'
- ap: 2237
  img:  'http://lh5.ggpht.com/8OgQHnRehZt9nl_igzh_0k19Qp5vRgGVHo2IukHGLeEp0iNTb_YUZRDseHY39JvlTc0ROrDtbmt8SBAEFPOwpA'
  lat: 40.108965
  level: 2
  lon: -88.226465
  name:  'Harker Hall Fountain'
- ap: 2537
  img:  'http://lh5.ggpht.com/xFA-_rX_Fvpc_9_KCGgwoiK1bA5LmXLIA8lj_ZuLwZi2uLUN5nYRdU_CSLOG8ENCjU-e98_2YrE15UdhGtPe0A'
  lat: 40.097978
  level: 5
  lon: -88.199811
  name:  'Trinity Lutheran Church'
- ap: 2537
  img:  'http://lh4.ggpht.com/KsmRX5P5UbaolWiuVxkfCCEqGC1hzAjUwXW92kI7ONqLlxLxa_7i9IOVyNYisv_wMY8MGmeCVZodfghe5i33'
  lat: 40.127323
  level: 5
  lon: -88.189447
  name:  'Urbana Dog Park'
- ap: 2537
  img:  'http://lh4.ggpht.com/sz_e7469a1MnmlNIKBE9ABOh9Z5c-TMUKTj_dlubknMbwU0IKI_4hZ8QQtHWwjgbnkA_Plk1yb2bT4XQ3UjA'
  lat: 40.104561
  level: 4
  lon: -88.21207
  name:  'Carle Park'
- ap: 2537
  img:  'http://lh6.ggpht.com/JeyTR9Ntp2SxIdvTxHGqu5zXzMo7stGncs5TYYFLlRf0WEb6U4dc4EOvDZ1szjub_UqgSO_HgZ7tUKs9PUAkEQ'
  lat: 40.109634
  level: 6
  lon: -88.206203
  name:  'Zeb'
- ap: 2537
  img:  'http://lh6.ggpht.com/tOF7Ft9RlLtyZFsF5nnPXT-iYLimviXLPuiXL8F6KbEzsFuJAOd95jsFivR8L_bnMpbJ6W-tXEZmSYXHE_Ix'
  lat: 40.104008
  level: 7
  lon: -88.209927
  name:  'Lincoln the Lawyer'
- ap: 2537
  img:  'http://lh5.ggpht.com/H6c2QR_sGnIrBNnlkreE_k9AGNNj03EgBFOn2L-D_occ8syrKvx4f0LJ3s-YNtw6SyGGI9htmM5uD6aWWbRQ'
  lat: 40.103403
  level: 4
  lon: -88.211706
  name:  'Brian L. Larson Memorial'
- ap: 2312
  img:  'http://lh3.ggpht.com/gJYGj7_wDDnnkZAlCFgChMLxPptIEvTDKzPJQqVLWhygPTnHHPEe9YrX22kkUU6oScgCqoGv_Sb_cKdY6V32'
  lat: 40.10395
  level: 2
  lon: -88.211413
  name:  'Carle Park Fountain'
- ap: 2537
  img:  'http://lh5.ggpht.com/ZuQsVGG_hYNEQBCxlEE2o4D_xN06Rx7boJfzhuaB7f1LtufSWuQ-Vh3li157BVl7r0HMb-Hi-30_kP4JYu95'
  lat: 40.093827
  level: 5
  lon: -88.21821
  name:  'University Of Illinois Arboretum Hosta Garden Plaque'
- ap: 2537
  img:  'http://lh5.ggpht.com/uPtnzuRe-ecQ96RCGZIDNQeF-9zi0Swrhof7CKDIXF0ly7DZpq9S2Qb5UVhycFhF4hJVahRXq0WKbg9EndVE'
  lat: 40.093444
  level: 5
  lon: -88.190356
  name:  'Grace United Methodist Church'
- ap: 2537
  img:  'http://lh3.ggpht.com/ZrkQ9I09rQynLgNHgTWMc8sm29XEvwj5QcSQhhgTtN7hDh1pSZHSTI63mz6wWj1jkhlz1qYkKyHD0SJWPNMY'
  lat: 40.094863
  level: 6
  lon: -88.190535
  name:  'Splintering Continuity'
- ap: 2537
  img: http://i.imgur.com/5j1qaiT.png
  lat: 40.186782
  level: '?'
  lon: -88.375899
  name:  'Mahomet Public Library'
- ap: 2537
  img: http://i.imgur.com/5j1qaiT.png
  lat: 40.205206
  level: '?'
  lon: -88.393464
  name:  'ffb1c8830f184f8b9886fbf7c7604a37.12'
- ap: 2537
  img: http://i.imgur.com/5j1qaiT.png
  lat: 40.203785
  level: '?'
  lon: -88.390448
  name:  '3e498955983f48bbb55d0e1fae996ef2.16'
