- ap: 11346
  img:  'http://lh5.ggpht.com/-UWK84I78Sftf7yg-E2pg6xEAWTvyiThgJBJlxbqOZPYKNmzQ8uGgEEMetzplrG1HpXG5kQqNItUeXKxOHDsGA'
  lat: 40.100286
  level: 8
  lon: -88.251747
  name:  'Tennis Anyone'
- ap: 9472
  img:  'http://lh5.ggpht.com/C6wRSaEWO1NYGY5luyYZKHG3Z3aib4aflaPdV7B9G6N6adE890g3QuPRSvCUhsdFHqjoVUjo27mfz9WsjXyuhQ'
  lat: 40.100521
  level: 8
  lon: -88.250864
  name:  'Gabriel Patrick Maxeiner Memorial'
- ap: 7972
  img:  'http://lh3.ggpht.com/lzCSS0_tjwUV7JQ2fgLI0e05IrzPxlVUs-6aEPOwUv67IanQJSTi71gkw0SGm8asmoE_r3Xoh048Fd9xRpE'
  lat: 40.099169
  level: 8
  lon: -88.251419
  name:  'Lyman Larson Memorial'
- ap: 7972
  img:  'http://lh6.ggpht.com/yjfa0jJLjsfLRf9Zn9iafMp3MuIhgCi0WiOCF8GqTGiGvzEnsPGrFa0H1n-uzWhVehLbt44ShthsA32VzHd5iQ'
  lat: 40.099737
  level: 8
  lon: -88.251157
  name:  'Tyler Van Atkins Memorial'
- ap: 7035
  img:  'http://lh5.ggpht.com/BUGNnLReyCBJJj9_zpqgwv5_CAyiW8fWBpyVs0ip1hT5NEE6YKCYzlc8ahldKzk_xv-4uckNJNb6NrJd6r33qg'
  lat: 40.116989
  level: 7
  lon: -88.242255
  name:  'Blind Pig'
- ap: 7035
  img:  'http://lh4.ggpht.com/vKgqIecJshMQxrhO-ZhMjcIyARuJdyU63wKfzAG0wouZex6LVzO46Qi5zM1N3Jx8xyantDFk9sQGsSEBhb-y'
  lat: 40.101327
  level: 8
  lon: -88.251412
  name:  'Zeus Memorial'
- ap: 7035
  img:  'http://lh5.ggpht.com/ENeQgqydWbi9-Oyf7vizunoRqJdsZV4o0RA_956wjGI8hqpTCHBPyWMpbTrrkwYpj5tgzDRvevGmvH4eFRU'
  lat: 40.099593
  level: 8
  lon: -88.251724
  name:  'Blessings from Devon Elaine Cattell'
- ap: 6848
  img:  'http://lh6.ggpht.com/S7Utf4_59vQkAP5JhC3mdbzVLKBTt-0zoJ2UjfxUnN10VBbixO-_VwvssWd1LbFSx_yafaijd_U0wTGo870'
  lat: 40.100941
  level: 8
  lon: -88.251314
  name:  'Gabriel Patrick Maxeiner Memorial Plaque'
- ap: 6285
  img:  'http://lh5.ggpht.com/4DJAFPeZ_w65Km7VDnsbOqouQaeBuPuxA0KHPQToT_B6o1hBxzdu3kn89UhHgv22Ygj52Fx9QqcbzOytuw'
  lat: 40.100078
  level: 8
  lon: -88.250683
  name:  'Brian Clark Memorial Plaque'
- ap: 6285
  img:  'http://lh4.ggpht.com/4LxsGZZMk3DnpJXUvqzrL54CHSP5TDXjUnDJyHmCCTtCJIjGEI7kxT9g4uxfSPh0X6yGLgQo1jfqbu7B8VEr'
  lat: 40.099084
  level: 8
  lon: -88.251826
  name:  'Irina P. Stewart Memorial Plaque'
- ap: 6285
  img:  'http://lh6.ggpht.com/5CDidk0pqfUtSW_Yqouuf3diX8drdMu9DoT728QpSz8q6A-WxNhT0yLcgM_7gGpyIAeXrHiTkIzzaVJFgnN9WA'
  lat: 40.099852
  level: 8
  lon: -88.251947
  name:  'Our Friend Tim Palmer'
- ap: 6098
  img:  'http://lh4.ggpht.com/B_I1b0Jy3vW41RX8jjCNPP68AULplU0Pf8ddolyKmpEWCfBVShQkmjF1HfTPzDjmBBQGgOs0jHW-rUR0mv8BkA'
  lat: 40.098789
  level: 7
  lon: -88.251685
  name:  'Curtis William McKinney Memorial'
- ap: 5348
  img:  'http://lh4.ggpht.com/-MJc8fCVxpxV7prlhkP3sXPWZ7jsr8Behc29zUJqdz_V57jSg7SzyMUUv7B9Frzu36mJhM2PQkr_LJk-zyM'
  lat: 40.117729
  level: 5
  lon: -88.243645
  name:  'Watson''s'
- ap: 5348
  img:  'http://lh4.ggpht.com/PHV-1ZpFzCAl_ViCKwBY_x2pIDbVyaT7wJH1sTvFJCxrSdRrO1x7NaXq9OdRGwz_Mls4iwk6wuGHMBArfV54'
  lat: 40.098688
  level: 8
  lon: -88.25063
  name:  '"New Holland Yellow Dinosaurs" at Hessel Park'
- ap: 5348
  img:  'http://lh3.ggpht.com/G1CvGhpethi5UmprDWxZN9rTblHa3anSsQz1UPgJtkREkfN7lDFoxFObst0609Cg5mofuZxJKr0ddNKhY4VL'
  lat: 40.098464
  level: 8
  lon: -88.251426
  name:  'Ruth Haasis Memorial'
- ap: 5161
  img:  'http://lh3.ggpht.com/8FqlniFErK7cq59awiT84u8KyV4FIRd5krZzfYa58zJToFps7whdBnriPqvO_kFKeLUE3SWbJhCOPuvUQzaGFA'
  lat: 40.100691
  level: 8
  lon: -88.251337
  name:  'In Loving Memory of Zeus'
- ap: 4972
  img:  'http://lh3.googleusercontent.com/abyzHmsDcu4wr2nZ5KrzfryQDjq08lgz16ggCtHboK-pAhp8lhjyJoStUFTg-XDe4SPzYjAxvNLQuix4tsgc'
  lat: 40.132193
  level: 5
  lon: -88.279832
  name:  'Tribute to Olympic Athletes'
- ap: 4598
  img:  'http://lh4.ggpht.com/nxDeNwbXxYuo1VyX_qnfxvSql7bfLS5wokO9KwPy6x9CPdTsbILpEr9jM-sXHDsic6WPJnbvWci9eDEcNOWo'
  lat: 40.129554
  level: 5
  lon: -88.286025
  name:  'Dodds Park Soccer Fields'
- ap: 4598
  img:  'http://lh6.ggpht.com/duOeXcOSQLWosdD0JJXg3pWWQp4t5sL0x9qDHoTIBFNOzEW0t53Lt2cnwgV2E_Su0l1ajIQxPtVbbK_sDRaS'
  lat: 40.141775
  level: 4
  lon: -88.242671
  name:  'Marketplace Mall Fountain'
- ap: 4598
  img:  'http://lh3.googleusercontent.com/vMuPZQrBjsuqibkb-FCbuVrZzyuUSOhjlXxxxRc9hq0Y7prkP-Fpk1Hh6o5Eq8BhT6s7GRP5S5z2KFUL7hJY'
  lat: 40.113606
  level: 6
  lon: -88.243766
  name:  'Mural on South Neil St.'
- ap: 4411
  img:  'http://lh5.ggpht.com/nWEtxuKQdy0teBBue1DYmG7P3SF5-3A6zlB7GwVHBWlolAZYGq6Br78lWcF9ltFy-KeSlozXie2RmU6JfCUX'
  lat: 40.142673
  level: 3
  lon: -88.244603
  name:  'Italian Statue'
- ap: 4411
  img:  'http://lh5.ggpht.com/KadNuhjGK6FUXezGHW1W1kfPOQV5l7gJP594EQm5nPZFLTgcTsjl4ixa-j7XitgtyJyou3q0pTfMr4i2E_avIA'
  lat: 40.118013
  level: 5
  lon: -88.243445
  name:  'Clock at Neil and Main'
- ap: 4411
  img:  'http://lh6.ggpht.com/XsUl74M1oxj6ptAvGEBOMH2wivRhxBNns62UJSGcPiQkuJIgPrmUYxMpSZZUfXRMMjrwoxlFK_DbAM78UrOh'
  lat: 40.113499
  level: 6
  lon: -88.244374
  name:  'Shatterglass Studios Mural'
- ap: 4411
  img:  'http://lh5.ggpht.com/dRrlHXlT2nMNgZNHiYo52ha9L-Xay9DyOJR2Cpqs74hgAJ09abn9OTAtMzRVedt1_R9ObZllLO98vRhNMfgTgVsJCk1S-HJwX_XgiGpG4lz3a328'
  lat: 40.11671
  level: 6
  lon: -88.24263
  name:  'Cafe Kopi'
- ap: 4411
  img:  'http://lh6.ggpht.com/SCYK-XeMmOyfRrTt1-aQNoDA-2Sib4m5Ch26mTwo6XNdVeVnfi7W74Ik6IRLAPSoKzSS97pgwt50Jl9oSgGfP029USxZzQWKNJo3rbs-6YHBPBif'
  lat: 40.116792
  level: 6
  lon: -88.241752
  name:  'WEFT 90.1 FM Community Radio'
- ap: 4411
  img:  'http://lh5.ggpht.com/HhVreJipNvxPRVFpmsh2BPo9PcpPO2Q2l3jCpDjIKgfKGycoTNPXR4DKiYccBXW4X-4dJf_vV0ESsWAWHcChsg'
  lat: 40.100936
  level: 8
  lon: -88.250855
  name:  'Donald F. Bresnan Memorial'
- ap: 4411
  img:  'http://lh3.ggpht.com/VrbXGwlUosNLEkVdshWUFoVa3KtlJQoEU4yLYygvftYbPCmxo644Uvar_v8Kb9RS53hB0tXgvV44GotrxZyu'
  lat: 40.098592
  level: 8
  lon: -88.251676
  name:  'Ruth and Fred Steigmann Plaque'
- ap: 4411
  img:  'http://lh5.ggpht.com/tfAfnmo6mSMc6U0P533NMFJRGwn6lasmx-MLR2JJg1QOizMKkghFU8E7hb2zgYgdQEbgnCJUlvZIMdrrJe4'
  lat: 40.100822
  level: 8
  lon: -88.25193
  name:  'Seeds of Kindness Bench'
- ap: 4411
  img:  'http://lh6.ggpht.com/qSCp5fQMlyCQ-GOAgiSFy5gaHJei705Pa3eOlJiYO5wGjZTYtjA8q7QWWfAWcLKjxZSaFiMfXOPR8SO7rWU'
  lat: 40.099353
  level: 8
  lon: -88.251876
  name:  'Raymond B. Cattell Memorial'
- ap: 3848
  img:  'http://lh4.ggpht.com/bzGBa_8g8we9vEYlZ-a10Ugz_B36DNFCNFsnUmAPy3Aji53kcVj0FaVE28zxnedZgY5Ozi94A8obmXuFQ1vL'
  lat: 40.132632
  level: 5
  lon: -88.279968
  name:  'Vernon W Fitch Memorial'
- ap: 3661
  img:  'http://lh3.ggpht.com/whrVudLIelW8yHGGZa7geAVXvbkevW5Vc4DbMBSrMTYN38-Cce_sYnEFxEDWHJQouK3L-LjMbbADmlyYto_D'
  lat: 40.131036
  level: 5
  lon: -88.2778
  name:  'AISC Steel Teaching Sculpture'
- ap: 3661
  img:  'http://lh3.googleusercontent.com/Bt3IS0wHTEIBXewdfdsA7Pg1GqaUcaidDmsRZoqzNtoliVB9SYnGVPSNB9OvFv_edjQhPesp7YV0GKSKZgk'
  lat: 40.083988
  level: 6
  lon: -88.287936
  name:  'Flower Island'
- ap: 3661
  img:  'http://lh6.ggpht.com/A3o1Nm3JPbfRGX8fs0D87GlAc2sSTKVl6IimAZxRyIfLyPcsMcbx7s4WqUTkMcz70wzyETv1zaJZtlBTRdBG'
  lat: 40.083723
  level: 6
  lon: -88.288027
  name:  'Windsor Road Christian Church'
- ap: 3661
  img:  'http://lh3.googleusercontent.com/hJZWoErzM-MuXulq4FlhlZwMbJX1Isd81GBUBVKayd57jVIVxUle3itd-1DRKo2VaNXznWr1X639fa44Etk'
  lat: 40.141919
  level: 5
  lon: -88.244611
  name:  'Marketplace Mall Carousel'
- ap: 3586
  img:  'http://lh5.ggpht.com/wX6-mbTE7nT00T6ildapKbI5ZrnhPIt4l91DhMseyo3GYFrgQIuqbjh8ntZY6NxGZ-qa6fKWlyoBOPdIdNIt'
  lat: 40.114653
  level: 5
  lon: -88.243729
  name:  'The Phoenix'
- ap: 3474
  img: http://i.imgur.com/5j1qaiT.png
  lat: 40.439829
  level: '?'
  lon: -86.968009
  name:  '540c6cf72279400698cb4f1a1d1f3ee2.16'
- ap: 3474
  img: http://i.imgur.com/5j1qaiT.png
  lat: 41.156259
  level: '?'
  lon: -87.657985
  name:  'd8beb8f8277845a9b61f2f4176f70a00.16'
- ap: 3474
  img: http://i.imgur.com/5j1qaiT.png
  lat: 40.475531
  level: '?'
  lon: -87.029299
  name:  'fcca4672b9594e55bfd4f6ad4de949c7.16'
- ap: 3474
  img: http://i.imgur.com/5j1qaiT.png
  lat: 40.561018
  level: '?'
  lon: -88.900234
  name:  '2e4c86f3add64206bd90a57bd8fa10af.16'
- ap: 3474
  img: http://i.imgur.com/5j1qaiT.png
  lat: 40.565188
  level: '?'
  lon: -88.61306
  name:  '6ab35b80fa5949c990af0fe7eb3db8c8.16'
- ap: 3474
  img: http://i.imgur.com/5j1qaiT.png
  lat: 40.878365
  level: '?'
  lon: -88.777245
  name:  'a58a2b0d69594c249e6fa1e2f1d103b1.12'
- ap: 3474
  img: http://i.imgur.com/5j1qaiT.png
  lat: 40.51766
  level: '?'
  lon: -88.070336
  name:  '250c208763b7499a83ba1257a22011c2.16'
- ap: 3474
  img: http://i.imgur.com/5j1qaiT.png
  lat: 40.517758
  level: '?'
  lon: -88.070712
  name:  '6223016ce96e4292aed4a7e32d42e535.12'
- ap: 3474
  img: http://i.imgur.com/5j1qaiT.png
  lat: 40.172593
  level: '?'
  lon: -88.239993
  name:  'Faith Baptist Church'
- ap: 3474
  img:  'http://lh3.ggpht.com/1FtcyHMJRhFifRLb3-BiKpl51XTW56r_DM5chcCXA0F1nwRDjcqv1FFQZoj42pyMoGxHo0Wq98ovWw-FBjDjFA'
  lat: 40.086561
  level: 6
  lon: -88.289447
  name:  'Meadow Square Park'
- ap: 3474
  img:  'http://lh3.ggpht.com/07XrBN-er6Ecleor0n9RJ4DfGO6B2yn-ZxjI-Uy8Ba46Jtb6cXNVmATPiPiGyk-1jZ4wxa7-EeIWbWUqArCG'
  lat: 40.142554
  level: 4
  lon: -88.243468
  name:  'Dog Heart'
- ap: 3474
  img:  'http://lh3.googleusercontent.com/ZyXHLNlediISMVLqM9sUeZ0FEft3El4ni5P7GPOy5UF2YYBkTywnN5g1lkaer_lDNSvBUvg7bQ5yA_4Wd9qRWg'
  lat: 40.113521
  level: 5
  lon: -88.244122
  name:  'Artistic Graffiti at MCS'
- ap: 3474
  img:  'http://lh4.ggpht.com/ryDcZUJK2aQ_fI0-hY850_t4ZmG2hNmtCx7cxbX83w3cnUWdI-ywpTuQrUVQNxGl3_DcxxNr6bupfDTsagRa'
  lat: 40.117107
  level: 6
  lon: -88.242467
  name:  'Radio Maria'
- ap: 3174
  img:  'http://lh5.ggpht.com/kcTMx3CqTnXQqNvx00fF4K5HQ34eOunlWHiU7JEB4nKyl3U14EbEpsqxVT2opoz78bQFDtIZR0IKDuewhKCG'
  lat: 40.119409
  level: 3
  lon: -88.242244
  name:  'Vintage Orpheum Artwork'
- ap: 3399
  img:  'http://lh5.ggpht.com/n8MFM2pb-tE5i9EziJdygPPUK8VqEZ4BHGQaywz4lwe3WjwdgO0ohBCPZmiMoL00r3mVPmYnbCunJDeFbyk'
  lat: 40.118593
  level: 4
  lon: -88.240416
  name:  'Champaign Rail Water Tower'
- ap: 3324
  img:  'http://lh3.ggpht.com/qkbAVT5J9ZNQHzzLNSiw9MN3XrDX3B8bj-xJzu8jKrFdykdTZdsEIlzOKXKVfJ5dZNrhJmG8VHZNeF5pR1G6'
  lat: 40.119977
  level: 4
  lon: -88.242247
  name:  'Seed House Historic'
- ap: 3098
  img:  'http://lh3.ggpht.com/waYCvQnciDHIQoBYQqAoe2ioBs3DAhMQQsBboKyfNVNSWibmmRTf0SLvaoU5EwCFyWydn7rCCfrLXtLqQfA8'
  lat: 40.135683
  level: 5
  lon: -88.27634
  name:  'Champaign Fire Department'
- ap: 2911
  img:  'http://lh3.ggpht.com/tXuCgd1tvCtlonW_e1jLC_5DH6g4Qh6zIUKhJeoBZuLvyB0ql69PlymRU3Ywf5lq_8PFYNylEKOiC_qJnnzJpg'
  lat: 40.138006
  level: 5
  lon: -88.272375
  name:  'Jericho Missionary Baptist Church'
- ap: 2911
  img:  'http://lh3.ggpht.com/LunaMtSKD9yiLQClolDY-Iqh0ENm9AgJdL4D1QxGs0j6TXPgqxDZea35x5ilAfeI5_0TGh5x1q1EqRsJsLFi'
  lat: 40.114111
  level: 6
  lon: -88.243697
  name:  'Champaign Surplus'
- ap: 2724
  img:  'http://lh5.ggpht.com/d_xORafhhRGmWQQYxORFs1dW_6uXGimDkw117yVoO46fU96UHRY1GWk3ln65AsNRtevh1vFgECrCK8gJD4Y'
  lat: 40.133113
  level: 5
  lon: -88.279062
  name:  'Champaign County Workers Memorial'
- ap: 2724
  img:  'http://lh5.ggpht.com/ZfmaOk3UM4PNzP-z0AvBPFqYLc6wAEDSPhL1cSVjXMAFSv4Jadm-hV--eP3OaJuaksphYKN5s6bhWhluTGs'
  lat: 40.133327
  level: 6
  lon: -88.280335
  name:  'Prairie Grid'
- ap: 2724
  img:  'http://lh5.ggpht.com/ulBje3DZHcOGkPDTXihNL1tamRAm_GO1CREW8fA5fV0Znq1eF2J1hnbSZh35emEA1h9cL1qTj9FqGtb8VywgXQ'
  lat: 40.13765
  level: 5
  lon: -88.273074
  name:  'Garden Hills Park'
- ap: 2724
  img:  'http://lh4.ggpht.com/a1FVYK5FqYQAl_d_TEIbk8PE4kKJVyIHNjJiJWlhHcozcrVi9qVZ137z5mYYlOeePqk0aqBqWwdZxEIgkxz0HA'
  lat: 40.132588
  level: 6
  lon: -88.279491
  name:  'Ronald D Schafer Plaque'
- ap: 2537
  img: http://i.imgur.com/5j1qaiT.png
  lat: 42.113248
  level: '?'
  lon: -86.487068
  name:  '867f89d0c3ba42c7a58678c054dca42c.12'
- ap: 2537
  img: http://i.imgur.com/5j1qaiT.png
  lat: 41.796468
  level: '?'
  lon: -87.575566
  name:  '4955fb3ad66a4c3b9558ad4aae5e14b6.16'
- ap: 2537
  img: http://i.imgur.com/5j1qaiT.png
  lat: 40.312242
  level: '?'
  lon: -88.201368
  name:  '2012 Employee Dedication Bench'
- ap: 2537
  img: http://i.imgur.com/5j1qaiT.png
  lat: 40.279711
  level: '?'
  lon: -88.346869
  name:  'Sangamon River Forest Preserve'
- ap: 2537
  img: http://i.imgur.com/5j1qaiT.png
  lat: 40.876682
  level: '?'
  lon: -88.861446
  name:  '8d9848d39a1543f0ab27e0cbcea5da70.12'
- ap: 2537
  img: http://i.imgur.com/5j1qaiT.png
  lat: 41.419146
  level: '?'
  lon: -87.984409
  name:  'f171431f606d4d3a8e4ca7ad58e0ee8d.16'
- ap: 2312
  img:  'http://lh6.ggpht.com/9ocSZtxwhI0ZOXkGFEbDOH1572LrymOwYpROz-hP90Uk4BAS8FIjCB4GXt2ndpQrlEV-tG4qc0zoMlk9693z'
  lat: 40.12977
  level: 3
  lon: -88.271927
  name:  'Citizens Park'
- ap: 2537
  img:  'http://lh5.ggpht.com/pSVHjk6puyYdv3ztHlpJGnbkZyGsGsirMnxkDhlt8UMko4AhtTQbrzwInBCu5lK4Ttf7furE5pNW2AZh8HuSZQ'
  lat: 40.138109
  level: 5
  lon: -88.270158
  name:  'Glory Center International Church'
- ap: 2462
  img:  'http://lh4.ggpht.com/H1kV6JSczzSbcCblAHg5ZOgITW1mBAz0_oLbqbzxBlijGTBn7TP6KwA6UI0AAGrCN4VF0DAF79Vcj6_2R4dsB8LRTq6tud6v'
  lat: 40.116164
  level: 4
  lon: -88.241661
  name:  'Zipcar-45 E. University Avenue'
- ap: 2537
  img:  'http://lh5.ggpht.com/3RlX64kTBLKCXBSds_94_nwH_9CuOIDqOXJSr4wBmVRx_XLPiftZQxH_5SeR_rgh0Hpgww3dUsNKCyRno3ey7Q'
  lat: 40.08557
  level: 6
  lon: -88.265106
  name:  'Lauren Kay Benninger Bannon Memorial'
- ap: 2537
  img:  'http://lh6.ggpht.com/0vHaOKrH35vUHDfapI4QDvHSJLenhiXHIhdWBwVKzEB741Ky8B7mMeXnUtOlIYycCbLUO-dRzHZFrPQFFbFZ'
  lat: 40.085791
  level: 6
  lon: -88.265411
  name:  'Karen A. Sayers Memorial'
- ap: 2537
  img:  'http://lh6.ggpht.com/tvtZZis6qG1YsnE4ZRp9fdL3-XEu08jw8oYvSOYqkbrIkD71abS7blCPv63VovyNFWlpHvmXTjl3tl-lXII'
  lat: 40.092821
  level: 5
  lon: -88.218095
  name:  'Japan House Tsukubai'
- ap: 2537
  img:  'http://lh3.googleusercontent.com/sT7DTIyEUTt0xRUwXrJLi2NnzjG5Jt_We4i4zQVcwDLCqiBxYzzBUi-mgg6aU7bpCp52puLCHCga_JuAmQMb'
  lat: 40.092682
  level: 4
  lon: -88.217865
  name:  'Japan House'
