- ap: 14533
  img: http://i.imgur.com/5j1qaiT.png
  lat: 40.195404
  level: '?'
  lon: -88.40408
  name:  '35d2540a6dab4d509460962b545bd2bf.16'
- ap: 9472
  img:  'http://lh4.ggpht.com/CPNLxxDLwT8XTTIYSHB8Q_UYxT1Kys0VZFsb09WRjmkphTcuq1vN8RwaafOPe5Thv1r_pL-bzeCjmR-aHoAe'
  lat: 40.193086
  level: 5
  lon: -88.402986
  name:  'Middletown Cemetery'
- ap: 8909
  img:  'http://lh5.ggpht.com/KYppjeOoIlb4lbowRrrC5qRdYW7_KU8rzjtDMpvhh-Q_c6VZOTtVmOqmmxChJA2hjlpS5dJ1JnhUQcKUAXDWHA'
  lat: 40.117976
  level: 5
  lon: -88.242642
  name:  'Stevick Building'
- ap: 8535
  img: http://i.imgur.com/5j1qaiT.png
  lat: 40.194971
  level: '?'
  lon: -88.403465
  name:  '9ac55f1a3bf140e5abc27bbc95fb2036.16'
- ap: 8535
  img: http://i.imgur.com/5j1qaiT.png
  lat: 40.195019
  level: '?'
  lon: -88.402935
  name:  'c87d5b6cf7ea4bae962a48d438be958c.16'
- ap: 8533
  img:  'http://lh6.ggpht.com/BANSBFfuZ3_0ya-JodV7jEB1a-DwSOyegBwPKAODSUFHLmvI7b8zwSiLUAvvqIAYjpU6S_Lm8XRBJ30KDGCIEg'
  lat: 40.116917
  level: 5
  lon: -88.24078
  name:  'North Star Sculpture'
- ap: 8346
  img:  'http://lh5.ggpht.com/AX1hc0zh7ZtN2MoSsNXTKwRtGJWb8EgeHffmjJfZvCLL7wvvjMZ8d0BwESKKrdNM--UUKA09PrLQ9qmTrMw'
  lat: 40.117186
  level: 6
  lon: -88.241556
  name:  'Champaign Limestone Sidewalk'
- ap: 7035
  img:  'http://lh3.googleusercontent.com/5FkLhIMVmAJJSslAXVxY1RNxi-4q5mNAVPK2XgU5LwRM8qcB8BGXOK0GmF6Y_xfgPOhwF_CrbcgVZlJx-Pza'
  lat: 40.11652
  level: 5
  lon: -88.241845
  name:  'Mike ''N Molly''s'
- ap: 7035
  img:  'http://lh4.ggpht.com/3gTAX6rKgNjLmBOYvAVTgSPQej5yRF_38uRllp9H4n5N6pvwWo5kDMDwlIkFVPPl30BXPSGAlZ9pO9B4DMk'
  lat: 40.116218
  level: 5
  lon: -88.242141
  name:  'Live Action Games'
- ap: 7035
  img:  'http://lh4.ggpht.com/ryDcZUJK2aQ_fI0-hY850_t4ZmG2hNmtCx7cxbX83w3cnUWdI-ywpTuQrUVQNxGl3_DcxxNr6bupfDTsagRa'
  lat: 40.117107
  level: 5
  lon: -88.242467
  name:  'Radio Maria'
- ap: 7035
  img:  'http://lh5.ggpht.com/KadNuhjGK6FUXezGHW1W1kfPOQV5l7gJP594EQm5nPZFLTgcTsjl4ixa-j7XitgtyJyou3q0pTfMr4i2E_avIA'
  lat: 40.118013
  level: 6
  lon: -88.243445
  name:  'Clock at Neil and Main'
- ap: 7035
  img: http://i.imgur.com/5j1qaiT.png
  lat: 40.194198
  level: '?'
  lon: -88.411814
  name:  '1ccf6b05218445debe76c7f512b7ca78.16'
- ap: 6848
  img: http://i.imgur.com/5j1qaiT.png
  lat: 40.195188
  level: '?'
  lon: -88.40358
  name:  '7cc24f4019674432a28f220ec66a8e73.16'
- ap: 6848
  img:  'http://lh5.ggpht.com/ncfefTWsVvZWHVozJVxFU0p2EzGdz74tJxMRB96Xaqo9wYsBbi01bALm5uOAn14GkFMSo3o_d1TAcvcUa2JYRg'
  lat: 40.193851
  level: 5
  lon: -88.403214
  name:  'Brooks-Warfel Memorial Park'
- ap: 6472
  img:  'http://lh5.ggpht.com/KuDVZqnpBQnne0a_UqpN4wpsQFlw3nVXAWtRKP_AdZ3CjQ0MHUBgU_2hE8hb71h31FTQbduYmB6DNuVKA0s'
  lat: 40.116822
  level: 5
  lon: -88.243445
  name:  'Remembering Horeb'
- ap: 6285
  img:  'http://lh4.ggpht.com/W2chhQwPqSJEkl57NVoIL-OE4KFvJfp7Bsrrxza1apCYltcT3npz95LJxqHxvT9ZZu7wxF2gQy-5bpKal2p2'
  lat: 40.115838
  level: 5
  lon: -88.241338
  name:  'Illinois Terminal'
- ap: 6098
  img:  'http://lh6.ggpht.com/ea6HxAw7m0OhhPqJJkZR9u60pR1sab_JdxaOyEltqmQd-63FFJzPY72jEnu08g9Gcjjj5cf3jyyS_M1E7OIbfg'
  lat: 40.11616
  level: 4
  lon: -88.241422
  name:  'It''s A Mistree'
- ap: 6098
  img:  'http://lh4.ggpht.com/H1kV6JSczzSbcCblAHg5ZOgITW1mBAz0_oLbqbzxBlijGTBn7TP6KwA6UI0AAGrCN4VF0DAF79Vcj6_2R4dsB8LRTq6tud6v'
  lat: 40.116164
  level: 5
  lon: -88.241661
  name:  'Zipcar-45 E. University Avenue'
- ap: 5160
  img:  'http://lh6.ggpht.com/MsCeiBKy8tV3-ziINPCBPzkisfwOnBClSPr68FUxT1uMHlVmqtyTYYxNAZapU8bvWdcmm0lsmIzjMyv0CTJ2tQ'
  lat: 40.095364
  level: 2
  lon: -88.217386
  name:  'Miles C Hartley Selection Garden'
- ap: 5198
  img:  'http://lh4.ggpht.com/tLO2wjyCgyune3KDOlQMV_oiDRxVsHqO1gAG_0xs9TvKOiuWRVmJcO29WI7jELxoxncaXpy91kMa89Uj65JVNw'
  lat: 40.11784
  level: 3
  lon: -88.24286
  name:  'Kaufman Memorial'
- ap: 5348
  img: http://i.imgur.com/5j1qaiT.png
  lat: 40.193832
  level: '?'
  lon: -88.418247
  name:  'c4f1bdcf000d43b8b7234a2bbb69e70c.16'
- ap: 5161
  img: http://i.imgur.com/5j1qaiT.png
  lat: 40.194212
  level: '?'
  lon: -88.404801
  name:  '8cf09139a3c94690a24b17209dac3400.16'
- ap: 5161
  img: http://i.imgur.com/5j1qaiT.png
  lat: 40.195251
  level: '?'
  lon: -88.403825
  name:  'be5ca27857734636a834fcaec3fb76db.16'
- ap: 4785
  img:  'http://lh3.googleusercontent.com/FMrsRGg4e1AuMu6m4uCIpM5nawtelx8reIfMtog4nuxXU9C7--UKQnUEAm9s4Vc7OfMjfIDX5loNOw4Agz2HAw'
  lat: 40.118715
  level: 5
  lon: -88.242373
  name:  'Richard D James Mural'
- ap: 4598
  img:  'http://lh3.ggpht.com/bVNaflT1bCgFsUDizKeHZFExlTyUFdVVpjEqrpacNh843YeRnU98IEQb8a02eE36XmEJXAkBC-FG1_3ezYP7'
  lat: 40.095365
  level: 5
  lon: -88.216784
  name:  '1867 Garden'
- ap: 4261
  img:  'http://lh4.ggpht.com/_jAAuDi8SO5uupi8JlB3HZaFG40S15izNv_3vqOt7ro2rRHuXrfdEKfEFvRESdAjCEz3RVDpyrxJGSIrju5d'
  lat: 40.117916
  level: 3
  lon: -88.243087
  name:  'Sholem Building'
- ap: 4411
  img:  'http://lh5.ggpht.com/J4IbsPUjPF6cIlktTr1tOGHi61krS9o1eXeuAlPRBrSYUQrwdyShfNzuzxD0epa_cBMPF1xJ9YhoBA5VOQtYRw'
  lat: 40.105467
  level: 1
  lon: -88.225644
  name:  'Smith Music Hall'
- ap: 4411
  img:  'http://lh4.ggpht.com/N-xxTzGXK34K-VdTOWaWrFJeP9_SLZ7ZBluxK2mjP51yZx_5HOMi_mb4Nu2rWgo3gOqUb19_cPb662sI7td_'
  lat: 40.105687
  level: 5
  lon: -88.225714
  name:  'Smith Memorial Hall'
- ap: 4186
  img:  'http://lh4.ggpht.com/ZIOjKYlH2wMvdRD5A5HKGJPgBUYAaA7xHjGYnoXNzhzPIE6KR05FBciTJcN-AojoLyuwRlp3SF3TR1PXBrUPjw'
  lat: 40.094935
  level: 3
  lon: -88.216986
  name:  'Leroy Hubble Honorary Bench'
- ap: 3661
  img:  'http://lh5.ggpht.com/kcTMx3CqTnXQqNvx00fF4K5HQ34eOunlWHiU7JEB4nKyl3U14EbEpsqxVT2opoz78bQFDtIZR0IKDuewhKCG'
  lat: 40.119409
  level: 5
  lon: -88.242244
  name:  'Vintage Orpheum Artwork'
- ap: 3661
  img:  'http://lh6.ggpht.com/cUV2o6ZPyJSFnHYl7jePeUIS7BrVr1H5D8Zbf7B3B8ALrTq7pTI3e271i1DHztqUGXITpiA399P3vNP83fk0'
  lat: 40.105767
  level: 3
  lon: -88.223378
  name:  'Busey Hall'
- ap: 3661
  img:  'http://lh3.ggpht.com/0HyRE6hI-Dp8OIZWrGjSBLw06g4xLl3H3SxdYDO-wm20QdpGQtvQ1-GBpxfAE5WNcC0D_aY-oOfGM1Wj1--EvQ'
  lat: 40.106092
  level: 3
  lon: -88.223135
  name:  'String Project Plaque'
- ap: 3661
  img:  'http://lh3.ggpht.com/oSQ_YOHo2mfYjOa8bPK9ellznKK29UluW-SeXoGYra9VFg8dJp6YQRdHbHHaTExqXs1qUMBNmpI2hUPcC4GI'
  lat: 40.106789
  level: 5
  lon: -88.222992
  name:  'Beginnings of Computer Music Plaque'
- ap: 3474
  img:  'http://lh3.googleusercontent.com/v44Gf5oEZGcwkQcA2wWz-uAeDFESHj7sEloxdCJd316RPH3w_ln8_9mBEMbAqGyI_2Y2qaYp525PnRip9Rg'
  lat: 40.105315
  level: 3
  lon: -88.226125
  name:  'U of I Observatory'
- ap: 3399
  img:  'http://lh4.ggpht.com/OKjZe5DNbqsjBvhTWI2C_GTSbIMUanllb49pzoadj3izBmngp5kFNgLokw6jbL1Y3BnreLD-LmzLdNEx-eRI'
  lat: 40.105694
  level: 3
  lon: -88.225345
  name:  '1981 Iota Chapter White Anchor'
- ap: 3474
  img:  'http://lh6.ggpht.com/ONc6NEwX34IJR8FuaTy8phi9yEoEDMyOn9GRlqJJlv2fU-ky1s4L6OflOmO5pORHew3EOrF0ehzlIv5HFMff'
  lat: 40.118344
  level: 5
  lon: -88.210055
  name:  'Lake House at Crystal Lake Park'
- ap: 3474
  img:  'http://lh6.ggpht.com/ip01yZFDdi_w_oQ9qKF40m0xZBcj62odRMMEkBoiO6Pu_WUGqItkR8Dx-sJEgGpNxbTl9zxdS3cKZsDNJl4'
  lat: 40.118411
  level: 4
  lon: -88.210576
  name:  'Civil War Memorial'
- ap: 3474
  img:  'http://lh6.ggpht.com/VGq5_qMrAE5FbP2m0Maszw451m-OfbmuUYDIryB0OyOe4-R92nr43XAmU-Rl5GExMkQzJHBA2a45SDWOypA'
  lat: 40.118224
  level: 5
  lon: -88.210862
  name:  'Labor Day Memorial'
- ap: 3099
  img:  'http://lh5.ggpht.com/W2upB0MQ9l_1Z1JYjKFslTSSU-oi3b_kOidwTlG4pOCZRHWiD52CzcX2WMquuVEnMpxhtSRQOuAdLgDn8rs'
  lat: 40.096671
  level: 2
  lon: -88.217873
  name:  'Skull And Wagon Wheel'
- ap: 3474
  img:  'http://lh4.ggpht.com/jEbgkWj4jIpuTGF0BsLL3Qhx62u2Xh7IFfVmCspv6e6FjmSfbeTYkwQgAZ75wN8NpO2Lus14Khr5O4f9jvup'
  lat: 40.094517
  level: 5
  lon: -88.217269
  name:  'White Oak'
- ap: 2724
  img: http://i.imgur.com/5j1qaiT.png
  lat: 40.57024
  level: '?'
  lon: -88.612411
  name:  'bf36781a29324e90ba5e642026048116.16'
- ap: 2724
  img:  'http://lh3.ggpht.com/NfT2lF-sDianTwLMh0ZBNPZJd2GwFyVqBX9dYM60Ql-AgN58IA8dbfX2J1dT72YJPSDbyqB16mie75kI--nG'
  lat: 40.094327
  level: 5
  lon: -88.295051
  name:  'Midwest Believers Church'
- ap: 2724
  img:  'http://lh3.googleusercontent.com/vw4Js8jf11Ok889K1stO5ujNjIO9Ah9DEbsg1xBTrVbaeyBetcG75B8YS8CkQA0KVC8NA5Z02n220SI1UzdB'
  lat: 40.10985
  level: 6
  lon: -88.227236
  name:  'Illini Union'
- ap: 2724
  img:  'http://lh4.ggpht.com/PmGpygZ2fBs43twk2Y44XZbgGcHWv0YimAq7Fp3vlIRRqUyLpSmDmFwcn1ucfmJarcQrAAXJjYAXAhNyxSrz'
  lat: 40.110049
  level: 6
  lon: -88.231968
  name:  'Potbelly Mural'
- ap: 2724
  img:  'http://lh4.ggpht.com/2tHD_AHYQu0kWuwLX2HMYWBG4txVkuWsBEfzWLL39npWp8kMSHiUKxSJM1E7yhimuMVUJ-RIlSSKsgjETvtr'
  lat: 40.110524
  level: 4
  lon: -88.228706
  name:  'Leo Roy Tehon Memorial'
- ap: 2537
  img: http://i.imgur.com/5j1qaiT.png
  lat: 41.053466
  level: '?'
  lon: -89.04979
  name:  '94b2245b5bf546fe91834ff8f19dc1f4.16'
- ap: 2537
  img: http://i.imgur.com/5j1qaiT.png
  lat: 41.431428
  level: '?'
  lon: -88.345007
  name:  'e5729b394f784af7b533789a1237123b.16'
- ap: 2537
  img: http://i.imgur.com/5j1qaiT.png
  lat: 39.941083
  level: '?'
  lon: -88.460102
  name:  'St Joseph Catholic Church'
- ap: 2537
  img: http://i.imgur.com/5j1qaiT.png
  lat: 40.025747
  level: '?'
  lon: -88.572538
  name:  '21a2246476ed4fffacb480327eccaa5f.16'
- ap: 2537
  img: http://i.imgur.com/5j1qaiT.png
  lat: 39.934753
  level: '?'
  lon: -88.957556
  name:  '5dfedb1489ca48fa9807fef43a9973c0.16'
- ap: 2537
  img: http://i.imgur.com/5j1qaiT.png
  lat: 40.00737
  level: '?'
  lon: -88.643258
  name:  'edb4899e3e4b4e2480be59f92e5f2c92.11'
- ap: 2537
  img: http://i.imgur.com/5j1qaiT.png
  lat: 40.561204
  level: '?'
  lon: -88.900302
  name:  'dea434f7da6f437386ae98f3a4035d31.16'
- ap: 2537
  img: http://i.imgur.com/5j1qaiT.png
  lat: 39.912869
  level: '?'
  lon: -88.271225
  name:  '7ae31819d59a42a286e4aba7926a74ac.16'
- ap: 2537
  img: http://i.imgur.com/5j1qaiT.png
  lat: 40.273821
  level: '?'
  lon: -88.676394
  name:  'Blue Star Highway Memorial'
- ap: 2537
  img: http://i.imgur.com/5j1qaiT.png
  lat: 40.608368
  level: '?'
  lon: -88.480335
  name:  '82af2b2fd43e469fb969173a09262699.12'
- ap: 2537
  img:  'http://lh5.ggpht.com/jwu_GyddG2hU2-J2NqQUB_w5s034VhQHXb2PcHvvH0bLBmy8uhFA-n8IkB2sfkZRVuQ_rj8s4Sg-inu8uiEr'
  lat: 40.108986
  level: 5
  lon: -88.295589
  name:  'First Church of God'
- ap: 2537
  img:  'http://lh6.ggpht.com/Z9OoAT12enRNYI3CgnpFhdqCbDwZCyEyHUKPcE1Zexv5STafk6tkRrQyJoPhd8L0LiEV0nW4XyE5BoDFlfE'
  lat: 40.092568
  level: 5
  lon: -88.295013
  name:  'Meadowbrook Community Church'
- ap: 2537
  img:  'http://lh4.ggpht.com/z_Fp4CjBJYtN4kSA8B6McrcZLVB4_KD9Hti35M_32PXV6LsudmzxIitDELx-nbrk2VMgnhYGZ-Zc89L0OAR7'
  lat: 40.086676
  level: 5
  lon: -88.243056
  name:  'Illinois Fire Service Memorial'
- ap: 2537
  img:  'http://lh3.googleusercontent.com/8uMYuZy0Us1c6m26i0q3fiQ2sptx9Og4z2bMHuLtSt_Woc8U5yKYiXLiC2Oz38uiO4m3z3SU3svJ6uRX-_o'
  lat: 40.086941
  level: 5
  lon: -88.242452
  name:  'Water Survey Research Center L'
- ap: 2537
  img:  'http://lh5.ggpht.com/f710C9AvOEB7ieCI4f382wWUP4OgDxiqPzbxqxct6Ugf2PWBfyXyDpG_JcRQ6PaZ_jS0jpXXBhNSt_u9rFA'
  lat: 40.113864
  level: 6
  lon: -88.224839
  name:  'Plato: A Social Networking Revolution Begins'
- ap: 2162
  img:  'http://lh4.ggpht.com/q2L_InMJy4JZq79dX9LLf9XauoaXGOLl7SWvVyD9F_jIgyqpn7SsqHfY9EMYq1SLteTpj0cQDZN4f9x0IuvV5w'
  lat: 40.107273
  level: 2
  lon: -88.222942
  name:  'Tryon Festival Theater'
- ap: 2537
  img:  'http://lh5.ggpht.com/AmsS7GEfFX-_Icem2DP6mjQahV1jeut1CGdeqLqfpyzx0m5SqhVY4eoAohizF0xsevPQufmLRMoVj2rW7Fe8'
  lat: 40.111689
  level: 6
  lon: -88.231193
  name:  'Koi Building Art'
- ap: 2537
  img:  'http://lh6.ggpht.com/1El0oK6CWDh7rAQeFmPEW_dA252pdq7piTtjtuQCkZvwRa689NLjEafLqQ35TI5qCW3Lmhja9PLQqKxFs9Ha'
  lat: 40.110627
  level: 4
  lon: -88.227584
  name:  'Tau Beta Pi Statue'
- ap: 2537
  img:  'http://lh6.ggpht.com/TXVMllOHjnPSJgg_7oE4ZuY82xJs56TE9AbaxAFxXWiD5yKwlOZUHfx74BaxCzczl9hTtaKqkaDsA4LeZ94'
  lat: 40.110617
  level: 2
  lon: -88.228248
  name:  'Everitt Lab'
- ap: 2537
  img:  'http://lh4.ggpht.com/hJDi8J7CZU-933hT0Culp2nhslv6p8rDRPdTFz6FwNaAjB5CmfkaQzj9sM--E-QBvI8yvIJn1F2jxy7ZKWlh'
  lat: 40.10816
  level: 5
  lon: -88.234245
  name:  'Stratford House'
- ap: 2537
  img:  'http://lh4.ggpht.com/OFVPvdgB3GVpaQknHdnt2okgP3xcQksAH3wvOGYVuP85MMlxo3bQ2SRpBb0hzNfjQoC_5LlRqaE6jLB-h9Gr'
  lat: 40.108092
  level: 5
  lon: -88.234589
  name:  'Koinonia Plaque'
