- ap: 9659
  img:  'http://lh6.ggpht.com/yjfa0jJLjsfLRf9Zn9iafMp3MuIhgCi0WiOCF8GqTGiGvzEnsPGrFa0H1n-uzWhVehLbt44ShthsA32VzHd5iQ'
  lat: 40.099737
  level: 7
  lon: -88.251157
  name:  'Tyler Van Atkins Memorial'
- ap: 8909
  img:  'http://lh3.ggpht.com/lzCSS0_tjwUV7JQ2fgLI0e05IrzPxlVUs-6aEPOwUv67IanQJSTi71gkw0SGm8asmoE_r3Xoh048Fd9xRpE'
  lat: 40.099169
  level: 7
  lon: -88.251419
  name:  'Lyman Larson Memorial'
- ap: 8159
  img:  'http://lh4.ggpht.com/PHV-1ZpFzCAl_ViCKwBY_x2pIDbVyaT7wJH1sTvFJCxrSdRrO1x7NaXq9OdRGwz_Mls4iwk6wuGHMBArfV54'
  lat: 40.098688
  level: 7
  lon: -88.25063
  name:  '"New Holland Yellow Dinosaurs" at Hessel Park'
- ap: 7972
  img:  'http://lh3.ggpht.com/8FqlniFErK7cq59awiT84u8KyV4FIRd5krZzfYa58zJToFps7whdBnriPqvO_kFKeLUE3SWbJhCOPuvUQzaGFA'
  lat: 40.100691
  level: 7
  lon: -88.251337
  name:  'In Loving Memory of Zeus'
- ap: 7222
  img: http://i.imgur.com/5j1qaiT.png
  lat: 43.220098
  level: '?'
  lon: -86.3314
  name:  'bdfe213652fb4fbc9f5d1418f8b7af6c.16'
- ap: 7222
  img: http://i.imgur.com/5j1qaiT.png
  lat: 44.607633
  level: '?'
  lon: -87.43205
  name:  '8e6a8255e7c342e8806313a728bf9918.12'
- ap: 7222
  img:  'http://lh3.ggpht.com/gJYGj7_wDDnnkZAlCFgChMLxPptIEvTDKzPJQqVLWhygPTnHHPEe9YrX22kkUU6oScgCqoGv_Sb_cKdY6V32'
  lat: 40.10395
  level: 4
  lon: -88.211413
  name:  'Carle Park Fountain'
- ap: 7035
  img:  'http://lh6.ggpht.com/S7Utf4_59vQkAP5JhC3mdbzVLKBTt-0zoJ2UjfxUnN10VBbixO-_VwvssWd1LbFSx_yafaijd_U0wTGo870'
  lat: 40.100941
  level: 7
  lon: -88.251314
  name:  'Gabriel Patrick Maxeiner Memorial Plaque'
- ap: 7035
  img:  'http://lh6.ggpht.com/qSCp5fQMlyCQ-GOAgiSFy5gaHJei705Pa3eOlJiYO5wGjZTYtjA8q7QWWfAWcLKjxZSaFiMfXOPR8SO7rWU'
  lat: 40.099353
  level: 7
  lon: -88.251876
  name:  'Raymond B. Cattell Memorial'
- ap: 7035
  img:  'http://lh6.ggpht.com/5CDidk0pqfUtSW_Yqouuf3diX8drdMu9DoT728QpSz8q6A-WxNhT0yLcgM_7gGpyIAeXrHiTkIzzaVJFgnN9WA'
  lat: 40.099852
  level: 7
  lon: -88.251947
  name:  'Our Friend Tim Palmer'
- ap: 7035
  img:  'http://lh5.ggpht.com/ZBaYXHOKUz2Vxe_dieY9xFrO4KgTUtaLB91ggoRg5ypkxwdZOdAbLLO0ZJl8gH1FuR5TuvtWg0i5GJI4_TmiCw'
  lat: 40.11676
  level: 4
  lon: -88.194563
  name:  'Pavilion in the Woodland'
- ap: 7033
  img:  'http://lh5.ggpht.com/DebAit5dt4fRUaqvm-qbtIu1w1qep15Lpzb1kkMbiUT3_qT31rdXxCeIVQ_szOWqP16Es-q5irPAf-80kc6IAA'
  lat: 40.0986
  level: 6
  lon: -88.283262
  name:  'Diaz Memorial'
- ap: 6472
  img:  'http://lh5.ggpht.com/HecdcuIKHPW3-6JCUlxHgv4kdBv7MXPpXBiWEczpoqzICIiFGkoPXGYJlGZLUCRJGjph6toVnnVWKVoXijhZIA'
  lat: 40.115947
  level: 4
  lon: -88.192222
  name:  'Ambucs Park'
- ap: 6285
  img:  'http://lh3.ggpht.com/rUgM7jkTqL0VHxvsSW0yWuNJF5UrU62ITflghfn4PfKjn6L4WGz0ALkv98fc_q9dmK9SSpU1PXIawGvcRwE'
  lat: 40.098246
  level: 7
  lon: -88.251974
  name:  'Hessel Park'
- ap: 6285
  img:  'http://lh5.ggpht.com/tfAfnmo6mSMc6U0P533NMFJRGwn6lasmx-MLR2JJg1QOizMKkghFU8E7hb2zgYgdQEbgnCJUlvZIMdrrJe4'
  lat: 40.100822
  level: 8
  lon: -88.25193
  name:  'Seeds of Kindness Bench'
- ap: 6285
  img:  'http://lh3.googleusercontent.com/OJqY1AUoZ28MDbchhtJ4BXjAeEUJsIUW9en5XctYJukeTYOV_zmwBnngt6wmdVqSjj0G4qwF-Mr7Hsqx8LKl'
  lat: 40.109736
  level: 5
  lon: -88.224983
  name:  'Methodist Symbolism'
- ap: 6098
  img:  'http://lh3.ggpht.com/G1CvGhpethi5UmprDWxZN9rTblHa3anSsQz1UPgJtkREkfN7lDFoxFObst0609Cg5mofuZxJKr0ddNKhY4VL'
  lat: 40.098464
  level: 8
  lon: -88.251426
  name:  'Ruth Haasis Memorial'
- ap: 6098
  img:  'http://lh5.ggpht.com/C6wRSaEWO1NYGY5luyYZKHG3Z3aib4aflaPdV7B9G6N6adE890g3QuPRSvCUhsdFHqjoVUjo27mfz9WsjXyuhQ'
  lat: 40.100521
  level: 7
  lon: -88.250864
  name:  'Gabriel Patrick Maxeiner Memorial'
- ap: 6098
  img:  'http://lh4.ggpht.com/B_I1b0Jy3vW41RX8jjCNPP68AULplU0Pf8ddolyKmpEWCfBVShQkmjF1HfTPzDjmBBQGgOs0jHW-rUR0mv8BkA'
  lat: 40.098789
  level: 7
  lon: -88.251685
  name:  'Curtis William McKinney Memorial'
- ap: 6098
  img:  'http://lh3.ggpht.com/VrbXGwlUosNLEkVdshWUFoVa3KtlJQoEU4yLYygvftYbPCmxo644Uvar_v8Kb9RS53hB0tXgvV44GotrxZyu'
  lat: 40.098592
  level: 7
  lon: -88.251676
  name:  'Ruth and Fred Steigmann Plaque'
- ap: 6098
  img:  'http://lh5.ggpht.com/-UWK84I78Sftf7yg-E2pg6xEAWTvyiThgJBJlxbqOZPYKNmzQ8uGgEEMetzplrG1HpXG5kQqNItUeXKxOHDsGA'
  lat: 40.100286
  level: 8
  lon: -88.251747
  name:  'Tennis Anyone'
- ap: 5798
  img:  'http://lh3.googleusercontent.com/erdNDM4HaNMn_EeFz0IoM_0LQWykLGJ1Y7-URXSvEithPHs8Rnwf7oWZyxVKu7qOpPdKjeeCy3dkywZ7n6KrsA'
  lat: 40.111615
  level: 3
  lon: -88.235593
  name:  'Fred B Lamb Trail'
- ap: 6098
  img:  'http://lh3.googleusercontent.com/0hydzoUNO41CcF2qZhlhMbaEgMVFjql3_RSDgrJLVIToqRsqh2aBcAoXsrxAlwXqgTcB1R71HZiHrjq1KdnXgA'
  lat: 40.11243
  level: 6
  lon: -88.235749
  name:  'Fountain at Scott Park'
- ap: 6098
  img:  'http://lh4.ggpht.com/9hzMj8KV-HraIucojjHAEgyMZsJAR9TWvNS-QSBB5LTYBOTwwqfTQySJ_Sz88eP3eyFWFYhx5qDVY93t8fk'
  lat: 40.108032
  level: 7
  lon: -88.225702
  name:  'Centennial Court'
- ap: 6098
  img:  'http://lh5.ggpht.com/H6c2QR_sGnIrBNnlkreE_k9AGNNj03EgBFOn2L-D_occ8syrKvx4f0LJ3s-YNtw6SyGGI9htmM5uD6aWWbRQ'
  lat: 40.103403
  level: 3
  lon: -88.211706
  name:  'Brian L. Larson Memorial'
- ap: 5535
  img: http://i.imgur.com/5j1qaiT.png
  lat: 40.152871
  level: '?'
  lon: -88.253305
  name:  '50197185529145c883d36b74db0ec522.16'
- ap: 5535
  img:  'http://lh5.ggpht.com/0Ll2ab4pgOcvmpTrWmn4pfXaPEf2myKfU4AJY7_vKquWsFLrHBYTczg-A6Z96aQQu83na1h1jmcUN88wcd6H'
  lat: 40.117139
  level: 4
  lon: -88.191974
  name:  'Ambucs Express'
- ap: 5535
  img:  'http://lh6.ggpht.com/PJNZOMCQPAWy2UMMUz7FvQhEb9zSo2mg1ImzZDYViGOn1FI2EqJX2AwZe_uOwiAKSL2QYkbPfTaRsdL2VvmG'
  lat: 40.103204
  level: 5
  lon: -88.212443
  name:  'Serviceberry'
- ap: 5348
  img:  'http://lh3.googleusercontent.com/mRLfm7nmeWoRTWuL9j9CIdpj5Wi6Lj_ghejJOVgI2tREVdkZjp_vLtvGFd53n6ey4lYuJCvRblhcq2QJAzHc'
  lat: 40.132819
  level: 5
  lon: -88.286151
  name:  'Dodds Park'
- ap: 5348
  img:  'http://lh5.ggpht.com/HhVreJipNvxPRVFpmsh2BPo9PcpPO2Q2l3jCpDjIKgfKGycoTNPXR4DKiYccBXW4X-4dJf_vV0ESsWAWHcChsg'
  lat: 40.100936
  level: 7
  lon: -88.250855
  name:  'Donald F. Bresnan Memorial'
- ap: 5348
  img:  'http://lh4.ggpht.com/4LxsGZZMk3DnpJXUvqzrL54CHSP5TDXjUnDJyHmCCTtCJIjGEI7kxT9g4uxfSPh0X6yGLgQo1jfqbu7B8VEr'
  lat: 40.099084
  level: 7
  lon: -88.251826
  name:  'Irina P. Stewart Memorial Plaque'
- ap: 5348
  img:  'http://lh4.ggpht.com/eoFw5gx9tcBj51FvuWLBsaFZ7TdxW0i1ez8HiVWtHsPE262Fcf5-fE7MAIzvgDr2tLCZzG79np6cdQDZzWou'
  lat: 40.112029
  level: 6
  lon: -88.23655
  name:  'Scott Park Bridge'
- ap: 5348
  img:  'http://lh6.ggpht.com/I-l0KMezFAwrNcsN5-RPQCQbH4VnCa-C2GtwAQwrtAOcyFmOp_PxGmTwtTHCrR-O1hokLKIrtjyzuTsdP1E'
  lat: 40.112048
  level: 6
  lon: -88.236887
  name:  'Scott Park Rain Garden'
- ap: 5348
  img:  'http://lh6.ggpht.com/BtOK_UA_7UyJErE7xLTTwmLcG19nlTBIVAdTbfQVzDhL8s25D3rQ9JZNHM5m0liZck_hsO0vA_4ZVd5jeGI8cg'
  lat: 40.103643
  level: 4
  lon: -88.211298
  name:  'Quercus Robur'
- ap: 5348
  img:  'http://lh6.ggpht.com/xxeIna-Mp_s6sWP2q0pQb8ArgRjTHMAPs_70QPHu6125M3ToW1y8q40xpyyMdqzNrz8XipF7ZIQUKsy1fBtX'
  lat: 40.116846
  level: 4
  lon: -88.19223
  name:  'The Ambucs Park Woodland'
- ap: 5161
  img:  'http://lh5.ggpht.com/ENeQgqydWbi9-Oyf7vizunoRqJdsZV4o0RA_956wjGI8hqpTCHBPyWMpbTrrkwYpj5tgzDRvevGmvH4eFRU'
  lat: 40.099593
  level: 7
  lon: -88.251724
  name:  'Blessings from Devon Elaine Cattell'
- ap: 5161
  img:  'http://lh5.ggpht.com/gkIcCbfmQWyJ7s9ryhzfOOn1K-oa8huqzZN80X2psVjx_6Iur5egjGncbUIAMLiAJAf9qG1Ac8lX2MomHYY'
  lat: 40.108185
  level: 6
  lon: -88.225203
  name:  'Statue at Medical Sciences'
- ap: 5161
  img:  'http://lh3.googleusercontent.com/EwXPPCiuVPRkECPKlJtyqReSySoJKEdwrx1MkNVUy6EM9xWU_fet1Z-sLfx_P2_c54DeJcApxdl-hKg9vGVEtw'
  lat: 40.108224
  level: 6
  lon: -88.223549
  name:  'Colwell Playhouse'
- ap: 4785
  img:  'http://lh6.ggpht.com/Jz3ahY5LQ13wKWLY9SEvexiinJa3GeO1eB_FynplikRpa77swLST6cUAJjPpqKDSq2KU4Dcyui-QBstz_Z3k'
  lat: 40.094624
  level: 6
  lon: -88.282953
  name:  'Greenbelt 2'
- ap: 4785
  img:  'http://lh5.ggpht.com/OF0rdXnVnZe6syFsa4G9CE6iyvhfoYQN3QH9RESyB78MTKDC2NXYJuVd0TAnACMccmsKXhNcBH6qzWy9DPQ'
  lat: 40.105073
  level: 2
  lon: -88.231952
  name:  'University of Illinois Armory'
- ap: 4785
  img:  'http://lh3.ggpht.com/UCJEg0nnZFNSfAC4NfT2gp9OudEjLUlBiuDJTG4gHlqqHWj8gXAlFIR92jIPXQa3I6VnEMYSwenr5PMJylrt'
  lat: 40.104077
  level: 4
  lon: -88.212367
  name:  'Stalking Panther'
- ap: 4598
  img:  'http://lh6.ggpht.com/aHhLEb8O6JqkElC1drnlJBmq8qeC2WzA4W48qkRQwuE9B6opSfHVKARNHu-uAZN-jvPRznVdmobggqRbw9E'
  lat: 40.100674
  level: 6
  lon: -88.281589
  name:  'Catherine Josephine Feinen Memorial'
- ap: 4598
  img:  'http://lh6.ggpht.com/WA_L9RXB_ZwCyxpgQ7Lyjp1-4xTl5O-BQohOBQcoEMnP7-wKp--MGUdnY_DPuCGZ78-x0LtEWc8FT2n9QMPS'
  lat: 40.148879
  level: 6
  lon: -88.258423
  name:  'War Veteran Memorial'
- ap: 4598
  img: http://i.imgur.com/5j1qaiT.png
  lat: 40.152192
  level: '?'
  lon: -88.252279
  name:  'Toalson Park South Entrance'
- ap: 4598
  img:  'http://lh6.ggpht.com/yD7CHjpaf-cL3AcbXXrUaGWgMnfw38K3EZbqWYVBmyEzzCK6wRavKxcIWhEcpyTBDiX61ttCH_wg2oJbEwQt'
  lat: 40.11671
  level: 4
  lon: -88.192622
  name:  'The Ron Meyer Express'
- ap: 4411
  img:  'http://lh3.ggpht.com/ehNwLdaa71H3Bylm063pawn4caIGz2rCdmmdBhAFWIuEt2kPjT8nWHDkSuoOidckWiM82FWpDSNGQqQMHiQ'
  lat: 40.098209
  level: 6
  lon: -88.28689
  name:  'First Church of the Nazarene'
- ap: 4411
  img:  'http://lh4.ggpht.com/a1FVYK5FqYQAl_d_TEIbk8PE4kKJVyIHNjJiJWlhHcozcrVi9qVZ137z5mYYlOeePqk0aqBqWwdZxEIgkxz0HA'
  lat: 40.132588
  level: 2
  lon: -88.279491
  name:  'Ronald D Schafer Plaque'
- ap: 4411
  img:  'http://lh5.ggpht.com/d_xORafhhRGmWQQYxORFs1dW_6uXGimDkw117yVoO46fU96UHRY1GWk3ln65AsNRtevh1vFgECrCK8gJD4Y'
  lat: 40.133113
  level: 2
  lon: -88.279062
  name:  'Champaign County Workers Memorial'
- ap: 4411
  img:  'http://lh5.ggpht.com/M86zCVcXjmwIC0SQgJ3q_heSiWsj4BJoAcO4SpBWLGzt7XQ3kJMk_1GdLAM_SOt_OkZnGrAEV9_g2KSQCguZ'
  lat: 40.133808
  level: 6
  lon: -88.284367
  name:  'Dodds Park Softball Complex'
- ap: 4411
  img:  'http://lh5.ggpht.com/-aOZyLFNK96FhUdQBYhmRPZrs_PB1oiLRcrPjKwFBANQ42LxLbbHfTZVw_F01meecQXfNQwJYy7qqVh8Q0gR9g'
  lat: 40.133768
  level: 5
  lon: -88.281275
  name:  'Butterfly'
- ap: 4411
  img:  'http://lh5.ggpht.com/Ubq0MuIsu5MU-I8JiOC7oX_aheDNBNsG-UlSMPqA5BRkHJX9BDDUPWGQxXllzVgaxFeo23u3zu_hlJesprpNJg'
  lat: 40.133421
  level: 4
  lon: -88.280893
  name:  'Greenbelt Bikeway'
- ap: 4411
  img:  'http://lh5.ggpht.com/BoAN9OSCH5u7G1sestzZaXjjik82i-SteF6-r5KTTyl530q9H5G3ibjJdqpGGY-nL8MypRXn2twwvn_y5nMmug'
  lat: 40.133159
  level: 4
  lon: -88.28778
  name:  'Campus Solar System - Saturn'
- ap: 4411
  img:  'http://lh4.ggpht.com/vKgqIecJshMQxrhO-ZhMjcIyARuJdyU63wKfzAG0wouZex6LVzO46Qi5zM1N3Jx8xyantDFk9sQGsSEBhb-y'
  lat: 40.101327
  level: 7
  lon: -88.251412
  name:  'Zeus Memorial'
- ap: 4411
  img:  'http://lh3.ggpht.com/nHykU-r6nAcUQliLD4vcs6UTayaoX6Aay87D-bgyrRjGaqMQQYuxIbHuVKSTH0vbqNO9g2sBdp_ZBWLM3LDYeQ'
  lat: 40.103044
  level: 4
  lon: -88.211741
  name:  'Great Neighborhoods Dedication'
- ap: 4035
  img:  'http://lh4.ggpht.com/Tpl5ga1h9vBjG88A6xRDnvBxx7F1epdVZYUY-FNnoOS6H_0OkWXC-RqCtNsk5WSZcOBwMvdY56QCHo0hvoE'
  lat: 40.102744
  level: 6
  lon: -88.277916
  name:  'Church of God in Christ'
- ap: 3848
  img:  'http://lh4.ggpht.com/lQtf71rwzXt5zHafbKPm8Czz3n2KwBWlEaNUh3-2JKrXTDueZ_JerHOPeSecqLaxLBWC09dTlPizrDMTafpT'
  lat: 40.105618
  level: 2
  lon: -88.230986
  name:  'Alpha Phi Sorority'
- ap: 3848
  img:  'http://lh6.ggpht.com/RW34ntixvJkg7fD71TPYo_4KIsBzA0-a-6yXO0jKPbpGxX5gIGC7kBI-pXEF9OHhuolcAGW2fxyK3Pt42Iev'
  lat: 40.110489
  level: 3
  lon: -88.227412
  name:  'Bus Stop - Illini Union, Westbound'
- ap: 3661
  img:  'http://lh4.ggpht.com/h3t9nwbrudSHJ4Ll-zBceLi_U0iwpgbsVd8Wjzy_JgqMiXIqIu4CILUiFnKdayIi0htMXQ5CNowcXO7XUqI'
  lat: 40.13401
  level: 6
  lon: -88.28239
  name:  'Eddie Albert Gardens'
- ap: 3661
  img:  'http://lh4.ggpht.com/lpJC8CMq12VKjzn5jKxDzhuO6-wy48dUIJ1qAD7jiTQom4qZYFUDgxd3-1wexag_aT8akZC3P7VTqei0H48YKQ'
  lat: 40.100482
  level: 6
  lon: -88.281627
  name:  'Henry Bradbury Memorial'
- ap: 3661
  img:  'http://lh3.ggpht.com/HX3mWBGofQk08Qdp7A6KMK1AnSXlLEPJR-n6oeX69Efiiss29GHsLiDsHhRS5K8DrXh-QXP1T0AMaOsJmx_w'
  lat: 40.106921
  level: 6
  lon: -88.230145
  name:  'University Lutheran Church'
- ap: 3661
  img:  'http://lh4.ggpht.com/7U0YXCB_DIhnqPJyjyLpNn6kg4lU8HvKL87ddBKWq1sptvVLvCEiCuNEnghQtqDGSN2OBNcOUK9nZcYjY4Vr'
  lat: 40.107887
  level: 6
  lon: -88.225998
  name:  'Lifesaving Antibiotic Plaque'
- ap: 3661
  img:  'http://lh4.ggpht.com/IZUCSooIdo5qUAG278Al-JEKCRv842M0uDMusE78yaL4p-QCYu2A4UXE6X2jTFemr_w8ZfD6g_lQqjwbdg'
  lat: 40.109702
  level: 2
  lon: -88.227571
  name:  'The Ray Bulinski Room'
- ap: 3661
  img:  'http://lh6.ggpht.com/j712bbvDknzGlAU87nZA1Bx45Ng-0MGA9Uvuv-3WzIKA3W51mXOZpJ-TzVSbuU3uE2AsJ5wcO7_B6WDpdRr0'
  lat: 40.110684
  level: 2
  lon: -88.226053
  name:  'BCS Superconductivity Theory Plaque'
- ap: 3661
  img:  'http://lh6.ggpht.com/y10QgRCNt0Bsefqp3olKgJp98whQkS0-vWqPskj3421hcSq96BG-b_KROqsO1mBEcNiYtAKhXuXG0EV0eaUW'
  lat: 40.107152
  level: 2
  lon: -88.235244
  name:  'Bromley Hall'
- ap: 3661
  img:  'http://lh4.ggpht.com/sz_e7469a1MnmlNIKBE9ABOh9Z5c-TMUKTj_dlubknMbwU0IKI_4hZ8QQtHWwjgbnkA_Plk1yb2bT4XQ3UjA'
  lat: 40.104561
  level: 4
  lon: -88.21207
  name:  'Carle Park'
- ap: 3474
  img: http://i.imgur.com/5j1qaiT.png
  lat: 41.966004
  level: '?'
  lon: -87.632502
  name:  '367908f1dbf04c84bf3cb27575c4359e.16'
- ap: 3474
  img: http://i.imgur.com/5j1qaiT.png
  lat: 41.965697
  level: '?'
  lon: -87.632747
  name:  '009d44eea192424f8eb810b69311f40a.16'
- ap: 3474
  img: http://i.imgur.com/5j1qaiT.png
  lat: 41.9686
  level: '?'
  lon: -87.630978
  name:  '47ea0a512aca4efc981ddb89e220e8b4.16'
- ap: 3474
  img: http://i.imgur.com/5j1qaiT.png
  lat: 41.964092
  level: '?'
  lon: -87.633659
  name:  '16dd983c6c30490faf1c45bfd3e1ff1e.16'
- ap: 3474
  img: http://i.imgur.com/5j1qaiT.png
  lat: 41.964336
  level: '?'
  lon: -87.633564
  name:  '7fbe13944b5d4af78e982aada5eda453.16'
- ap: 3474
  img: http://i.imgur.com/5j1qaiT.png
  lat: 42.091266
  level: '?'
  lon: -89.9771
  name:  '1833caabd8a1464088d9232544b3d5a4.12'
- ap: 3474
  img: http://i.imgur.com/5j1qaiT.png
  lat: 41.833383
  level: '?'
  lon: -90.170324
  name:  'c200006a95b348b7a1e4e8e492c05b7a.16'
- ap: 3474
  img: http://i.imgur.com/5j1qaiT.png
  lat: 41.614252
  level: '?'
  lon: -90.331927
  name:  'c6c6706df1df437ab1b437e97a83fed6.16'
- ap: 3474
  img:  'http://lh3.googleusercontent.com/abyzHmsDcu4wr2nZ5KrzfryQDjq08lgz16ggCtHboK-pAhp8lhjyJoStUFTg-XDe4SPzYjAxvNLQuix4tsgc'
  lat: 40.132193
  level: 5
  lon: -88.279832
  name:  'Tribute to Olympic Athletes'
- ap: 3474
  img:  'http://lh6.ggpht.com/dI4xaWnG0DZUP0uJY6mH7dt0Mym9RSF71Y9EW7cHcTwlxlumShbTK73b2epHwOng4JJOjyc52eMv188FeiHYfg'
  lat: 40.131965
  level: 2
  lon: -88.278016
  name:  'Augustus K Riggin'
- ap: 3474
  img:  'http://lh5.ggpht.com/XSTOU98iZoBFcDNR_YYJQfmQaiD_vXAP5Z7R79nVC7k06VMhH8tHSb9Yb9Pe8OnV1svwvlvy6iyz6vMjg3_EzA'
  lat: 40.132804
  level: 2
  lon: -88.285013
  name:  'W Glenn Karr Memorial Plaque'
- ap: 3474
  img:  'http://lh5.ggpht.com/ZfmaOk3UM4PNzP-z0AvBPFqYLc6wAEDSPhL1cSVjXMAFSv4Jadm-hV--eP3OaJuaksphYKN5s6bhWhluTGs'
  lat: 40.133327
  level: 5
  lon: -88.280335
  name:  'Prairie Grid'
- ap: 3474
  img:  'http://lh3.googleusercontent.com/M_qK64GKnnRqEI0mDBCxmdDqvQtr6sboADts_687xYboCfdeE-9gJwAPNC_Gt99-mA2X_3p-8RfH8-x7LMW5'
  lat: 40.132777
  level: 4
  lon: -88.287351
  name:  'Parkland College Prairie Restoration Reserve'
- ap: 3474
  img: http://i.imgur.com/5j1qaiT.png
  lat: 40.152792
  level: '?'
  lon: -88.253532
  name:  'Toalson Park'
- ap: 3474
  img: http://i.imgur.com/5j1qaiT.png
  lat: 40.152342
  level: '?'
  lon: -88.252345
  name:  'Toalson Park Basketball Hoop'
- ap: 3174
  img:  'http://lh4.ggpht.com/HMXgPSuj_Qc06z-u_ElF6pgeWVoxqEAZoT0woVULj2jB8M-G8a4In71YBTnsPrCaJTLx0DFoqB8lQ2847L9M'
  lat: 40.112187
  level: 3
  lon: -88.235913
  name:  'Scott Park Pavilion'
- ap: 3474
  img:  'http://lh5.ggpht.com/k_9eqZVvGcr3ZNyeeSNDM1-Y7od35KmnQQptB9usrdpTdpGW2c_5-12rYy9hGazdx7qhlYrEXxaJ_ZIVFywlcA'
  lat: 40.106706
  level: 5
  lon: -88.232116
  name:  'Illini Tower'
- ap: 3474
  img: http://i.imgur.com/5j1qaiT.png
  lat: 40.110982
  level: '?'
  lon: -88.163907
  name:  'Urbana Post Office'
- ap: 3474
  img:  'http://lh4.ggpht.com/J4angdYTKCPYybB0GhGqQPugzEy-7X48yLh6UFakxJsUTJY156aWvDAIxyqAbX9wGOUddPZcWQMvmhS10vVL'
  lat: 40.10391
  level: 3
  lon: -88.21116
  name:  'Carle Park Pavilion'
- ap: 2911
  img:  'http://lh5.ggpht.com/WgDPQ47lNn2nlvNDPgwM_c-1MpVvxdVZtjZmFtixtr3rIi91xqYhgtSbyJGqRFnSXCUHy_RjABgEj2LSzOs'
  lat: 40.113343
  level: 4
  lon: -88.290525
  name:  'Fish Chimes at Kaufman Lake'
- ap: 2724
  img:  'http://lh4.ggpht.com/bzGBa_8g8we9vEYlZ-a10Ugz_B36DNFCNFsnUmAPy3Aji53kcVj0FaVE28zxnedZgY5Ozi94A8obmXuFQ1vL'
  lat: 40.132632
  level: 5
  lon: -88.279968
  name:  'Vernon W Fitch Memorial'
- ap: 2724
  img:  'http://lh6.ggpht.com/ukIJOts1W6BPpII4XC4_Q5Wh8Gz8aCNeGUuAtaLknm7OKhNYvlDd71ZN8hcxCRcJDhDjV0qBZgFRyYMGNeS6'
  lat: 40.100203
  level: 6
  lon: -88.281602
  name:  'Karlee Elizabeth Feinen Memorial'
- ap: 2724
  img:  'http://lh6.ggpht.com/RR0i4QdfoY8NkTQtssdOtDLhAEaCR7e-R4ipk5NzdKe9lTGDq2nyKI_7sF2BCXrgCZAZ2zEEtIzS7vg6Pu0hzA'
  lat: 40.126458
  level: 5
  lon: -88.218544
  name:  'The Vineyard Church'
- ap: 2724
  img:  'http://lh6.ggpht.com/D4r1KWBUGF8ZJDUXBHVcNVeP66FVliNQrEX0n-jZkYyFnWUfZ_vfBIAt4padKNgvgmextrkL2-kxkv6JbS3u'
  lat: 40.110394
  level: 5
  lon: -88.219509
  name:  'University Of Illinois'
- ap: 2537
  img: http://i.imgur.com/5j1qaiT.png
  lat: 42.507613
  level: '?'
  lon: -87.814504
  name:  '1ecbbeff95c7494ea450c780eab6566a.16'
- ap: 2537
  img: http://i.imgur.com/5j1qaiT.png
  lat: 41.890714
  level: '?'
  lon: -87.610524
  name:  '78cd733e94584d94ac0e1cd4d0a20cc4.16'
- ap: 2537
  img: http://i.imgur.com/5j1qaiT.png
  lat: 42.540238
  level: '?'
  lon: -89.013208
  name:  'fc8a22ba29c34a51b07c1e2f09368414.16'
- ap: 2537
  img: http://i.imgur.com/5j1qaiT.png
  lat: 42.85348
  level: '?'
  lon: -88.311693
  name:  '75a7944b39be40c28beede801a9d720d.16'
- ap: 2537
  img: http://i.imgur.com/5j1qaiT.png
  lat: 40.106513
  level: '?'
  lon: -88.5585
  name:  'Lodge Christian Church'
- ap: 2537
  img: http://i.imgur.com/5j1qaiT.png
  lat: 40.275273
  level: '?'
  lon: -88.353476
  name:  '28272aaee3234a039246a4282f96c916.16'
- ap: 2537
  img: http://i.imgur.com/5j1qaiT.png
  lat: 42.383693
  level: '?'
  lon: -89.828746
  name:  'd803698981124e78944054ee621f9d88.16'
- ap: 2537
  img: http://i.imgur.com/5j1qaiT.png
  lat: 41.909696
  level: '?'
  lon: -90.59622
  name:  '5c3497dac814470085ee8aefb31f953d.12'
- ap: 2537
  img:  'http://lh5.ggpht.com/7MD3uqic9NvHKG2s5NBkAL6kdsBT10BzFJ6jTSaOfZS8mbyTlRDRYtizrxfH8ZvyqpRWXJHgmC5bk9imHqQf'
  lat: 40.114042
  level: 4
  lon: -88.289889
  name:  'Optimist Club Dedication 1991'
- ap: 2537
  img:  'http://lh6.ggpht.com/5R8z1wwducaGMkvLFryu9HzC91eX02E3KDY04s9Il7Qrdw8efQiRGZ_vbgqW0Fuvp4-I_d9ugFC6lPc7lxia'
  lat: 40.113465
  level: 6
  lon: -88.291684
  name:  'Anna Jean Russell Memorial Tree'
- ap: 2537
  img:  'http://lh3.googleusercontent.com/GDPeCcTdJQAFt7LgbquPo-YOAp7bq5HCFbElMBeXztI4hraTGO-j1GcNOwKaaSRRLcEHG13Gu-VDboEG4a7-'
  lat: 40.149097
  level: 5
  lon: -88.276148
  name:  'Illinois Heartland Library System'
- ap: 2537
  img:  'http://lh6.ggpht.com/_MJDV4NA2u24dbhr1ulyabSdnTuUBUv1xFpOPKbit_dHtoaRkFxqDHaRZBZ196LNyiSHUE5lNT4MCbhqCrzh'
  lat: 40.098459
  level: 6
  lon: -88.282083
  name:  'Flower Island'
- ap: 2537
  img:  'http://lh3.ggpht.com/HW1b8GEkWmutU8Hsv_zX2TXNh-iirGoXN5HmxCJd5nc3o1VeCkahkCZ_vbSxOB_ffrBlWW3M-LLMSo97tg-c'
  lat: 40.123709
  level: 5
  lon: -88.250518
  name:  'Spalding Skate Park'
- ap: 2537
  img:  'http://lh4.ggpht.com/mrFIlt7StuloTop3ci5DRg10i06ivamSn69PgqYPZfkV23dOzf-DhDdDUjeOOzy1ILR9xOOdLX_NBsMOH9FO'
  lat: 40.124377
  level: 5
  lon: -88.25297
  name:  'Spalding Park'
- ap: 2537
  img:  'http://lh3.ggpht.com/rT55OoX-8s-w_ikrqOgpC7QkK-Iqp4ylicElGoWFagKRQ8LX3Uvv8TZ5Xc8BlId1btzo5FTbgddPN72kYwA'
  lat: 40.114327
  level: 5
  lon: -88.224492
  name:  'Siebel Courtyard Structure'
- ap: 2537
  img:  'http://lh5.ggpht.com/n8MFM2pb-tE5i9EziJdygPPUK8VqEZ4BHGQaywz4lwe3WjwdgO0ohBCPZmiMoL00r3mVPmYnbCunJDeFbyk'
  lat: 40.118593
  level: 7
  lon: -88.240416
  name:  'Champaign Rail Water Tower'
- ap: 2537
  img:  'http://lh5.ggpht.com/jD3fyZcK_XLR3cBYgBiPlPRHxgXkV7p-31HKznWRUaSIX1Ab3bLTdk6O-0Oxyb6f8FKzPAHpjW56jkIQ-839'
  lat: 40.116876
  level: 6
  lon: -88.238675
  name:  'Emerald City Lounge'
- ap: 2387
  img:  'http://lh3.ggpht.com/mtgiI5TKcuExETpmdSqIFabkYgVZTaXXLJnaIyzxeHPIunWoj_Fj8BqqwZG4nVQwSnngv15YxD-c_m9CHkr3'
  lat: 40.111202
  level: 1
  lon: -88.226447
  name:  'Boneyard Creek Memorial Streamflow Gaging Station'
- ap: 2387
  img:  'http://lh6.ggpht.com/vlKOFCgVZb_8XoZHDdzD2X9Xsejb8QVVqEM5U4YfgnKJbQIIHHSK2hSpgycF7vqRkGKRYYnbjVTyKS8dsHF3ChRyF01faLh907jhNd__xiEkGTWx'
  lat: 40.111225
  level: 2
  lon: -88.226537
  name:  'Fire College Plaque'
- ap: 2537
  img:  'http://lh4.ggpht.com/hJDi8J7CZU-933hT0Culp2nhslv6p8rDRPdTFz6FwNaAjB5CmfkaQzj9sM--E-QBvI8yvIJn1F2jxy7ZKWlh'
  lat: 40.10816
  level: 2
  lon: -88.234245
  name:  'Stratford House'
- ap: 2537
  img:  'http://lh4.ggpht.com/OFVPvdgB3GVpaQknHdnt2okgP3xcQksAH3wvOGYVuP85MMlxo3bQ2SRpBb0hzNfjQoC_5LlRqaE6jLB-h9Gr'
  lat: 40.108092
  level: 2
  lon: -88.234589
  name:  'Koinonia Plaque'
- ap: 2537
  img:  'http://lh3.ggpht.com/oSQ_YOHo2mfYjOa8bPK9ellznKK29UluW-SeXoGYra9VFg8dJp6YQRdHbHHaTExqXs1qUMBNmpI2hUPcC4GI'
  lat: 40.106789
  level: 6
  lon: -88.222992
  name:  'Beginnings of Computer Music Plaque'
- ap: 2537
  img:  'http://lh6.ggpht.com/1El0oK6CWDh7rAQeFmPEW_dA252pdq7piTtjtuQCkZvwRa689NLjEafLqQ35TI5qCW3Lmhja9PLQqKxFs9Ha'
  lat: 40.110627
  level: 2
  lon: -88.227584
  name:  'Tau Beta Pi Statue'
- ap: 2537
  img:  'http://lh4.ggpht.com/wnCpWSqcq-cu9mV9rhwV8Tpt2zSmT5uur41SFaOm-8kSqciJtWQPacEqgSDjnzXhTChHQFdT7EKDU7UwX3Tn'
  lat: 40.1087
  level: 2
  lon: -88.222813
  name:  'Krannert Center Studio Theatre'
- ap: 2537
  img:  'http://lh5.ggpht.com/NUOCD82iNRGW1NGqEC4FKet1u5_cm4WRNc2c9_YABAjGf6-OSCLz7HgYkP1ZuVAbpMl6Qi10HRW16Oc9jNM2'
  lat: 40.106401
  level: 3
  lon: -88.236182
  name:  'Washington Park'
- ap: 2537
  img:  'http://lh5.ggpht.com/3RfiPeOzF67ubNX-vkwUJ6-EYld6BKuoBernq0_9kOjlIsSPr3saR9FIQzN7uiw7ouF0CpNflOnL0mUj9zbqdQ'
  lat: 40.109452
  level: 5
  lon: -88.229031
  name:  'Illini Hall'
- ap: 2537
  img:  'http://lh5.ggpht.com/1yq3oFq9p_Yl5cUf5h7IEfZPAbae2MT7lA0DFo1DHwPWPZJJ-Ez-2AE2oTzHEHWsEJQVUcUwh3j_d3kOYgDS'
  lat: 40.110095
  level: 3
  lon: -88.22862
  name:  'Alma Mater Plaza'
- ap: 2012
  img:  'http://lh6.ggpht.com/g00CHgvPQnSjjPtDBIePwTKCNdh3HB7MmvYFvkSM7tmZuoBJ4WaKiltQhrfxIflpUy2xiNU-Z_Z2PGCTnXfK'
  lat: 40.110725
  level: 1
  lon: -88.223784
  name:  'Anthony Leggett Superfluidity Nobel Prize Memorial Plaque'
- ap: 2537
  img:  'http://lh3.ggpht.com/LR76HrJqriPFUoc2XSs7jb2SotnStZv20kI7rgUx8B5HqhmetnTW4MA1tCp1ws4g5gw0sf9g7M3Lwq4VwfpD'
  lat: 40.111687
  level: 5
  lon: -88.225353
  name:  'Transportation Building - University Of Illinois'
- ap: 2537
  img:  'http://lh5.ggpht.com/f710C9AvOEB7ieCI4f382wWUP4OgDxiqPzbxqxct6Ugf2PWBfyXyDpG_JcRQ6PaZ_jS0jpXXBhNSt_u9rFA'
  lat: 40.113864
  level: 5
  lon: -88.224839
  name:  'Plato: A Social Networking Revolution Begins'
- ap: 2537
  img:  'http://lh3.ggpht.com/UWeM-kXUlZAe2JGWDlEh2q1Orpp53g_qVfSvCepKpOy5gVdmDkxbQ5mdsO8xAvDa7K8Iq1lg-gDoQCzy8sck'
  lat: 40.109127
  level: 4
  lon: -88.221387
  name:  'Morton Weir Memorial '
