- ap: 9283
  img: http://i.imgur.com/5j1qaiT.png
  lat: 40.011563
  level: '?'
  lon: -89.278425
  name:  '93ee049f33d544d78fc4ce1dc2b491fc.12'
- ap: 5535
  img: http://i.imgur.com/5j1qaiT.png
  lat: 41.440995
  level: '?'
  lon: -88.692458
  name:  '56ab53918c1847ec92dcd48f3e005a4d.16'
- ap: 4972
  img:  'http://lh6.ggpht.com/duOeXcOSQLWosdD0JJXg3pWWQp4t5sL0x9qDHoTIBFNOzEW0t53Lt2cnwgV2E_Su0l1ajIQxPtVbbK_sDRaS'
  lat: 40.141775
  level: 6
  lon: -88.242671
  name:  'Marketplace Mall Fountain'
- ap: 4598
  img:  'http://lh3.ggpht.com/07XrBN-er6Ecleor0n9RJ4DfGO6B2yn-ZxjI-Uy8Ba46Jtb6cXNVmATPiPiGyk-1jZ4wxa7-EeIWbWUqArCG'
  lat: 40.142554
  level: 6
  lon: -88.243468
  name:  'Dog Heart'
- ap: 4411
  img: http://i.imgur.com/5j1qaiT.png
  lat: 39.406517
  level: '?'
  lon: -88.79381
  name:  '9dc631faccf54ba0b838bf08a4e83339.16'
- ap: 4411
  img: http://i.imgur.com/5j1qaiT.png
  lat: 39.406842
  level: '?'
  lon: -88.793847
  name:  'e43989407c1943e88018a8e8889c6a0e.16'
- ap: 4411
  img: http://i.imgur.com/5j1qaiT.png
  lat: 39.405904
  level: '?'
  lon: -88.793757
  name:  '1877094b3ca245d4b5221a9177e8307a.16'
- ap: 4411
  img: http://i.imgur.com/5j1qaiT.png
  lat: 39.402344
  level: '?'
  lon: -88.793365
  name:  '53e5d02190374b5196d53ecd0a937ced.16'
- ap: 4411
  img: http://i.imgur.com/5j1qaiT.png
  lat: 39.405035
  level: '?'
  lon: -88.79382
  name:  'f72aba674dac4a16992c5a05c398375e.16'
- ap: 4411
  img: http://i.imgur.com/5j1qaiT.png
  lat: 41.710477
  level: '?'
  lon: -89.32551
  name:  'db2dfb860dfb4a59b57d515183f91926.16'
- ap: 3661
  img:  'http://lh4.ggpht.com/CYtXDlK6MB-Yl-FmKw6yaRt-LGUdQqAdRp3LsWV1JUYwC8qrVWWJaGEaqMtMtRpANFpNeD4z82iGL54nIARL'
  lat: 40.141919
  level: 5
  lon: -88.244611
  name:  'Marketplace Mall Carousel'
- ap: 3661
  img:  'http://lh3.googleusercontent.com/3nkY0B9PDqzlWJ_EKh5GnTZ8z0U6X9-2dI5dapKA5Q3F4iKrE99AJZoy6NSvh2nU1WTG2hL70276yJjJ0G8'
  lat: 40.141598
  level: 5
  lon: -88.238817
  name:  'Red Shield Center'
- ap: 3474
  img: http://i.imgur.com/5j1qaiT.png
  lat: 41.714859
  level: '?'
  lon: -89.333239
  name:  'd029df58c91a40b888cb8a88d984ac53.16'
- ap: 3474
  img: http://i.imgur.com/5j1qaiT.png
  lat: 41.71379
  level: '?'
  lon: -89.331936
  name:  'e4ea31093fd34c1eb80ea546c0b632fd.12'
- ap: 3474
  img: http://i.imgur.com/5j1qaiT.png
  lat: 41.713517
  level: '?'
  lon: -89.331409
  name:  'f96ba33c86d44ceda5a09f4e7ba2114b.16'
- ap: 3474
  img: http://i.imgur.com/5j1qaiT.png
  lat: 39.407259
  level: '?'
  lon: -88.793832
  name:  'd4bd15de84eb48f5983ff1ef09eb8246.12'
- ap: 3474
  img: http://i.imgur.com/5j1qaiT.png
  lat: 40.004083
  level: '?'
  lon: -89.28555
  name:  '138b3419291a4c06b90ebaafab620920.12'
- ap: 3474
  img: http://i.imgur.com/5j1qaiT.png
  lat: 41.643088
  level: '?'
  lon: -89.227868
  name:  '2f1a9e500a544845abb21954a8684910.12'
- ap: 3474
  img: http://i.imgur.com/5j1qaiT.png
  lat: 40.026078
  level: '?'
  lon: -88.783718
  name:  'edce8f4594c948e790402f25987eea45.16'
- ap: 3474
  img: http://i.imgur.com/5j1qaiT.png
  lat: 40.146331
  level: '?'
  lon: -88.960068
  name:  'e31a4818b9f94aa9ae1b32779fa54dbd.16'
- ap: 3474
  img: http://i.imgur.com/5j1qaiT.png
  lat: 40.199222
  level: '?'
  lon: -88.382509
  name:  'baa170273cd749acb5338139770e8f70.16'
- ap: 3474
  img: http://i.imgur.com/5j1qaiT.png
  lat: 40.199138
  level: '?'
  lon: -88.385786
  name:  'dbf3b4e9041a4a01af2e803c4a7296c6.16'
- ap: 3474
  img: http://i.imgur.com/5j1qaiT.png
  lat: 40.197114
  level: '?'
  lon: -88.38528
  name:  'Elks Lake Pavilion'
- ap: 3098
  img:  'http://lh4.ggpht.com/vKgqIecJshMQxrhO-ZhMjcIyARuJdyU63wKfzAG0wouZex6LVzO46Qi5zM1N3Jx8xyantDFk9sQGsSEBhb-y'
  lat: 40.101327
  level: 6
  lon: -88.251412
  name:  'Zeus Memorial'
- ap: 2536
  img:  'http://lh6.ggpht.com/Nv0tMktEkkuoGtg1QEPS1N2nTcBPg8ipu31i72XPDTGQ4HQI5oL58Ig8kofXUH_aCC2aaJ-NylWKPkC3hIBS'
  lat: 40.116218
  level: 1
  lon: -88.228757
  name:  'The Presidents'' Walk'
- ap: 2724
  img:  'http://lh3.ggpht.com/VLipBehsKPCp8ewQnBV1ZCz7uE75zcY46iGDyFfFHgX1o55t3DONb3wcBcL5RMYSqABRK0TgIW3DluNy8y6WaA'
  lat: 40.101131
  level: 5
  lon: -88.250539
  name:  'Hessel Park'
- ap: 2537
  img:  'http://lh4.ggpht.com/iq0AIMD1D6PFcLIIBflZ30Y-ohyBTSRFX0ET_F-b30QnrujDMBdye1grsSc7lKQxq9d_GdD8gqvQAK2c36U'
  lat: 40.08146
  level: 5
  lon: -88.310362
  name:  'Stephens Family YMCA'
- ap: 2537
  img:  'http://lh6.ggpht.com/u50xnbCiTMjKR5vu2fts6K0B7fFRkf_BgNZeZvqYNgLuF92RwApjI9Hl7UO5bZQK_fN7UjNb6ZzQlDv9BDJe'
  lat: 40.083744
  level: 5
  lon: -88.310745
  name:  'Champaign Fire Department'
- ap: 2387
  img:  'http://lh6.ggpht.com/tEtHQ3gjXHp940OLn9txVBSOCdT8UfYUs3C29Cgx6HiCLrS3KBboU3Wms2rEVMQWEf7lf67xfK7MIUmimDw'
  lat: 40.116631
  level: 3
  lon: -88.247334
  name:  'Jack C. Richmond Lion''s Club Bench'
- ap: 2537
  img:  'http://lh5.ggpht.com/77v6DfPMOKjAUzTfAuqZzYtMmpFMJV7lPr7FgQb_Fa46w1xmepHb0h-0CpG5WZy1b9vd5_DZ0uLxxZw9-DhJ'
  lat: 40.117163
  level: 5
  lon: -88.246602
  name:  'Garden for the Gardener Plaque'
- ap: 2537
  img:  'http://lh5.ggpht.com/tfAfnmo6mSMc6U0P533NMFJRGwn6lasmx-MLR2JJg1QOizMKkghFU8E7hb2zgYgdQEbgnCJUlvZIMdrrJe4'
  lat: 40.100822
  level: 6
  lon: -88.25193
  name:  'Seeds of Kindness Bench'
- ap: 2537
  img:  'http://lh3.ggpht.com/8FqlniFErK7cq59awiT84u8KyV4FIRd5krZzfYa58zJToFps7whdBnriPqvO_kFKeLUE3SWbJhCOPuvUQzaGFA'
  lat: 40.100691
  level: 6
  lon: -88.251337
  name:  'In Loving Memory of Zeus'
- ap: 2537
  img:  'http://lh5.ggpht.com/HhVreJipNvxPRVFpmsh2BPo9PcpPO2Q2l3jCpDjIKgfKGycoTNPXR4DKiYccBXW4X-4dJf_vV0ESsWAWHcChsg'
  lat: 40.100936
  level: 4
  lon: -88.250855
  name:  'Donald F. Bresnan Memorial'
- ap: 2537
  img:  'http://lh5.ggpht.com/-UWK84I78Sftf7yg-E2pg6xEAWTvyiThgJBJlxbqOZPYKNmzQ8uGgEEMetzplrG1HpXG5kQqNItUeXKxOHDsGA'
  lat: 40.100286
  level: 6
  lon: -88.251747
  name:  'Tennis Anyone'
- ap: 2537
  img:  'http://lh5.ggpht.com/ftmAzbnKocZkda7k1ZC-3gMqr3UiOKXsS9qFSxN8V4C6_DEZr79lkSpPL00EmiZn50-ZPzTQZZlBLlOdL4Rd'
  lat: 40.116219
  level: 5
  lon: -88.23253
  name:  'Skyward Railway'
- ap: 2537
  img:  'http://lh6.ggpht.com/0IsQORyEW-bPA7sEbGspygtoI7ixEshm_2fUw5oeh9AeXg6JN5w0ypYIshpuKm-C0nG4Vm2XmpLvtWTZzWzd'
  lat: 40.111607
  level: 3
  lon: -88.233753
  name:  'Chabad Menorah'
- ap: 2537
  img:  'http://lh5.ggpht.com/AmsS7GEfFX-_Icem2DP6mjQahV1jeut1CGdeqLqfpyzx0m5SqhVY4eoAohizF0xsevPQufmLRMoVj2rW7Fe8'
  lat: 40.111689
  level: 5
  lon: -88.231193
  name:  'Koi Building Art'
- ap: 2537
  img:  'http://lh5.ggpht.com/39qvivJbsTr57F8HWz9_3WhqwtI6kCbL9qeIckApwB7s51qHqm4RS4qZLPkY2GUv6A2wi2wrlNxhnIN6xGKS'
  lat: 40.113427
  level: 3
  lon: -88.229089
  name:  'Lee Williamson Memorial'
- ap: 2537
  img:  'http://lh5.ggpht.com/BKHQBYKq1WHplCUxjyl6ZyElMZVN9SFIPmdKwffI6avqoyvbXRxFSFwn-RrmpqLRdSu6LntKwTDnQvCc1n0x'
  lat: 40.110358
  level: 4
  lon: -88.230181
  name:  'Murphy''s Pub '
- ap: 2537
  img:  'http://lh3.ggpht.com/1Z3mCRroEUysinW4hlDhAFNnfog3gwBM_aM8wYT6tQPiXMMmaRE9CrO5XM6QMe3UPHzMQSoxFmvWlkwOTRAv'
  lat: 40.111111
  level: 4
  lon: -88.230176
  name:  'U of I Mural'
- ap: 2537
  img:  'http://lh6.ggpht.com/iVHoGDIqnjdRupoPTpZLPtrzaCpEGW6HV4QHZ5WW185rmkrOxvl-C7uIN_gNZnCrm-djktoPC1J-9vjBZfCb1w'
  lat: 40.115718
  level: 1
  lon: -88.228521
  name:  'Red Lines Sculpture'
