- ap: 15094
  img:  'http://lh5.ggpht.com/HhVreJipNvxPRVFpmsh2BPo9PcpPO2Q2l3jCpDjIKgfKGycoTNPXR4DKiYccBXW4X-4dJf_vV0ESsWAWHcChsg'
  lat: 40.100936
  level: 7
  lon: -88.250855
  name:  'Donald F. Bresnan Memorial'
- ap: 11346
  img:  'http://lh5.ggpht.com/tfAfnmo6mSMc6U0P533NMFJRGwn6lasmx-MLR2JJg1QOizMKkghFU8E7hb2zgYgdQEbgnCJUlvZIMdrrJe4'
  lat: 40.100822
  level: 7
  lon: -88.25193
  name:  'Seeds of Kindness Bench'
- ap: 10970
  img:  'http://lh4.ggpht.com/4rZUtsKLzttseF-bliT_X7wEGP_joarKKLt8DNtp99fViYcqD4TAWTfZ_Ur6oEdBJdT-1JeZl4tnk_sTtgN0'
  lat: 40.116361
  level: 5
  lon: -88.247369
  name:  'Gerry Schriefer Plaque'
- ap: 10970
  img:  'http://lh6.ggpht.com/cnBQN3RYcZFSdxYB52bvMYRD2aTSlDG0_cqBQ8coo0ueKTtGxldE0xGjNPF6xlYJtnba8oUyEKwBeYbO8CY5'
  lat: 40.116631
  level: 5
  lon: -88.246951
  name:  'Lyle Blue Memorial'
- ap: 10968
  img:  'http://lh4.ggpht.com/2tHD_AHYQu0kWuwLX2HMYWBG4txVkuWsBEfzWLL39npWp8kMSHiUKxSJM1E7yhimuMVUJ-RIlSSKsgjETvtr'
  lat: 40.110524
  level: 7
  lon: -88.228706
  name:  'Leo Roy Tehon Memorial'
- ap: 9846
  img:  'http://lh5.ggpht.com/4DJAFPeZ_w65Km7VDnsbOqouQaeBuPuxA0KHPQToT_B6o1hBxzdu3kn89UhHgv22Ygj52Fx9QqcbzOytuw'
  lat: 40.100078
  level: 7
  lon: -88.250683
  name:  'Brian Clark Memorial Plaque'
- ap: 9659
  img:  'http://lh6.ggpht.com/5CDidk0pqfUtSW_Yqouuf3diX8drdMu9DoT728QpSz8q6A-WxNhT0yLcgM_7gGpyIAeXrHiTkIzzaVJFgnN9WA'
  lat: 40.099852
  level: 7
  lon: -88.251947
  name:  'Our Friend Tim Palmer'
- ap: 9657
  img:  'http://lh3.ggpht.com/LR76HrJqriPFUoc2XSs7jb2SotnStZv20kI7rgUx8B5HqhmetnTW4MA1tCp1ws4g5gw0sf9g7M3Lwq4VwfpD'
  lat: 40.111687
  level: 5
  lon: -88.225353
  name:  'Transportation Building - University Of Illinois'
- ap: 9021
  img:  'http://lh5.ggpht.com/ONr7OWgjlaWwJELaKTJEC1ZVpkIkuN-2c01D2AligYZC9Zbt8lH0SMkirhrWfHdjmVDmCtzhJWoVxoZM-NM'
  lat: 40.116766
  level: 4
  lon: -88.247614
  name:  'Mary Shaw Memorial Tree'
- ap: 8909
  img:  'http://lh4.ggpht.com/4LxsGZZMk3DnpJXUvqzrL54CHSP5TDXjUnDJyHmCCTtCJIjGEI7kxT9g4uxfSPh0X6yGLgQo1jfqbu7B8VEr'
  lat: 40.099084
  level: 7
  lon: -88.251826
  name:  'Irina P. Stewart Memorial Plaque'
- ap: 8159
  img:  'http://lh3.ggpht.com/rUgM7jkTqL0VHxvsSW0yWuNJF5UrU62ITflghfn4PfKjn6L4WGz0ALkv98fc_q9dmK9SSpU1PXIawGvcRwE'
  lat: 40.098246
  level: 7
  lon: -88.251974
  name:  'Hessel Park'
- ap: 7972
  img:  'http://lh4.ggpht.com/FAqopsayR2vfoblDs12USLGHxH0S1lfng6IlvgMPO2k4a1fKXYQnDWf0Lbf3zAqLfMU0aGaHpSZxycRqft9pmQ'
  lat: 40.119381
  level: 6
  lon: -88.24555
  name:  'The Lodge on Hill'
- ap: 7597
  img:  'http://lh3.ggpht.com/bltQwmnzp2vSKYhLpzNLqB4iddy6ie0kWk9G7Wce4U9qmW3CABxbXAhF7v0oG9QLFD2q57UZuVqZCMgN3MHZfA'
  lat: 40.118335
  level: 2
  lon: -88.243408
  name:  'Downtown Fountain'
- ap: 7972
  img:  'http://lh6.ggpht.com/qSCp5fQMlyCQ-GOAgiSFy5gaHJei705Pa3eOlJiYO5wGjZTYtjA8q7QWWfAWcLKjxZSaFiMfXOPR8SO7rWU'
  lat: 40.099353
  level: 7
  lon: -88.251876
  name:  'Raymond B. Cattell Memorial'
- ap: 7710
  img:  'http://lh3.googleusercontent.com/oYQaQpOQ2HICancOs0DcaCqX1KiTJEoAeKp6EUWBs5u-TjTKqJlzTSzA0QMldAg6HLWb3rX4m4_cwKwGCtpV'
  lat: 40.118684
  level: 5
  lon: -88.244894
  name:  'Farren''s Pub and Eatery'
- ap: 7785
  img:  'http://lh6.ggpht.com/yjfa0jJLjsfLRf9Zn9iafMp3MuIhgCi0WiOCF8GqTGiGvzEnsPGrFa0H1n-uzWhVehLbt44ShthsA32VzHd5iQ'
  lat: 40.099737
  level: 7
  lon: -88.251157
  name:  'Tyler Van Atkins Memorial'
- ap: 7783
  img:  'http://lh5.ggpht.com/4eagHlnlpVbtFi_knZN73PIs2A--Ipj6SOlkQADePlfnzfOnJn-cAv0IoNNv4qR8WrbUFImUKHBknyaoAewO'
  lat: 40.111383
  level: 5
  lon: -88.225675
  name:  'Only Rain Down The Drain'
- ap: 7783
  img:  'http://lh5.ggpht.com/dEeT4acpLu-WQFlZWd3psap5qAqqPTSVzm8Qt1QtpqtwZ0j1V9eKFcmpgN9K_x1PL4XVchuevw25rxHekz3tvQ'
  lat: 40.111968
  level: 4
  lon: -88.226793
  name:  'Bardeen Quad Structure'
- ap: 7446
  img:  'http://lh6.ggpht.com/rjO65LTfxlehqnFITx_AAA2JKpsmpj8hWVQifyHaji2E1suLvQntKGeHtT8TjDg7CZ94W3wDKW2MrfGY45k'
  lat: 40.11699
  level: 5
  lon: -88.247796
  name:  'Feathergill Honorary Plaque'
- ap: 7409
  img:  'http://lh4.ggpht.com/4_MOw_NKr2wZ2lzAzG2FlLtA3tfOfWqBZpNVP43LfN6ilD6qHRfZ-_wA1Xk8BnCqHKqKdqodC70X09pqtNXXqmNtK-uqo-fC9SZyOjT6ERfJorzg'
  lat: 40.118388
  level: 7
  lon: -88.245358
  name:  'Springer Cultural Center'
- ap: 7184
  img:  'http://lh4.ggpht.com/ULEhKlvERD4aidwSKPhLFujl0N0mZWcHPxtcJ7hNJkyDjYek9yrB4UD_G8bU-O9-12L1LYpDkM068BiYmpm9weZeGJsz-K5whCvUYTfmDqaIp1Fp'
  lat: 40.117
  level: 3
  lon: -88.247111
  name:  'Wesley Robert Weedman Memorial'
- ap: 7409
  img:  'http://lh3.googleusercontent.com/hvoLMUc9UoNVVPttxWTc8PzOWdu5MBmPETnBexH7Alyl20WGCrNa0G_j7DwvD3qbhqpTaeThFhGDV2rCtp8'
  lat: 40.107629
  level: 5
  lon: -88.224484
  name:  'Bucky Balls'
- ap: 7035
  img:  'http://lh3.ggpht.com/G1CvGhpethi5UmprDWxZN9rTblHa3anSsQz1UPgJtkREkfN7lDFoxFObst0609Cg5mofuZxJKr0ddNKhY4VL'
  lat: 40.098464
  level: 7
  lon: -88.251426
  name:  'Ruth Haasis Memorial'
- ap: 7035
  img:  'http://lh4.ggpht.com/B_I1b0Jy3vW41RX8jjCNPP68AULplU0Pf8ddolyKmpEWCfBVShQkmjF1HfTPzDjmBBQGgOs0jHW-rUR0mv8BkA'
  lat: 40.098789
  level: 7
  lon: -88.251685
  name:  'Curtis William McKinney Memorial'
- ap: 6846
  img:  'http://lh3.ggpht.com/whmQSPmix2tEoKcWwrVrV0H0JzNf1tzyuohI3ykSa-Qx4rUcLTf4686WcnJjygsMY2QPUWhvVVzlmMMHof94'
  lat: 40.105907
  level: 4
  lon: -88.22564
  name:  'Andrew De Grado Memorial'
- ap: 6659
  img:  'http://lh4.ggpht.com/S734i_6SihPtJW8WdegLb3gEuKeNx8e1qDm6CXjREzYHohw7XqL82m4EF2K5nS2TixHweLn3EuJ4YoQnrsw'
  lat: 40.107751
  level: 7
  lon: -88.231532
  name:  'Graduate School of Library and Information Science'
- ap: 6659
  img:  'http://lh6.ggpht.com/yYW6Egg1lWn6UqqLzlgqwCQhtbuxiZSW4TmvI1XBPs33OTTJ0oh51XZXOIILxGI2juoO-E_YfG5UHmeb34rSOw'
  lat: 40.109165
  level: 6
  lon: -88.230269
  name:  'John Street Plaque'
- ap: 6659
  img:  'http://lh5.ggpht.com/28al1CSkHNCrM9Sb57TYmawr1uFh6r5raWMJKD4QjLCj6N5YHEYIIizONs_hHF3pHuIppLjqxbTFcvrI9Dq9'
  lat: 40.111205
  level: 5
  lon: -88.227583
  name:  'Theory of Superconductivity Plaque'
- ap: 6472
  img:  'http://lh4.ggpht.com/qj7RZgjywjmhALnf1YyB5hWBrpO3hxjXZJdOzfE7YYV0p_vq9KA8GrgL9SfBHf_Ry3MVzMy1iJ6pAOkYL_lT'
  lat: 40.119118
  level: 7
  lon: -88.24584
  name:  'Amvets Post 3'
- ap: 6472
  img:  'http://lh5.ggpht.com/f710C9AvOEB7ieCI4f382wWUP4OgDxiqPzbxqxct6Ugf2PWBfyXyDpG_JcRQ6PaZ_jS0jpXXBhNSt_u9rFA'
  lat: 40.113864
  level: 6
  lon: -88.224839
  name:  'Plato: A Social Networking Revolution Begins'
- ap: 6285
  img:  'http://lh4.ggpht.com/ryDcZUJK2aQ_fI0-hY850_t4ZmG2hNmtCx7cxbX83w3cnUWdI-ywpTuQrUVQNxGl3_DcxxNr6bupfDTsagRa'
  lat: 40.117107
  level: 6
  lon: -88.242467
  name:  'Radio Maria'
- ap: 6285
  img:  'http://lh3.googleusercontent.com/L3lfMswaooWEA3nJNFGES354rtENCzxYkoWuVLXEXaTiXbqTNnsl34TRd8tbMwnGQHkAnr37-HLMutIe3_Uz'
  lat: 40.117254
  level: 6
  lon: -88.247074
  name:  'Westside Park Double Dutch-A Jump For Joy'
- ap: 6285
  img:  'http://lh4.ggpht.com/d3UqrcK5M1wuOe19dIaBUOkrXF4C9IxhOWfxqzM4zIHkGsUIRb1mckNapOMRkkCtVIe0rzJumb1OVDVc1_Y'
  lat: 40.108055
  level: 6
  lon: -88.233688
  name:  'University Baptist Church'
- ap: 6285
  img:  'http://lh5.ggpht.com/J4IbsPUjPF6cIlktTr1tOGHi61krS9o1eXeuAlPRBrSYUQrwdyShfNzuzxD0epa_cBMPF1xJ9YhoBA5VOQtYRw'
  lat: 40.105467
  level: 5
  lon: -88.225644
  name:  'Smith Music Hall'
- ap: 6283
  img:  'http://lh6.ggpht.com/uuDZEurp-UqLKU1BShf2vQxSG1vwpk-MDBizyO6dIijDD3nTavBfEGfQ4lPiXtDc-2867s28mDJ0ko7kvC3sxQ'
  lat: 40.100485
  level: 6
  lon: -88.219408
  name:  'Pennsylvania Avenue Residence Halls'
- ap: 6023
  img:  'http://lh3.ggpht.com/PKHUaHtGQlwpb8q3mUpPJtjb51_am_ieb_9X0u8g1PI_eg7NxFQU2fqeV8XjnIIDy0rCMtqsfMJLerOBo8M'
  lat: 40.118579
  level: 5
  lon: -88.244588
  name:  'Mural on Art Theatre'
- ap: 6098
  img:  'http://lh5.ggpht.com/J6mcCWpzY1HtqSgO5x_y5aVz-YFsC8M7QP6HkXPiD48zj2LwljZvVXDN2m_K8oMn6mei5g6B8PphiUGrXGDG6g'
  lat: 40.119305
  level: 6
  lon: -88.244122
  name:  'Women''s Town Club Building'
- ap: 6098
  img:  'http://lh3.ggpht.com/VrbXGwlUosNLEkVdshWUFoVa3KtlJQoEU4yLYygvftYbPCmxo644Uvar_v8Kb9RS53hB0tXgvV44GotrxZyu'
  lat: 40.098592
  level: 7
  lon: -88.251676
  name:  'Ruth and Fred Steigmann Plaque'
- ap: 6098
  img:  'http://lh4.ggpht.com/vKgqIecJshMQxrhO-ZhMjcIyARuJdyU63wKfzAG0wouZex6LVzO46Qi5zM1N3Jx8xyantDFk9sQGsSEBhb-y'
  lat: 40.101327
  level: 7
  lon: -88.251412
  name:  'Zeus Memorial'
- ap: 6098
  img:  'http://lh3.ggpht.com/x5fBw8MRogV8dm3kPO5zKNkUrQxn0dM7d1PIoASdX1_Rc8H5Duex4iZdOoIlqazCGll25TmptsWIRq1JFmj6'
  lat: 40.112135
  level: 5
  lon: -88.225762
  name:  'Computer Based Education Plaque'
- ap: 5909
  img:  'http://lh3.ggpht.com/8Nxm7sw1mIfTkxKb-GsE_e5DuPgup8SmX1SJRLGZmvopdsQsPx8E9eDzuISKXBjwveamwn6H26EmIJZzVwkr'
  lat: 40.117449
  level: 6
  lon: -88.246902
  name:  'Champaign Park District Flower Island'
- ap: 5909
  img:  'http://lh3.ggpht.com/HX3mWBGofQk08Qdp7A6KMK1AnSXlLEPJR-n6oeX69Efiiss29GHsLiDsHhRS5K8DrXh-QXP1T0AMaOsJmx_w'
  lat: 40.106921
  level: 6
  lon: -88.230145
  name:  'University Lutheran Church'
- ap: 5722
  img:  'http://lh3.ggpht.com/K-b9T4FjMxrtkS2Awkze3fELfwY2Va92gMQloHtHf4bfeKPPRzOUJxaSYYi6-OHHQbpDVY3ONWwPgIa78fBX'
  lat: 40.118332
  level: 5
  lon: -88.250276
  name:  'Mckinley Aquatics Center'
- ap: 5535
  img:  'http://lh3.googleusercontent.com/hJZWoErzM-MuXulq4FlhlZwMbJX1Isd81GBUBVKayd57jVIVxUle3itd-1DRKo2VaNXznWr1X639fa44Etk'
  lat: 40.141919
  level: 6
  lon: -88.244611
  name:  'Marketplace Mall Carousel'
- ap: 5535
  img:  'http://lh5.ggpht.com/v26lJtVx6k_bS8UIv0cuwFV2H-bR_kPwjkydaZjqk7BOG1VyLpoQFvuFB7ZmKZpWB_uCHi70HLzZoI4xZgo1'
  lat: 40.116491
  level: 5
  lon: -88.246701
  name:  'Emmanuel Memorial Episcopal Church'
- ap: 5535
  img:  'http://lh3.ggpht.com/2bCNiD7SWsS3uzFLMO2cZh-LpHUEMQGnfTmcNx5vJapXho2TuXke630-7zop2Sq4fuY8nWVqy4VCG23mvnIJ'
  lat: 40.104168
  level: 4
  lon: -88.238808
  name:  'Alpha Gamma Rho'
- ap: 5535
  img:  'http://lh3.ggpht.com/rT55OoX-8s-w_ikrqOgpC7QkK-Iqp4ylicElGoWFagKRQ8LX3Uvv8TZ5Xc8BlId1btzo5FTbgddPN72kYwA'
  lat: 40.114327
  level: 6
  lon: -88.224492
  name:  'Siebel Courtyard Structure'
- ap: 5535
  img:  'http://lh5.ggpht.com/f1O8bFXHTg2PTOAUVLvrqk5xx5ps9SeqhpJ1RIPtSxm0I-e7J275e2ujJp3lFQGHUBW_vS90KOsrcdLDJ84l4g'
  lat: 40.110797
  level: 4
  lon: -88.225321
  name:  'Multiphase Fluid Dynamics Plaque'
- ap: 5535
  img:  'http://lh5.ggpht.com/dgQfoxxVeHT5ODqLiUYHV45qvkC_BMS0kIFRqvHvE2GO0TduZ0-XzhW8RE80LtPDK0Ay5xwA6PtjM7G3C9U8'
  lat: 40.108947
  level: 6
  lon: -88.232251
  name:  'McKinley Church'
- ap: 5535
  img:  'http://lh6.ggpht.com/x11pEsOWqn4mqQ-dluGwqiNNwEbwDqcHukghtr3T9OW6zJ-huJiQzN28bQTAJutX0Cf8c-9nJICDcxGXa73y6w'
  lat: 40.109364
  level: 4
  lon: -88.227697
  name:  'The Diana Fountain'
- ap: 5535
  img:  'http://lh6.ggpht.com/POBAhJlStu1uLv82RPSkd8lKQyojPByrKqAwgiZPyXTHQcNTCN7rkJM376YcVpMmZZVMgiXz9J1BXanexyA643e-FR9M70tksLdb1akPUe2Ra_xCyw'
  lat: 40.112411
  level: 6
  lon: -88.226875
  name:  'Grainger Engineering Library - William W. Grainger Medallion'
- ap: 5348
  img:  'http://lh5.ggpht.com/2jocF-ooKfacyT7HSwrwNcZTSN02yFkcmXBkPx777CYuD5O6sHPHwyUabblNOl_37YOxba1Gjid-TOwLVBlJ8g'
  lat: 40.116448
  level: 5
  lon: -88.248459
  name:  'Uppercutted Sculpture'
- ap: 5348
  img:  'http://lh5.ggpht.com/BK5TjuMzuJgDVPz4C8HRjfZKeaoISnPJ-H7VaYeMNUYmxvvUY7RzIIlR13FjW9HHF_i5-znqs3O6nMxKPfcj'
  lat: 40.102188
  level: 5
  lon: -88.251507
  name:  'Little Free Library Charter 5753'
- ap: 5348
  img:  'http://lh5.ggpht.com/Z2EWM4D6YQHuqnLwtuPBawyQBZxTzVe9E17MKc8jOZkO0ZzkuD5zSQslY2iuXkkUnztPteUeOSHrSTz3voHC'
  lat: 40.111166
  level: 5
  lon: -88.228747
  name:  'Boneyard Creek Mural'
- ap: 5161
  img:  'http://lh6.ggpht.com/5m_DdlbswQXPJueGjlDknXPY3RqwtwdrWAsNLBfbSNENcdAw3oafNYp_YTPk5KmZZpY5M4zwdxKoE9Tq5kDv'
  lat: 40.118985
  level: 6
  lon: -88.245285
  name:  'The Little Brick Memorial'
- ap: 5161
  img:  'http://lh6.ggpht.com/nbUJivBo0zF8f8aBbk1GwakUpPbLUVOoEovTTETYwJvfNIHXwG9XUbwoV0x-ly4ZO5Hsyv5KPo3c9cE6Nh8'
  lat: 40.118832
  level: 6
  lon: -88.243643
  name:  'Tesla Ball'
- ap: 5161
  img:  'http://lh5.ggpht.com/D9O580D9hlBOqeMvt2V4nL-eHP62h4vG4YFgk-WTw7GunusU9AOffFuHZ9XYWoB8YrGxpCMu2Y77-LCAgcdT'
  lat: 40.119328
  level: 5
  lon: -88.243755
  name:  'Birthplace of Champaign / Beautiful Beardsley Hotel'
- ap: 5161
  img:  'http://lh6.ggpht.com/tEtHQ3gjXHp940OLn9txVBSOCdT8UfYUs3C29Cgx6HiCLrS3KBboU3Wms2rEVMQWEf7lf67xfK7MIUmimDw'
  lat: 40.116631
  level: 5
  lon: -88.247334
  name:  'Jack C. Richmond Lion''s Club Bench'
- ap: 5161
  img:  'http://lh5.ggpht.com/-UWK84I78Sftf7yg-E2pg6xEAWTvyiThgJBJlxbqOZPYKNmzQ8uGgEEMetzplrG1HpXG5kQqNItUeXKxOHDsGA'
  lat: 40.100286
  level: 7
  lon: -88.251747
  name:  'Tennis Anyone'
- ap: 4972
  img:  'http://lh5.ggpht.com/BUGNnLReyCBJJj9_zpqgwv5_CAyiW8fWBpyVs0ip1hT5NEE6YKCYzlc8ahldKzk_xv-4uckNJNb6NrJd6r33qg'
  lat: 40.116989
  level: 6
  lon: -88.242255
  name:  'Blind Pig'
- ap: 4972
  img:  'http://lh4.ggpht.com/zZ2YpVpDiI1KdIQ9iI7mGJD_VtwFztJ4ZF1vRehD9OSnQ2K3433SIg22svwcqDJVfeO2fjE3fdT4eHAJWGpi'
  lat: 40.104339
  level: 5
  lon: -88.234788
  name:  'Pi Kappa Phi Fraternity'
- ap: 4785
  img:  'http://lh4.ggpht.com/kZm6lbk07IpQebQBqqCODikSi-pOMHQhQ7-c0xNGM6vqUskWUftXV4L3ymEbT0T5IELGgfJ2vrxTZvmgP9D_'
  lat: 40.117118
  level: 7
  lon: -88.248618
  name:  'Lieut. E.G. Stillwell Memorial Tree'
- ap: 4785
  img:  'http://lh4.ggpht.com/mlUN5QXAR7rKFvUg7yhxcae3udkR7zCJVaWt5sq_YA47piV6tRi42RNN9fEtT_FafT7lhqg26WM1VETbz5E'
  lat: 40.098239
  level: 5
  lon: -88.25376
  name:  'Hessel Park Christian Reformed Church'
- ap: 4785
  img:  'http://lh4.ggpht.com/j8nn4oxG37YIXPvQKVP6CBbVkveyhoHNg8O8QFxZKgbKVegaP5OdjJl8L8HTjzdBoVKPJIFHmwN26NfE9n4'
  lat: 40.111897
  level: 4
  lon: -88.222485
  name:  'Engineering Student Project Laboratory'
- ap: 4785
  img:  'http://lh4.ggpht.com/efOG849cf8EKwVLL2BfNKzwBdkrAuNsMeYOZfeR8FYnK3axQJJON0VH191MLBwjJaQ1EeQC9Pt8LMtNI2LEa'
  lat: 40.07718
  level: 2
  lon: -88.203511
  name:  'Denise and Ernest Walker Grove'
- ap: 4598
  img:  'http://lh6.ggpht.com/duOeXcOSQLWosdD0JJXg3pWWQp4t5sL0x9qDHoTIBFNOzEW0t53Lt2cnwgV2E_Su0l1ajIQxPtVbbK_sDRaS'
  lat: 40.141775
  level: 5
  lon: -88.242671
  name:  'Marketplace Mall Fountain'
- ap: 4598
  img:  'http://lh5.ggpht.com/77v6DfPMOKjAUzTfAuqZzYtMmpFMJV7lPr7FgQb_Fa46w1xmepHb0h-0CpG5WZy1b9vd5_DZ0uLxxZw9-DhJ'
  lat: 40.117163
  level: 6
  lon: -88.246602
  name:  'Garden for the Gardener Plaque'
- ap: 4598
  img:  'http://lh5.ggpht.com/ZAQQMo0g8dPiNKbmyCGqg9AkmfoW8FzqAcUNP-9buWZIQhHPeijk0LUaIvIY2yZTCOy0nd-9jGV_uR7-XY8J'
  lat: 40.117334
  level: 6
  lon: -88.240517
  name:  'Glory Pipes 2.0'
- ap: 4598
  img:  'http://lh3.googleusercontent.com/SjusdEZ1n6AkcvHdrM3TfGAqP_W5LJRmm4qEdm5xmdvHcBejD6Jg0kXCZaHyUk5WGeE8Zu0RrSSq_1VDXFU'
  lat: 40.117419
  level: 6
  lon: -88.240991
  name:  'Old News Gazette Offices'
- ap: 4598
  img:  'http://lh4.ggpht.com/OFVPvdgB3GVpaQknHdnt2okgP3xcQksAH3wvOGYVuP85MMlxo3bQ2SRpBb0hzNfjQoC_5LlRqaE6jLB-h9Gr'
  lat: 40.108092
  level: 6
  lon: -88.234589
  name:  'Koinonia Plaque'
- ap: 4411
  img:  'http://lh3.ggpht.com/07XrBN-er6Ecleor0n9RJ4DfGO6B2yn-ZxjI-Uy8Ba46Jtb6cXNVmATPiPiGyk-1jZ4wxa7-EeIWbWUqArCG'
  lat: 40.142554
  level: 5
  lon: -88.243468
  name:  'Dog Heart'
- ap: 4411
  img:  'http://lh3.ggpht.com/rm0mJKw5ksUEH6_YQLi-f3uo56Wv-4h1P-Q_Ws61holRtnLG9Qt0NObbSBzDxPm3tvIhWgzHLvftIMBC_5dZ'
  lat: 40.118435
  level: 5
  lon: -88.247677
  name:  'Burnham Athenaeum'
- ap: 4411
  img:  'http://lh6.ggpht.com/ZB8W5NNUt_ghaLF4gE_7_e_uguOocj1k6qCQvq2eAsayVQyZFUsUA3H5SFkHOwg20GluChbe2MSO_xWoB0bk8g'
  lat: 40.11813
  level: 4
  lon: -88.247413
  name:  'West Side Park'
- ap: 4411
  img:  'http://lh4.ggpht.com/7jfpHo9VtrONulGtzUfsP3lI3AsKBnUxCQaLU9xAMpVCQbWD24db4z9Otn0Sfz_OnEXSbdwKUGm3MZBV6QZrhQ'
  lat: 40.117194
  level: 6
  lon: -88.247472
  name:  'Rebecca Mabry Memorial Tree'
- ap: 4411
  img:  'http://lh4.ggpht.com/PHV-1ZpFzCAl_ViCKwBY_x2pIDbVyaT7wJH1sTvFJCxrSdRrO1x7NaXq9OdRGwz_Mls4iwk6wuGHMBArfV54'
  lat: 40.098688
  level: 8
  lon: -88.25063
  name:  '"New Holland Yellow Dinosaurs" at Hessel Park'
- ap: 4411
  img:  'http://lh3.ggpht.com/lzCSS0_tjwUV7JQ2fgLI0e05IrzPxlVUs-6aEPOwUv67IanQJSTi71gkw0SGm8asmoE_r3Xoh048Fd9xRpE'
  lat: 40.099169
  level: 7
  lon: -88.251419
  name:  'Lyman Larson Memorial'
- ap: 4411
  img:  'http://lh5.ggpht.com/ENeQgqydWbi9-Oyf7vizunoRqJdsZV4o0RA_956wjGI8hqpTCHBPyWMpbTrrkwYpj5tgzDRvevGmvH4eFRU'
  lat: 40.099593
  level: 7
  lon: -88.251724
  name:  'Blessings from Devon Elaine Cattell'
- ap: 4411
  img:  'http://lh5.ggpht.com/C6wRSaEWO1NYGY5luyYZKHG3Z3aib4aflaPdV7B9G6N6adE890g3QuPRSvCUhsdFHqjoVUjo27mfz9WsjXyuhQ'
  lat: 40.100521
  level: 7
  lon: -88.250864
  name:  'Gabriel Patrick Maxeiner Memorial'
- ap: 4411
  img:  'http://lh6.ggpht.com/S7Utf4_59vQkAP5JhC3mdbzVLKBTt-0zoJ2UjfxUnN10VBbixO-_VwvssWd1LbFSx_yafaijd_U0wTGo870'
  lat: 40.100941
  level: 7
  lon: -88.251314
  name:  'Gabriel Patrick Maxeiner Memorial Plaque'
- ap: 4411
  img:  'http://lh4.ggpht.com/hJDi8J7CZU-933hT0Culp2nhslv6p8rDRPdTFz6FwNaAjB5CmfkaQzj9sM--E-QBvI8yvIJn1F2jxy7ZKWlh'
  lat: 40.10816
  level: 6
  lon: -88.234245
  name:  'Stratford House'
- ap: 4411
  img:  'http://lh4.ggpht.com/N-xxTzGXK34K-VdTOWaWrFJeP9_SLZ7ZBluxK2mjP51yZx_5HOMi_mb4Nu2rWgo3gOqUb19_cPb662sI7td_'
  lat: 40.105687
  level: 5
  lon: -88.225714
  name:  'Smith Memorial Hall'
- ap: 4411
  img:  'http://lh3.googleusercontent.com/v44Gf5oEZGcwkQcA2wWz-uAeDFESHj7sEloxdCJd316RPH3w_ln8_9mBEMbAqGyI_2Y2qaYp525PnRip9Rg'
  lat: 40.105315
  level: 5
  lon: -88.226125
  name:  'U of I Observatory'
- ap: 4035
  img:  'http://lh5.ggpht.com/LLVKvcsTaSPmGBzaGFrvYIV4RhGzb6LqC_npAarehd2aLZSaVhjGzQV6T63Ke07reCQzO-GoZXmEfwZMOcM'
  lat: 40.110569
  level: 4
  lon: -88.226784
  name:  'Cubist Art at MSEB'
- ap: 3848
  img:  'http://lh5.ggpht.com/Ezq3ovJZ5M4i8wxOtoPoHEBF_o5ur2tH3Hdb0QU-JmlxR71RxAS_K5h14xYHSyI2WOF0RuBy_hZZeslYhNNe'
  lat: 40.102329
  level: 5
  lon: -88.221381
  name:  'McKinley Fountain'
- ap: 3848
  img:  'http://lh6.ggpht.com/1i7JFIfvKI3IMOAekdomh9jm9HrAhBBdNIOyX81Nkq1Bh49sBqKg37sMm99MYm8yJjHsG4dBdnRg1X5Aq-c'
  lat: 40.104796
  level: 3
  lon: -88.227461
  name:  'Undergraduate Library at UIUC'
- ap: 3848
  img:  'http://lh6.ggpht.com/NgnydTt337ADxVuRuFnimA4_Ifff2E49IzKzpqchxzsfFOWhZolCGjl48IjFWzsJYEgVBSM5nurntToYOMT7'
  lat: 40.100488
  level: 6
  lon: -88.221702
  name:  'Sigma Nu Fraternity House'
- ap: 3661
  img:  'http://lh5.ggpht.com/nWEtxuKQdy0teBBue1DYmG7P3SF5-3A6zlB7GwVHBWlolAZYGq6Br78lWcF9ltFy-KeSlozXie2RmU6JfCUX'
  lat: 40.142673
  level: 6
  lon: -88.244603
  name:  'Italian Statue'
- ap: 3661
  img:  'http://lh5.ggpht.com/arF148UpHKIzlt5NezBSpFkItJk3gWq__xkPolNCeVTwHNpQNm1rzIwSdA2oAJBPtaLhpTHcVdAFFdHAXm8k'
  lat: 40.118383
  level: 5
  lon: -88.247003
  name:  'T E Berger Memorial Plaque'
- ap: 3661
  img:  'http://lh3.ggpht.com/7qvblF8IJPE_GlNC-0H-3-uvbw-LO0WvGTcs3eGsfxl9qIfPSHIoEP0WVScW5akBfIuNtHggyR43gyD6aQw'
  lat: 40.099867
  level: 5
  lon: -88.233082
  name:  'Stevick Family Memorial'
- ap: 3661
  img:  'http://lh6.ggpht.com/egg-GJTeWFUK6QAZ7fQqMwf7aGRS4QcRetrEja7g2EwZf4mR7qv5HBbA64238ZtBOXVI_TwGYBo9g77alceB'
  lat: 40.099033
  level: 5
  lon: -88.223684
  name:  'Morrissey Family Mausoleum'
- ap: 3661
  img:  'http://lh6.ggpht.com/B4G90nKtVQc7jPOxaA1XcAIKA2UJlU15MIPZLitQmNBNAtfIc9qCPpe75YFHYaZN3YUpU6b4CNMOPsBrg1Q'
  lat: 40.100489
  level: 6
  lon: -88.218903
  name:  'Farmhouse Illinois Chapter'
- ap: 3661
  img:  'http://lh6.ggpht.com/c2I39IJvSBKmCLonmhP_RN1vLEpYY1recBXFm8xpGHxES4bAN2kvAcda8ZzvT75uq0yWQCv7N_dzP6ce5-Tu'
  lat: 40.108043
  level: 5
  lon: -88.22469
  name:  'Building of Molecular and Cellular Biology Sculpture'
- ap: 3661
  img:  'http://lh5.ggpht.com/1yq3oFq9p_Yl5cUf5h7IEfZPAbae2MT7lA0DFo1DHwPWPZJJ-Ez-2AE2oTzHEHWsEJQVUcUwh3j_d3kOYgDS'
  lat: 40.110095
  level: 7
  lon: -88.22862
  name:  'Alma Mater Plaza'
- ap: 3661
  img:  'http://lh4.ggpht.com/IZUCSooIdo5qUAG278Al-JEKCRv842M0uDMusE78yaL4p-QCYu2A4UXE6X2jTFemr_w8ZfD6g_lQqjwbdg'
  lat: 40.109702
  level: 6
  lon: -88.227571
  name:  'The Ray Bulinski Room'
- ap: 3661
  img:  'http://lh4.ggpht.com/Ad3EyxZM9v5cjmOiED5nr8Hf1mHtOMXrJtjU_U63YfE8lgUjAteiDYuYxND-ybx6tARUErULHJBDhgoDIblz'
  lat: 40.077349
  level: 3
  lon: -88.20659
  name:  'Bruno Schielzeth Plaque'
- ap: 3661
  img:  'http://lh4.ggpht.com/ojeB36C4pFrkpUOLeRf1wlevsVasnc0hxMgCCqBw0bmWLkPKciRkj06rLhJaSpLFbnUhIn2WqKdmVVVYGBw'
  lat: 40.077334
  level: 3
  lon: -88.202929
  name:  '"Marker" at Meadowbrook Park'
- ap: 3474
  img: http://i.imgur.com/5j1qaiT.png
  lat: 41.812283
  level: '?'
  lon: -89.686219
  name:  '2c47cde8fd624412b83048dc716c978b.16'
- ap: 3474
  img: http://i.imgur.com/5j1qaiT.png
  lat: 42.356918
  level: '?'
  lon: -90.002898
  name:  '4b2b62e3565247ada71f7778b3670cf1.16'
- ap: 3474
  img: http://i.imgur.com/5j1qaiT.png
  lat: 41.816052
  level: '?'
  lon: -89.694085
  name:  'c604d1508e9c497bb0473a6aaface8c9.16'
- ap: 3474
  img:  'http://lh4.ggpht.com/u_MtizNv_keIXM4ITgtjqC8nr5JvB8UpDBg_5_08uQDTsQr44mwr6ZlkhTp0iKbvcV9xCJqXDeN66xYWaI0'
  lat: 40.116227
  level: 7
  lon: -88.233833
  name:  'Haley-Walker-Ginza Building'
- ap: 3474
  img:  'http://lh3.googleusercontent.com/4ZghmANMiPJhVcpWuH3M3D6jgFGSDn0QH-VAP5olDzQjucfxwHFo8-1DsCSQhVV-YaTWMvC1pVwqWdnjVs8'
  lat: 40.117215
  level: 6
  lon: -88.245551
  name:  'The Virginia Theater'
- ap: 3399
  img:  'http://lh3.ggpht.com/hBux3yLZOMWBK1dtc47OrhISfV3SPojGgtZOxqqf7-yoc82f280WMG1r2mi43iZQsqfwzmN53VJHHHEFVs0'
  lat: 40.116458
  level: 5
  lon: -88.247065
  name:  'West Side Park Entrance'
- ap: 3474
  img:  'http://lh4.ggpht.com/Iz-O9-kJLlEdRO9osaqkCvLRsSNF24c95jHG0lhtE95b99-cC2bKuCEiznIs1-ytpoCITEwQ7s5VuyURgrpM'
  lat: 40.117288
  level: 7
  lon: -88.248506
  name:  'Prayer for Rain  Fountain'
- ap: 3474
  img:  'http://lh3.ggpht.com/8FqlniFErK7cq59awiT84u8KyV4FIRd5krZzfYa58zJToFps7whdBnriPqvO_kFKeLUE3SWbJhCOPuvUQzaGFA'
  lat: 40.100691
  level: 7
  lon: -88.251337
  name:  'In Loving Memory of Zeus'
- ap: 3474
  img:  'http://lh3.ggpht.com/eIZLSi2oHXQIznnki3LOUvKrTTcJ6a2d9xmuW9B9IjzRMAyaWG19Qw6gTUGWsC5V7R3LlRVD-ySQPp_6uK_aZw'
  lat: 40.117519
  level: 6
  lon: -88.240577
  name:  'Spiral Flight'
- ap: 3474
  img:  'http://lh5.ggpht.com/W2upB0MQ9l_1Z1JYjKFslTSSU-oi3b_kOidwTlG4pOCZRHWiD52CzcX2WMquuVEnMpxhtSRQOuAdLgDn8rs'
  lat: 40.096671
  level: 5
  lon: -88.217873
  name:  'Skull And Wagon Wheel'
- ap: 3474
  img:  'http://lh6.ggpht.com/y10QgRCNt0Bsefqp3olKgJp98whQkS0-vWqPskj3421hcSq96BG-b_KROqsO1mBEcNiYtAKhXuXG0EV0eaUW'
  lat: 40.107152
  level: 5
  lon: -88.235244
  name:  'Bromley Hall'
- ap: 3474
  img:  'http://lh3.ggpht.com/0HyRE6hI-Dp8OIZWrGjSBLw06g4xLl3H3SxdYDO-wm20QdpGQtvQ1-GBpxfAE5WNcC0D_aY-oOfGM1Wj1--EvQ'
  lat: 40.106092
  level: 5
  lon: -88.223135
  name:  'String Project Plaque'
- ap: 3474
  img:  'http://lh6.ggpht.com/rraU1rTd14rCyJXSoh2e6C2u94YDda9-bQvNx5QNAyqzNwDF1MB6ZmCYgnUrC1--QxP8_xEw0oI9iqEy1gto'
  lat: 40.108
  level: 5
  lon: -88.2219
  name:  'Foellinger Great Hall'
- ap: 3474
  img:  'http://lh6.ggpht.com/j712bbvDknzGlAU87nZA1Bx45Ng-0MGA9Uvuv-3WzIKA3W51mXOZpJ-TzVSbuU3uE2AsJ5wcO7_B6WDpdRr0'
  lat: 40.110684
  level: 4
  lon: -88.226053
  name:  'BCS Superconductivity Theory Plaque'
- ap: 3474
  img:  'http://lh3.ggpht.com/pVUYGCf7vsAndVd4vhK_pC9p6e9OvGa4ZiWuZg0ELOFDWptBba4H2N4PNZPjQdHXnV1GQyLTpCXQWDMKDUqn'
  lat: 40.108875
  level: 4
  lon: -88.227835
  name:  'Lion''s Head Planter'
- ap: 3474
  img:  'http://lh6.ggpht.com/5FrAAzvYmAM-WLKT5FARCFzegoqjWDbNOkEi5jS2tKCRLbTeSfKuZonDJsFpjSfnQpj_fSJSV6P-msLaTJSk'
  lat: 40.080453
  level: 4
  lon: -88.205614
  name:  'Elaine Regehr  Memorial'
- ap: 3474
  img:  'http://lh3.ggpht.com/SGh5Xw4MO1dVvrMemAzgB9RDDBXEv4yPJSQnS537XIPlaVnoge7FriTE0zXjRXDxMtFiaTHXXihwZpbush_dbg'
  lat: 40.077367
  level: 3
  lon: -88.203354
  name:  'Meadowbrook Trail Map'
- ap: 3474
  img:  'http://lh3.ggpht.com/auODcSEEyS_cmdCKFpepPDD0gW_kEaFOoOpOfD8jnhCfcVh_700SftAr3yhsnLkr63Ac_MetCRRjp36GkKw'
  lat: 40.096302
  level: 1
  lon: -88.183872
  name:  'Karl B Lohmann Honorary Plaque'
- ap: 3474
  img:  'http://lh4.ggpht.com/pM54bxajiElAHvpOxTra6n3p9_Fy3FZDVv1HZu94ulaDSBKkvE5xOjxuEfC__ooPEItS_J5fqoI2Cw7BdPYn'
  lat: 40.09623
  level: 1
  lon: -88.184865
  name:  'Lohmann Park'
- ap: 3474
  img:  'http://lh4.ggpht.com/QaEETB-72_R_PXiJ2rTrNTf6R38GNDpwmzGIfbX-rkir8KsH3Nov2DZTVj2AVqnvDfMl6QC77gSMVWxAw8rQ'
  lat: 40.095923
  level: 1
  lon: -88.184083
  name:  'Lohmann Park Disc Golf Course'
- ap: 3285
  img:  'http://lh6.ggpht.com/SboHv2_AWJ6ll559fK1A5a1UIAKf04oIHrgidra_E6L8gDK_mQ-DaM7hKYkv7MT6ZAA8pzgPxv_Vy-eNN7g'
  lat: 40.110608
  level: 6
  lon: -88.231957
  name:  '217 Tattoo Co.'
- ap: 3098
  img:  'http://lh4.ggpht.com/W2chhQwPqSJEkl57NVoIL-OE4KFvJfp7Bsrrxza1apCYltcT3npz95LJxqHxvT9ZZu7wxF2gQy-5bpKal2p2'
  lat: 40.115838
  level: 7
  lon: -88.241338
  name:  'Illinois Terminal'
- ap: 2911
  img:  'http://lh6.ggpht.com/PXc3YHSOsx0c_WrfpzvHHiHEl1FSv5RvbgXj7Ji3-xS7oBwJIkFCD8eQySiUega_iQvX8FiUBuDhXdK9l9QWIA'
  lat: 40.116623
  level: 5
  lon: -88.240844
  name:  'R. Forrest Colwell Memorial'
- ap: 2911
  img:  'http://lh6.ggpht.com/BY965mN-IwRRa-jZ2gbLPDtjHyKpATG3VbP3LyHuDo6pU0R8wDi5gANnRox6DEA_ZgB0Xqi-p6k0SYPnSIs'
  lat: 40.115883
  level: 6
  lon: -88.232238
  name:  'Artwork at Fifth'
- ap: 2911
  img:  'http://lh6.ggpht.com/0IsQORyEW-bPA7sEbGspygtoI7ixEshm_2fUw5oeh9AeXg6JN5w0ypYIshpuKm-C0nG4Vm2XmpLvtWTZzWzd'
  lat: 40.111607
  level: 7
  lon: -88.233753
  name:  'Chabad Menorah'
- ap: 2724
  img: http://i.imgur.com/5j1qaiT.png
  lat: 40.347254
  level: '?'
  lon: -88.762091
  name:  'ef6a27b9721a476a9006c096765f1fad.16'
- ap: 2724
  img:  'http://lh3.ggpht.com/7sJlWdBFFcLCXWnnfB6SVTzCCDM0Q7KyV5jALfrWG3ICtkw7HXrjzaRrnzSiv19wIswpZoTxKYudzYiZnT9Shg'
  lat: 40.112536
  level: 5
  lon: -88.256779
  name:  'Framer''s Market'
- ap: 2724
  img:  'http://lh4.ggpht.com/BEyFLhgqk0ySf2zElnARv5eyaQggj_zbHSagW3_DGt9BieScmU4jGPvJCjezTjbiCP-DOJPLPfJ3HhnYAiQLEQ'
  lat: 40.119288
  level: 7
  lon: -88.248086
  name:  'The Hartford'
- ap: 2724
  img:  'http://lh3.ggpht.com/EKf-sm5ZCYuiTXX4AKzlEv7GIrHKV_TLuLEfvyjAME2h47rQIOU4VRKY6CQb6qe8ZIQ_8ablR4-1JPH1JFhq0A'
  lat: 40.116423
  level: 7
  lon: -88.238623
  name:  'Champaign County Historical Museum'
- ap: 2724
  img:  'http://lh3.ggpht.com/-xag7tp3BReTAhfRmVAvpMw1Af15prESg4rve7QnsiIC5IKmKjBszxDIj8F212BmRU1apH_2u_9wAmq58_91'
  lat: 40.114157
  level: 5
  lon: -88.238621
  name:  'Bombay Indian Grill'
- ap: 2424
  img:  'http://lh3.ggpht.com/urNQaRe_wrjSAoW-Iis4CKHBvHhg6xwTvUcQPw4MqlQNK9ZuhMKEVtca2hGJnOCbyCC7ehJNuG00XZlaGXo'
  lat: 40.118898
  level: 3
  lon: -88.247032
  name:  'First Presbyterian Church'
- ap: 2724
  img:  'http://lh5.ggpht.com/Tn5ARN-X6VTc2q6atZ2WYq3c2g3gbSGXu6_vXf1MDwHfLpdTtnQ-CilBAVGvL6R-SHhq3fJ4WZI-yiJKmIId'
  lat: 40.110398
  level: 7
  lon: -88.235143
  name:  'US Post Office, E Green St, Champaign'
- ap: 2724
  img:  'http://lh3.ggpht.com/2LmoiHH6s6FrGUTRiNNoF0WIY5lVvkXP3CTOxQjNjG2_jrgsDmaxyIZxewF_wa8mFgO41Avi733oq5-CVio'
  lat: 40.10631
  level: 5
  lon: -88.228952
  name:  'Pi Beta Phi Sorority'
- ap: 2724
  img:  'http://lh4.ggpht.com/DTGKMEvXrKSLJVBZP6bN7EF-DMHt5l_x3o-C-Ln0FjrGCQcTdcLNaZDI2_OCwEzuqgh8HyyqJwyQkc4-0H8g'
  lat: 40.106037
  level: 4
  lon: -88.226237
  name:  'Triplets'
- ap: 2724
  img:  'http://lh4.ggpht.com/mHAXKPtOyg_DWRs5A_0yhGeDsfU4f4o3xJvzziri7o3ksPPKtMAHUkUBOb0JJ78gArdP5Q6O-UiXNDG3RHaIYQ'
  lat: 40.109339
  level: 4
  lon: -88.234149
  name:  'Alpha Delta Phi Fraternity House'
- ap: 2537
  img: http://i.imgur.com/5j1qaiT.png
  lat: 40.279711
  level: '?'
  lon: -88.346869
  name:  'Sangamon River Forest Preserve'
- ap: 2537
  img: http://i.imgur.com/5j1qaiT.png
  lat: 42.333068
  level: '?'
  lon: -90.272555
  name:  '73b8762abf9c4b9db427d5a2eae1b441.16'
- ap: 2537
  img: http://i.imgur.com/5j1qaiT.png
  lat: 41.805661
  level: '?'
  lon: -89.94177
  name:  '60e216159b344aba8fa25ec35d98f2ea.16'
- ap: 2537
  img:  'http://lh6.ggpht.com/nSen6pmNOWw2QFmzlf67_mVA2uPP3zLgamxJ9aa-xPKG8QSq77ECt0GKvNGs7q0WbZA-oQGcbqRsU57Ns5Lj'
  lat: 40.068397
  level: 6
  lon: -88.315419
  name:  'First Christian Church'
- ap: 2537
  img: http://i.imgur.com/5j1qaiT.png
  lat: 39.966802
  level: '?'
  lon: -88.34467
  name:  '4559bb0f45f9470b8b155f0f3b6c9056.12'
- ap: 2537
  img: http://i.imgur.com/5j1qaiT.png
  lat: 39.091886
  level: '?'
  lon: -88.625216
  name:  '5d9efcdaa27b430b9555ebb966a54d94.16'
- ap: 2537
  img: http://i.imgur.com/5j1qaiT.png
  lat: 39.964362
  level: '?'
  lon: -88.348907
  name:  '9e87bde25e4742e6a2802b1d7b1617a0.16'
- ap: 2537
  img: http://i.imgur.com/5j1qaiT.png
  lat: 39.988867
  level: '?'
  lon: -88.260234
  name:  'e8936d5f39164dab96a8dff5d68bef57.16'
- ap: 2537
  img:  'http://lh6.ggpht.com/WVVbmiu2GGTnPTszcnYYILHKlkZDoxB-QY6Yv7YPoUfdVn92jYnKjpVKNkfWdFrPjq-BaFeKGJWLZlE-bbA'
  lat: 40.120467
  level: 7
  lon: -88.2577
  name:  'Salvation Army Church'
- ap: 2537
  img:  'http://lh5.ggpht.com/_9uqsDQROIwqIhKx_URY4DdZAapoZBEWK6Eaclt5mM5vPsjwQAD-v8Bv-4b-Smq2F8X4zOgzLx2KwySkFWc'
  lat: 40.118448
  level: 5
  lon: -88.25211
  name:  'First Church of Christ, Scientist'
- ap: 2537
  img:  'http://lh5.ggpht.com/j6Gqd19ib1ziWv7UKoq4_fMXeXtxxdV85TchQ49_mIgeJYs7oUWOj860aB2Ok8NGNY5wNfMqDn7zeSKOgpxEzQ'
  lat: 40.108781
  level: 6
  lon: -88.271694
  name:  'Champaign Church of Christ'
- ap: 2537
  img:  'http://lh4.ggpht.com/UsWzXzHhg7iWYqgGNNqj1XXLWp2Oj6pNxp7R0PwHI8tzNVuJwD2K0KgVwc0BR_9MEu4QalqL6x1cBnT_vz89'
  lat: 40.108739
  level: 6
  lon: -88.268838
  name:  'New Generation Christian Fellowship Church'
- ap: 2537
  img:  'http://lh6.ggpht.com/p2F3xw4xL4UdiMM9aSy628ISSglrvjPexpF3j340tMAP9MX07yh_sJv7kHVkeud8lyFf2ZwDohw3zsRS2PSd'
  lat: 40.093914
  level: 5
  lon: -88.281531
  name:  'Terry M. Warmbier Memorial'
- ap: 2537
  img:  'http://lh5.ggpht.com/tuo_ByFTbwLitFP5cBseOibqRxENxbCwOJ30dCnja5ijBI_qBv5vqNP7ZuZXnxhYM6ms_GbExZEwwKVUtwV2'
  lat: 40.093712
  level: 6
  lon: -88.281583
  name:  'Brownfield Dedication'
- ap: 2537
  img:  'http://lh6.ggpht.com/yoGdHEqpRRqOE5pA5wHdi_ismU_TrB-kTiqVV63EO630KsU608TIfjLijcqJ38At7MyyrE2urWFMPY1Sops'
  lat: 40.118121
  level: 5
  lon: -88.258039
  name:  'Mini Park V'
- ap: 2537
  img:  'http://lh4.ggpht.com/MvwoDsxwfyNLHzfGkFJl-4VFeX7OvqB0hsMCrZ2D9Olh8GSghAJDfFfDh7a7cOtMIGwEDMyesZoKvKCXAGj4'
  lat: 40.116553
  level: 5
  lon: -88.242268
  name:  'Esquire Lounge'
- ap: 2537
  img:  'http://lh6.ggpht.com/RR0i4QdfoY8NkTQtssdOtDLhAEaCR7e-R4ipk5NzdKe9lTGDq2nyKI_7sF2BCXrgCZAZ2zEEtIzS7vg6Pu0hzA'
  lat: 40.126458
  level: 5
  lon: -88.218544
  name:  'The Vineyard Church'
- ap: 2537
  img:  'http://lh4.ggpht.com/Ow-wdEqY3uMRz8f_iGkOY7s4f79TTfxQK15aQu3wgtzRssq6mUqmxZcJDjfC4fO2y4Qt69U2jdahRt-Ald53'
  lat: 40.118119
  level: 4
  lon: -88.24714
  name:  'Police and Firefighters Memorial'
- ap: 2537
  img:  'http://lh6.ggpht.com/nRwew4OU3JNWRI1-xCyuN1xwDabajLFDuSlOZ-_M8BwJELli4V8o30JI0UyF6Kpc4gfDGdh10kJ6mD6ggMo'
  lat: 40.108561
  level: 6
  lon: -88.250039
  name:  'Harris Park'
- ap: 2537
  img:  'http://lh3.ggpht.com/wkPcdDupubV3THJo6r2OpMtshziiIkqBISPTCPe8boa-8nH33u83Mznkr1yYWNR_l60RCy8HO_obqrdNGUI'
  lat: 40.093633
  level: 5
  lon: -88.246611
  name:  'Fountain at Illini Plaza'
- ap: 2537
  img:  'http://lh3.ggpht.com/lSr_gDGX9o1BHZX9FUPCKAO2VVQjZ_NwTBaSNhNgjVyJ2p6BnLDByC_vIkhu637-W5nKMW2SShi0gXOlXNqY7A'
  lat: 40.097979
  level: 5
  lon: -88.247785
  name:  'Jarling''s Custard Cup'
- ap: 2537
  img:  'http://lh6.ggpht.com/Nv0tMktEkkuoGtg1QEPS1N2nTcBPg8ipu31i72XPDTGQ4HQI5oL58Ig8kofXUH_aCC2aaJ-NylWKPkC3hIBS'
  lat: 40.116218
  level: 5
  lon: -88.228757
  name:  'The Presidents'' Walk'
- ap: 2537
  img:  'http://lh6.ggpht.com/iVHoGDIqnjdRupoPTpZLPtrzaCpEGW6HV4QHZ5WW185rmkrOxvl-C7uIN_gNZnCrm-djktoPC1J-9vjBZfCb1w'
  lat: 40.115718
  level: 6
  lon: -88.228521
  name:  'Red Lines Sculpture'
- ap: 2537
  img:  'http://lh5.ggpht.com/n8MFM2pb-tE5i9EziJdygPPUK8VqEZ4BHGQaywz4lwe3WjwdgO0ohBCPZmiMoL00r3mVPmYnbCunJDeFbyk'
  lat: 40.118593
  level: 7
  lon: -88.240416
  name:  'Champaign Rail Water Tower'
- ap: 2387
  img:  'http://lh6.ggpht.com/RW34ntixvJkg7fD71TPYo_4KIsBzA0-a-6yXO0jKPbpGxX5gIGC7kBI-pXEF9OHhuolcAGW2fxyK3Pt42Iev'
  lat: 40.110489
  level: 3
  lon: -88.227412
  name:  'Bus Stop - Illini Union, Westbound'
- ap: 2537
  img:  'http://lh6.ggpht.com/pxaCt7clhIXc1RVGMMJZsmnbEWNWjFYJiUrQMev_SeOmXBothvOzmfnirQ5_W8CMa7hpigqydQhKMa4XFCAi'
  lat: 40.108173
  level: 5
  lon: -88.230209
  name:  'Mural on South Sixth Street'
- ap: 2537
  img:  'http://lh6.ggpht.com/BzDhCANV_iNTHhKFBGLuaUqOvChRZtPWnJ2Xk4h7NsKJHmTGgCWtFHWv2PpDA2fCsHHKSCRTrUNK8AKrLRnS'
  lat: 40.108066
  level: 5
  lon: -88.230687
  name:  'Community United Church of Christ'
- ap: 2537
  img:  'http://lh4.ggpht.com/l4w3T1e27S5zPAMN3Mr-LqJ51cbm26ThR-ubvfUFHpl28dkeRb_CQThuhJ_HSNhdYt_dX9NTAN9hKFsDeWJQ'
  lat: 40.108295
  level: 5
  lon: -88.224083
  name:  'The Landing'
- ap: 2537
  img:  'http://lh6.ggpht.com/35D1iNCRAADuyy_GrWImGD5u1E_gkdUiJI83zQVCutDNjvgnUMGoJSO5VofyLxsFNKiseGy32YeDyRTB6lqi0Q'
  lat: 40.112333
  level: 5
  lon: -88.208554
  name:  'Error Records'
- ap: 2537
  img:  'http://lh3.ggpht.com/Prv8wUbEpOsrluZ4pHXYwIQLreDfbvMRV7kMb39yXob8h_r5vXNRC-wSR6pi-2NeP0uIRJsaeWtsGe96cJ_U'
  lat: 40.112295
  level: 5
  lon: -88.207196
  name:  'War Memorial @ Downtown Urbana'
- ap: 2537
  img:  'http://lh5.ggpht.com/dzjsWdreD6jZuCG_DDonrZu-gYlDIxk5j3rPzt67sbmq7yWjo9I_Op69SM3fzvlGKnlp8QMGcztFWOhpSe4'
  lat: 40.093629
  level: 1
  lon: -88.216064
  name:  'Dr. Frank W. Kari Memorial'
- ap: 2537
  img:  'http://lh3.ggpht.com/Q2rFQkcNHwItWNXX2B0B65sANQ_gCk482p2HilMp7BeswGN9qevW8WBFQ1zUg2xkvlz8bqbDCg-C5NaxK2Jf'
  lat: 40.092639
  level: 1
  lon: -88.216599
  name:  'Frank Kari Memorial Bench'
- ap: 2537
  img:  'http://lh3.googleusercontent.com/DNxNz5kUb4i3SBi5NKUZEHT0qc0Qef6rKL-J9jG--oDu69m1WEoRX_0_laXoooyFy2YJWQKQLkaUtu8rm2-D'
  lat: 40.078858
  level: 3
  lon: -88.200763
  name:  'Prairie Overlook'
