- ap: 12844
  img: http://i.imgur.com/5j1qaiT.png
  lat: 41.486879
  level: '?'
  lon: -88.639155
  name:  '8e6ffa1a9cbc4adf9c5ae860028dcc82.16'
- ap: 12844
  img: http://i.imgur.com/5j1qaiT.png
  lat: 41.714859
  level: '?'
  lon: -89.333239
  name:  'd029df58c91a40b888cb8a88d984ac53.16'
- ap: 12094
  img:  'http://lh3.googleusercontent.com/SjusdEZ1n6AkcvHdrM3TfGAqP_W5LJRmm4qEdm5xmdvHcBejD6Jg0kXCZaHyUk5WGeE8Zu0RrSSq_1VDXFU'
  lat: 40.117419
  level: 5
  lon: -88.240991
  name:  'Old News Gazette Offices'
- ap: 11533
  img: http://i.imgur.com/5j1qaiT.png
  lat: 44.607633
  level: '?'
  lon: -87.43205
  name:  '8e6a8255e7c342e8806313a728bf9918.12'
- ap: 10220
  img:  'http://lh5.ggpht.com/KYppjeOoIlb4lbowRrrC5qRdYW7_KU8rzjtDMpvhh-Q_c6VZOTtVmOqmmxChJA2hjlpS5dJ1JnhUQcKUAXDWHA'
  lat: 40.117976
  level: 6
  lon: -88.242642
  name:  'Stevick Building'
- ap: 8909
  img:  'http://lh3.ggpht.com/yeYI3q7rDQLA5xBcWfH-Caw2Uh740ZPRQjjyvOrZz7ZyLI-gxBpi8yqxqDrlOBzG9YHs6YlxdgX0obTpXlQ'
  lat: 40.117681
  level: 5
  lon: -88.241405
  name:  'Jupiter''s Downtown'
- ap: 8722
  img:  'http://lh6.ggpht.com/eeOtj4-6PU8Dt6QXk_TJjgkoEGRW9L8YzUqZE8QV5ZMCHnqA5CzoQoxKpnjCvXwaIflUUvPJmO_S7BdvMhcuzw'
  lat: 40.117588
  level: 5
  lon: -88.241787
  name:  'Adam & Eve Mourning Over the Soul of Abel'
- ap: 8159
  img: http://i.imgur.com/5j1qaiT.png
  lat: 42.11635
  level: '?'
  lon: -86.494605
  name:  'b14006f6283943feb0976cc5c909a006.16'
- ap: 7972
  img:  'http://lh3.ggpht.com/GGBe9Hug3fUbRCRAMs_kO1fg2HHQ95ZDBdW0S2tAHakvhQbWxlttanjhGNJJcyVRruUlL7zjQnPGI2bu8Wc4'
  lat: 40.117905
  level: 5
  lon: -88.242149
  name:  'Read All About It'
- ap: 7409
  img:  'http://lh3.ggpht.com/eIZLSi2oHXQIznnki3LOUvKrTTcJ6a2d9xmuW9B9IjzRMAyaWG19Qw6gTUGWsC5V7R3LlRVD-ySQPp_6uK_aZw'
  lat: 40.117519
  level: 5
  lon: -88.240577
  name:  'Spiral Flight'
- ap: 6922
  img:  'http://lh5.ggpht.com/AX1hc0zh7ZtN2MoSsNXTKwRtGJWb8EgeHffmjJfZvCLL7wvvjMZ8d0BwESKKrdNM--UUKA09PrLQ9qmTrMw'
  lat: 40.117186
  level: 3
  lon: -88.241556
  name:  'Champaign Limestone Sidewalk'
- ap: 7222
  img:  'http://lh4.ggpht.com/_jAAuDi8SO5uupi8JlB3HZaFG40S15izNv_3vqOt7ro2rRHuXrfdEKfEFvRESdAjCEz3RVDpyrxJGSIrju5d'
  lat: 40.117916
  level: 6
  lon: -88.243087
  name:  'Sholem Building'
- ap: 7035
  img:  'http://lh4.ggpht.com/ryDcZUJK2aQ_fI0-hY850_t4ZmG2hNmtCx7cxbX83w3cnUWdI-ywpTuQrUVQNxGl3_DcxxNr6bupfDTsagRa'
  lat: 40.117107
  level: 6
  lon: -88.242467
  name:  'Radio Maria'
- ap: 6659
  img:  'http://lh3.ggpht.com/1G0o5RjtXyfAjbI-E2honhhelnuiq4lIkpHmB44e-AwSBuIxVOdLPVYjImbTMS8kyBdZuKuiMQHciUIdAWg'
  lat: 40.118368
  level: 4
  lon: -88.243737
  name:  'Frank Robeson Memorial'
- ap: 6247
  img:  'http://lh6.ggpht.com/PXc3YHSOsx0c_WrfpzvHHiHEl1FSv5RvbgXj7Ji3-xS7oBwJIkFCD8eQySiUega_iQvX8FiUBuDhXdK9l9QWIA'
  lat: 40.116623
  level: 4
  lon: -88.240844
  name:  'R. Forrest Colwell Memorial'
- ap: 6098
  img:  'http://lh6.ggpht.com/hmDofhQgtMboyY40gAShyf0g__uH_qYaFzVKnGKShUBNn-JjwpN526PPOYKyq8kvusIGRrMQIZ7ozPedDVm4iA'
  lat: 40.117495
  level: 5
  lon: -88.241616
  name:  'Lincoln Building'
- ap: 6098
  img:  'http://lh3.ggpht.com/WDQ55kRMYCIrw9Pm69IuV6cBTI2nx7Z1gU9yxX2oE2oH9EdPnO1ltxSROAjUmHmBu84SEtHmLKregkDqlLYzUg'
  lat: 40.117126
  level: 5
  lon: -88.240623
  name:  'Depot Barber Shop'
- ap: 6098
  img:  'http://lh6.ggpht.com/BANSBFfuZ3_0ya-JodV7jEB1a-DwSOyegBwPKAODSUFHLmvI7b8zwSiLUAvvqIAYjpU6S_Lm8XRBJ30KDGCIEg'
  lat: 40.116917
  level: 5
  lon: -88.24078
  name:  'North Star Sculpture'
- ap: 5348
  img: http://i.imgur.com/5j1qaiT.png
  lat: 42.78094
  level: '?'
  lon: -87.758889
  name:  '5d16ec499e094076ace8c56fd8fac602.16'
- ap: 5348
  img: http://i.imgur.com/5j1qaiT.png
  lat: 42.781176
  level: '?'
  lon: -87.758749
  name:  'da8a9ff388b54e9b8be758bc820d0bcd.16'
- ap: 5348
  img: http://i.imgur.com/5j1qaiT.png
  lat: 42.780532
  level: '?'
  lon: -87.761546
  name:  '2c368608955c4d2b943b33845a65ed51.16'
- ap: 4973
  img:  'http://lh3.googleusercontent.com/M1BXbCtfOfi1ipACxyQaE2jCbcLCxQTsJVIUli8GgprQaS2WmnVuSsqMoFaWub8LM6VF7KK4wSH9SSGdrXM'
  lat: 40.117287
  level: 2
  lon: -88.242984
  name:  'Mural for the Blind Pig Brewery'
- ap: 5348
  img:  'http://lh4.ggpht.com/BEyFLhgqk0ySf2zElnARv5eyaQggj_zbHSagW3_DGt9BieScmU4jGPvJCjezTjbiCP-DOJPLPfJ3HhnYAiQLEQ'
  lat: 40.119288
  level: 6
  lon: -88.248086
  name:  'The Hartford'
- ap: 5348
  img:  'http://lh5.ggpht.com/H9Tmm-D_Dg3Q1_QsO7RlfHiZrkr4Oc34TPaqym0wpq88iGAGgqIs2QicN-RDnz4iEc7CbRPgGsv4QYUwL2ue'
  lat: 40.117334
  level: 5
  lon: -88.240517
  name:  'Glory Pipes 2.0'
- ap: 5348
  img:  'http://lh6.ggpht.com/4lSW4EwRiN3ZMZYjxrHWvIT7z6LDW-K6E686ImBYJg9AY_QNi-hZrn6ok63-XHe6Ls0E5tiQUt_QiGwGXvsqnA'
  lat: 40.116613
  level: 5
  lon: -88.240555
  name:  'Mural at the Station'
- ap: 5161
  img:  'http://lh4.ggpht.com/tLO2wjyCgyune3KDOlQMV_oiDRxVsHqO1gAG_0xs9TvKOiuWRVmJcO29WI7jELxoxncaXpy91kMa89Uj65JVNw'
  lat: 40.11784
  level: 6
  lon: -88.24286
  name:  'Kaufman Memorial'
- ap: 4785
  img:  'http://lh6.ggpht.com/BY965mN-IwRRa-jZ2gbLPDtjHyKpATG3VbP3LyHuDo6pU0R8wDi5gANnRox6DEA_ZgB0Xqi-p6k0SYPnSIs'
  lat: 40.115883
  level: 5
  lon: -88.232238
  name:  'Artwork at Fifth'
- ap: 4598
  img:  'http://lh3.googleusercontent.com/xo3k3XO7tBJe91QAyjpFM6Hf4-lz36JNDF9bA9GpCbvobxWKkUZtf-RYl9CynmW3YuV0JGQht2y6D_5zsfHz'
  lat: 40.117571
  level: 5
  lon: -88.240851
  name:  'The Accord'
- ap: 4411
  img: http://i.imgur.com/5j1qaiT.png
  lat: 42.781211
  level: '?'
  lon: -87.758414
  name:  '5548d5f0313047378de4a346d86327df.12'
- ap: 4036
  img:  'http://lh4.ggpht.com/xS51--rXA9M_IHpXWgFQxKZU-YbD-1zk-nug6k7RyKl8rYeam_YFwMmLNWRRHHzI-rOTGyhTJQQ314WudSQJ'
  lat: 40.117132
  level: 2
  lon: -88.243009
  name:  'Fountain in the Alley'
- ap: 4411
  img:  'http://lh3.ggpht.com/NuEE1yevEulYAFm9UHYKLrX8fVNrXyLgFXbQ8kTjAKuT9w-Fkj18Pop2B2wikf21LHDU24uSUkIvXbfKyvy2'
  lat: 40.11738
  level: 2
  lon: -88.250259
  name:  'Heath & Vaughn Funeral Home'
- ap: 4336
  img:  'http://lh4.ggpht.com/LukOnZPQdxTvyW2kKwpCrzH9PWuOtO6LZyu0jeZSt8ijAhlA0l-3oYZ_m0HbPoF316Mhgbh-SaZNKtmX82c'
  lat: 40.11814
  level: 2
  lon: -88.249887
  name:  'Silver Cloud Oakley Washburn, Jr.'
- ap: 4411
  img:  'http://lh6.ggpht.com/OWQz-aJYDevguvgr_HtCYk7ccylYLM1bFU42TK9OJxuZWDA87pAsmcMf1amsxh5EagspcAj7Gf4_ZFeTJSf2'
  lat: 40.117754
  level: 5
  lon: -88.241676
  name:  'Jos. Kuhn and Co. Building'
- ap: 4411
  img:  'http://lh4.ggpht.com/ETgOsKlMmsv5wRT-aM33VVVEgFvp3ZoMxqXmYKxROpFAYnfPqjWhltqYBG7ajEuM8XKf3mVeSaF7r9grm2t8'
  lat: 40.113448
  level: 6
  lon: -88.237188
  name:  'Boneyard Creek Second Street  Basin'
- ap: 4222
  img:  'http://lh6.ggpht.com/0IsQORyEW-bPA7sEbGspygtoI7ixEshm_2fUw5oeh9AeXg6JN5w0ypYIshpuKm-C0nG4Vm2XmpLvtWTZzWzd'
  lat: 40.111607
  level: 5
  lon: -88.233753
  name:  'Chabad Menorah'
- ap: 3848
  img:  'http://lh3.ggpht.com/0HyRE6hI-Dp8OIZWrGjSBLw06g4xLl3H3SxdYDO-wm20QdpGQtvQ1-GBpxfAE5WNcC0D_aY-oOfGM1Wj1--EvQ'
  lat: 40.106092
  level: 2
  lon: -88.223135
  name:  'String Project Plaque'
- ap: 3661
  img:  'http://lh3.ggpht.com/PKHUaHtGQlwpb8q3mUpPJtjb51_am_ieb_9X0u8g1PI_eg7NxFQU2fqeV8XjnIIDy0rCMtqsfMJLerOBo8M'
  lat: 40.118579
  level: 5
  lon: -88.244588
  name:  'Mural on Art Theatre'
- ap: 3661
  img:  'http://lh5.ggpht.com/ftmAzbnKocZkda7k1ZC-3gMqr3UiOKXsS9qFSxN8V4C6_DEZr79lkSpPL00EmiZn50-ZPzTQZZlBLlOdL4Rd'
  lat: 40.116219
  level: 6
  lon: -88.23253
  name:  'Skyward Railway'
- ap: 3661
  img:  'http://lh3.ggpht.com/lGjbP2iz0XvlEWLhgCBNqkWukvjrBowKmX-1_O44U1A3_4b3-vuXzkfp7rasqU81TcPBoQO82gAzEGtBBYcR'
  lat: 40.106058
  level: 6
  lon: -88.223672
  name:  'Music Building'
- ap: 3661
  img:  'http://lh4.ggpht.com/lmmAipLLlemZCx_GvFWKPFhu7DSZrKSc3OxReeZJ15aabG51w3_L9IdcpKrku-QUoKanND7aZEBZIToeu8ha'
  lat: 40.120805
  level: 3
  lon: -88.201892
  name:  'American Veterans Memorial'
- ap: 3661
  img:  'http://lh6.ggpht.com/s0NjKuARUySFKyN76g9Vr1UymiO5a-Ev822C0UEiLqAFzFggW39lRKoYierDtj89xVWRDioyodaQ1Ve0SGBBXA'
  lat: 40.121861
  level: 3
  lon: -88.198042
  name:  'Chief Shemauger Park'
- ap: 3661
  img:  'http://lh4.ggpht.com/vKiU-Z9PbuWMTBST_ry96h11Nf1d5ooex1Fl5imVUtCPpaeGwy3JDVmhziEnAAySe8NXWHfT5stQGA2BQg9J1g'
  lat: 40.122111
  level: 4
  lon: -88.200203
  name:  'Dane Michael Sherr Memorial '
- ap: 3474
  img: http://i.imgur.com/5j1qaiT.png
  lat: 42.781395
  level: '?'
  lon: -87.758023
  name:  '9d2cde587c394592a56eab2a6e695e8f.16'
- ap: 3474
  img: http://i.imgur.com/5j1qaiT.png
  lat: 41.290836
  level: '?'
  lon: -89.062258
  name:  '2ed4ff2e61e94784a8361d1718a20b25.16'
- ap: 3474
  img: http://i.imgur.com/5j1qaiT.png
  lat: 41.283445
  level: '?'
  lon: -89.066919
  name:  '401d393cf57a434fb0fc545db29d14b1.16'
- ap: 3474
  img: http://i.imgur.com/5j1qaiT.png
  lat: 41.292781
  level: '?'
  lon: -89.062536
  name:  '116276c1042e4e1091bbbde44ba15583.16'
- ap: 3474
  img: http://i.imgur.com/5j1qaiT.png
  lat: 43.749541
  level: '?'
  lon: -87.692746
  name:  'c942f92fda164daaaff39b61e459a502.16'
- ap: 3474
  img: http://i.imgur.com/5j1qaiT.png
  lat: 41.299318
  level: '?'
  lon: -89.062417
  name:  'f027ea030eb549afb6aeea6502a75ce3.16'
- ap: 3474
  img: http://i.imgur.com/5j1qaiT.png
  lat: 41.295
  level: '?'
  lon: -89.062587
  name:  'bc74b2c5551a4ef8ba6918a67d396416.12'
- ap: 3474
  img: http://i.imgur.com/5j1qaiT.png
  lat: 41.298273
  level: '?'
  lon: -89.062759
  name:  'e2474c3d3e3048b4b1bd5e7b6871d81f.16'
- ap: 3474
  img: http://i.imgur.com/5j1qaiT.png
  lat: 41.299729
  level: '?'
  lon: -89.062401
  name:  '957f51d3cda2457ea351a66c4d3bf215.16'
- ap: 3474
  img: http://i.imgur.com/5j1qaiT.png
  lat: 41.297992
  level: '?'
  lon: -89.062659
  name:  'e6756fa4155e41b79af77bcd0b803b34.16'
- ap: 3474
  img: http://i.imgur.com/5j1qaiT.png
  lat: 41.294018
  level: '?'
  lon: -89.062653
  name:  '40e327c07c1a492590849246721f36d3.12'
- ap: 3474
  img: http://i.imgur.com/5j1qaiT.png
  lat: 41.300918
  level: '?'
  lon: -89.062532
  name:  'afe8a8f0bcb74e5998364098a14ccbb9.16'
- ap: 3474
  img: http://i.imgur.com/5j1qaiT.png
  lat: 42.781569
  level: '?'
  lon: -87.757887
  name:  'a7f76472c11441cf9ac511a4083f1c8f.16'
- ap: 3474
  img: http://i.imgur.com/5j1qaiT.png
  lat: 41.30017
  level: '?'
  lon: -89.062425
  name:  '363d381c144f4166a502308ef54fb033.16'
- ap: 3099
  img:  'http://lh3.googleusercontent.com/tWUxy7KQ-q_qBBIgLzTjjezrBpWPSJ_z3FWnvbB8Y5wIiYZW1I5ioL0Tzq60VyalCaIwOk4UI3agM8tFaykY'
  lat: 40.117427
  level: 2
  lon: -88.243235
  name:  'Cowboy Monkey'
- ap: 3474
  img:  'http://lh3.ggpht.com/K-b9T4FjMxrtkS2Awkze3fELfwY2Va92gMQloHtHf4bfeKPPRzOUJxaSYYi6-OHHQbpDVY3ONWwPgIa78fBX'
  lat: 40.118332
  level: 2
  lon: -88.250276
  name:  'Mckinley Aquatics Center'
- ap: 3099
  img:  'http://lh6.ggpht.com/SCYK-XeMmOyfRrTt1-aQNoDA-2Sib4m5Ch26mTwo6XNdVeVnfi7W74Ik6IRLAPSoKzSS97pgwt50Jl9oSgGfP029USxZzQWKNJo3rbs-6YHBPBif'
  lat: 40.116792
  level: 2
  lon: -88.241752
  name:  'WEFT 90.1 FM Community Radio'
- ap: 3474
  img:  'http://lh4.ggpht.com/6iTxW6HC8WFx3nf6xEGhZryWVxW9NNijqTsEKvcBCBkmkmLZdUjaDHKReKT58cl8RUaCwDCL7pMFmBEyj3Fc'
  lat: 40.117602
  level: 2
  lon: -88.249943
  name:  'Megan Schneider Patel Honorary Plaque'
- ap: 3474
  img:  'http://lh3.ggpht.com/2wN9MWxEFPbMzRPAzNmaAiCOQJj_EFr94Y1YkQP_wMlyajkajmcw00gqW-EluMvpQmvnGgcQ-WdPxjcYTmr2'
  lat: 40.106519
  level: 5
  lon: -88.223748
  name:  'Thunderbird Theatre Mosaic'
- ap: 3474
  img: http://i.imgur.com/5j1qaiT.png
  lat: 40.199222
  level: '?'
  lon: -88.382509
  name:  'baa170273cd749acb5338139770e8f70.16'
- ap: 3474
  img: http://i.imgur.com/5j1qaiT.png
  lat: 40.199138
  level: '?'
  lon: -88.385786
  name:  'dbf3b4e9041a4a01af2e803c4a7296c6.16'
- ap: 3474
  img: http://i.imgur.com/5j1qaiT.png
  lat: 40.197114
  level: '?'
  lon: -88.38528
  name:  'Elks Lake Pavilion'
- ap: 2724
  img: http://i.imgur.com/5j1qaiT.png
  lat: 39.985257
  level: '?'
  lon: -88.259769
  name:  'daadc7b7a95447cab0d5353a7f7c6b46.16'
- ap: 2724
  img:  'http://lh3.ggpht.com/07XrBN-er6Ecleor0n9RJ4DfGO6B2yn-ZxjI-Uy8Ba46Jtb6cXNVmATPiPiGyk-1jZ4wxa7-EeIWbWUqArCG'
  lat: 40.142554
  level: 6
  lon: -88.243468
  name:  'Dog Heart'
- ap: 2537
  img: http://i.imgur.com/5j1qaiT.png
  lat: 39.405035
  level: '?'
  lon: -88.79382
  name:  'f72aba674dac4a16992c5a05c398375e.16'
- ap: 2537
  img: http://i.imgur.com/5j1qaiT.png
  lat: 40.011563
  level: '?'
  lon: -89.278425
  name:  '93ee049f33d544d78fc4ce1dc2b491fc.12'
- ap: 2537
  img: http://i.imgur.com/5j1qaiT.png
  lat: 42.772529
  level: '?'
  lon: -86.215837
  name:  '64f91a4e227149ce937f5fb293786cd9.16'
- ap: 2537
  img: http://i.imgur.com/5j1qaiT.png
  lat: 42.769142
  level: '?'
  lon: -86.197611
  name:  '2b382313227b40238d957e6440d07902.12'
- ap: 2537
  img: http://i.imgur.com/5j1qaiT.png
  lat: 45.038827
  level: '?'
  lon: -87.128633
  name:  'effaa78694de43a2a8fb1b5893e66a7d.16'
- ap: 2537
  img: http://i.imgur.com/5j1qaiT.png
  lat: 39.912869
  level: '?'
  lon: -88.271225
  name:  '7ae31819d59a42a286e4aba7926a74ac.16'
- ap: 2537
  img: http://i.imgur.com/5j1qaiT.png
  lat: 39.91497
  level: '?'
  lon: -88.273264
  name:  '5d2d71d0f909459c9004cd99890c964c.16'
- ap: 2537
  img:  'http://lh5.ggpht.com/d_xORafhhRGmWQQYxORFs1dW_6uXGimDkw117yVoO46fU96UHRY1GWk3ln65AsNRtevh1vFgECrCK8gJD4Y'
  lat: 40.133113
  level: 4
  lon: -88.279062
  name:  'Champaign County Workers Memorial'
- ap: 2537
  img:  'http://lh6.ggpht.com/y9bxecO9Wm4VrE6p2LRWA8XIIUlHlYWbTSZJ6GrJrTpeVtxB7wI7cWjdLkM6gjq_eOk7n-nJOlSJ9WzGjgfG'
  lat: 40.137123
  level: 5
  lon: -88.277784
  name:  'US Post Office'
- ap: 2537
  img:  'http://lh4.ggpht.com/vKkSwERLa3zQO2UUIiYl1AEruAx1QTPcP4jSmPt89PG4AviJ1WhlVVH8qmqJ0aY2gqJmHcqdZFcM2pQconc'
  lat: 40.139375
  level: 5
  lon: -88.272793
  name:  'Salt And Light Ministries'
- ap: 2537
  img:  'http://lh5.ggpht.com/pSVHjk6puyYdv3ztHlpJGnbkZyGsGsirMnxkDhlt8UMko4AhtTQbrzwInBCu5lK4Ttf7furE5pNW2AZh8HuSZQ'
  lat: 40.138109
  level: 5
  lon: -88.270158
  name:  'Glory Center International Church'
- ap: 2537
  img:  'http://lh4.ggpht.com/CYtXDlK6MB-Yl-FmKw6yaRt-LGUdQqAdRp3LsWV1JUYwC8qrVWWJaGEaqMtMtRpANFpNeD4z82iGL54nIARL'
  lat: 40.141919
  level: 5
  lon: -88.244611
  name:  'Marketplace Mall Carousel'
- ap: 2537
  img:  'http://lh3.googleusercontent.com/3nkY0B9PDqzlWJ_EKh5GnTZ8z0U6X9-2dI5dapKA5Q3F4iKrE99AJZoy6NSvh2nU1WTG2hL70276yJjJ0G8'
  lat: 40.141598
  level: 5
  lon: -88.238817
  name:  'Red Shield Center'
- ap: 2537
  img:  'http://lh3.googleusercontent.com/ryRMzj5c3ls-s5Gocd2-IM_oonInNzjPIbCGJVps6JmZxYcG165NabHKNZW7wAepNc8rtLf3A3E0U1mbq-I'
  lat: 40.109923
  level: 6
  lon: -88.239141
  name:  'Circle K 59 E. Green'
- ap: 2537
  img:  'http://lh5.ggpht.com/f710C9AvOEB7ieCI4f382wWUP4OgDxiqPzbxqxct6Ugf2PWBfyXyDpG_JcRQ6PaZ_jS0jpXXBhNSt_u9rFA'
  lat: 40.113864
  level: 6
  lon: -88.224839
  name:  'Plato: A Social Networking Revolution Begins'
- ap: 2537
  img:  'http://lh5.ggpht.com/AmsS7GEfFX-_Icem2DP6mjQahV1jeut1CGdeqLqfpyzx0m5SqhVY4eoAohizF0xsevPQufmLRMoVj2rW7Fe8'
  lat: 40.111689
  level: 5
  lon: -88.231193
  name:  'Koi Building Art'
- ap: 2537
  img:  'http://lh3.ggpht.com/oSQ_YOHo2mfYjOa8bPK9ellznKK29UluW-SeXoGYra9VFg8dJp6YQRdHbHHaTExqXs1qUMBNmpI2hUPcC4GI'
  lat: 40.106789
  level: 5
  lon: -88.222992
  name:  'Beginnings of Computer Music Plaque'
- ap: 2537
  img:  'http://lh5.ggpht.com/ZBaYXHOKUz2Vxe_dieY9xFrO4KgTUtaLB91ggoRg5ypkxwdZOdAbLLO0ZJl8gH1FuR5TuvtWg0i5GJI4_TmiCw'
  lat: 40.11676
  level: 5
  lon: -88.194563
  name:  'Pavilion in the Woodland'
