- ap: 8346
  img:  'http://lh4.ggpht.com/ryDcZUJK2aQ_fI0-hY850_t4ZmG2hNmtCx7cxbX83w3cnUWdI-ywpTuQrUVQNxGl3_DcxxNr6bupfDTsagRa'
  lat: 40.117107
  level: 6
  lon: -88.242467
  name:  'Radio Maria'
- ap: 7035
  img:  'http://lh3.ggpht.com/yeYI3q7rDQLA5xBcWfH-Caw2Uh740ZPRQjjyvOrZz7ZyLI-gxBpi8yqxqDrlOBzG9YHs6YlxdgX0obTpXlQ'
  lat: 40.117681
  level: 4
  lon: -88.241405
  name:  'Jupiter''s Downtown'
- ap: 5535
  img:  'http://lh6.ggpht.com/MsCeiBKy8tV3-ziINPCBPzkisfwOnBClSPr68FUxT1uMHlVmqtyTYYxNAZapU8bvWdcmm0lsmIzjMyv0CTJ2tQ'
  lat: 40.095364
  level: 5
  lon: -88.217386
  name:  'Miles C Hartley Selection Garden'
- ap: 5348
  img:  'http://lh3.googleusercontent.com/xo3k3XO7tBJe91QAyjpFM6Hf4-lz36JNDF9bA9GpCbvobxWKkUZtf-RYl9CynmW3YuV0JGQht2y6D_5zsfHz'
  lat: 40.117571
  level: 5
  lon: -88.240851
  name:  'The Accord'
- ap: 5348
  img:  'http://lh6.ggpht.com/OWQz-aJYDevguvgr_HtCYk7ccylYLM1bFU42TK9OJxuZWDA87pAsmcMf1amsxh5EagspcAj7Gf4_ZFeTJSf2'
  lat: 40.117754
  level: 4
  lon: -88.241676
  name:  'Jos. Kuhn and Co. Building'
- ap: 4972
  img:  'http://lh6.ggpht.com/cUV2o6ZPyJSFnHYl7jePeUIS7BrVr1H5D8Zbf7B3B8ALrTq7pTI3e271i1DHztqUGXITpiA399P3vNP83fk0'
  lat: 40.105767
  level: 3
  lon: -88.223378
  name:  'Busey Hall'
- ap: 4785
  img:  'http://lh3.ggpht.com/dBN6P2wGkcXj-MNbPjAJzN-RxmK93xRIhp29sZ6-ZmsbFoey4dGO51tP1FIFCzHjs4CIhHd-xGmflcW43R0w'
  lat: 40.10604
  level: 4
  lon: -88.224625
  name:  'Asian American Culture Center'
- ap: 4598
  img:  'http://lh3.ggpht.com/whmQSPmix2tEoKcWwrVrV0H0JzNf1tzyuohI3ykSa-Qx4rUcLTf4686WcnJjygsMY2QPUWhvVVzlmMMHof94'
  lat: 40.105907
  level: 3
  lon: -88.22564
  name:  'Andrew De Grado Memorial'
- ap: 4598
  img:  'http://lh3.ggpht.com/bVNaflT1bCgFsUDizKeHZFExlTyUFdVVpjEqrpacNh843YeRnU98IEQb8a02eE36XmEJXAkBC-FG1_3ezYP7'
  lat: 40.095365
  level: 5
  lon: -88.216784
  name:  '1867 Garden'
- ap: 4411
  img:  'http://lh6.ggpht.com/hmDofhQgtMboyY40gAShyf0g__uH_qYaFzVKnGKShUBNn-JjwpN526PPOYKyq8kvusIGRrMQIZ7ozPedDVm4iA'
  lat: 40.117495
  level: 6
  lon: -88.241616
  name:  'Lincoln Building'
- ap: 4261
  img:  'http://lh3.ggpht.com/GGBe9Hug3fUbRCRAMs_kO1fg2HHQ95ZDBdW0S2tAHakvhQbWxlttanjhGNJJcyVRruUlL7zjQnPGI2bu8Wc4'
  lat: 40.117905
  level: 4
  lon: -88.242149
  name:  'Read All About It'
- ap: 4411
  img:  'http://lh3.ggpht.com/lGjbP2iz0XvlEWLhgCBNqkWukvjrBowKmX-1_O44U1A3_4b3-vuXzkfp7rasqU81TcPBoQO82gAzEGtBBYcR'
  lat: 40.106058
  level: 5
  lon: -88.223672
  name:  'Music Building'
- ap: 4411
  img:  'http://lh4.ggpht.com/ZIOjKYlH2wMvdRD5A5HKGJPgBUYAaA7xHjGYnoXNzhzPIE6KR05FBciTJcN-AojoLyuwRlp3SF3TR1PXBrUPjw'
  lat: 40.094935
  level: 5
  lon: -88.216986
  name:  'Leroy Hubble Honorary Bench'
- ap: 3848
  img:  'http://lh5.ggpht.com/fGRHfMAqdWrUnPE8GStKSdMkgQmu9qvuxAC4VzcU1v2KyxQu2BeuJKhvhefSeFNTkgFh6YdR-F4P6plMbh0'
  lat: 40.110194
  level: 4
  lon: -88.231488
  name:  'Fighting Illini Memorial'
- ap: 3661
  img:  'http://lh5.ggpht.com/BUGNnLReyCBJJj9_zpqgwv5_CAyiW8fWBpyVs0ip1hT5NEE6YKCYzlc8ahldKzk_xv-4uckNJNb6NrJd6r33qg'
  lat: 40.116989
  level: 6
  lon: -88.242255
  name:  'Blind Pig'
- ap: 3436
  img:  'http://lh5.ggpht.com/KYppjeOoIlb4lbowRrrC5qRdYW7_KU8rzjtDMpvhh-Q_c6VZOTtVmOqmmxChJA2hjlpS5dJ1JnhUQcKUAXDWHA'
  lat: 40.117976
  level: 3
  lon: -88.242642
  name:  'Stevick Building'
- ap: 3661
  img:  'http://lh5.ggpht.com/Tn5ARN-X6VTc2q6atZ2WYq3c2g3gbSGXu6_vXf1MDwHfLpdTtnQ-CilBAVGvL6R-SHhq3fJ4WZI-yiJKmIId'
  lat: 40.110398
  level: 4
  lon: -88.235143
  name:  'US Post Office, E Green St, Champaign'
- ap: 3661
  img:  'http://lh4.ggpht.com/PmGpygZ2fBs43twk2Y44XZbgGcHWv0YimAq7Fp3vlIRRqUyLpSmDmFwcn1ucfmJarcQrAAXJjYAXAhNyxSrz'
  lat: 40.110049
  level: 5
  lon: -88.231968
  name:  'Potbelly Mural'
- ap: 3474
  img:  'http://lh6.ggpht.com/eeOtj4-6PU8Dt6QXk_TJjgkoEGRW9L8YzUqZE8QV5ZMCHnqA5CzoQoxKpnjCvXwaIflUUvPJmO_S7BdvMhcuzw'
  lat: 40.117588
  level: 4
  lon: -88.241787
  name:  'Adam & Eve Mourning Over the Soul of Abel'
- ap: 3474
  img:  'http://lh4.ggpht.com/OKjZe5DNbqsjBvhTWI2C_GTSbIMUanllb49pzoadj3izBmngp5kFNgLokw6jbL1Y3BnreLD-LmzLdNEx-eRI'
  lat: 40.105694
  level: 4
  lon: -88.225345
  name:  '1981 Iota Chapter White Anchor'
- ap: 3474
  img:  'http://lh3.ggpht.com/0HyRE6hI-Dp8OIZWrGjSBLw06g4xLl3H3SxdYDO-wm20QdpGQtvQ1-GBpxfAE5WNcC0D_aY-oOfGM1Wj1--EvQ'
  lat: 40.106092
  level: 4
  lon: -88.223135
  name:  'String Project Plaque'
- ap: 3474
  img:  'http://lh5.ggpht.com/2PB1u3cNuASfw9D_MIUzI1JvNofebK7zsuGqKoUApr-nUWYZ8y5CzxH6g7CdcY7ShBaVGrBrurkbwrdUPD7JBk55TH0Ouao5b_g2jUI1saBNUE8'
  lat: 40.106744
  level: 6
  lon: -88.225347
  name:  'The Red Herring Vegetarian'
- ap: 3474
  img:  'http://lh4.ggpht.com/N-xxTzGXK34K-VdTOWaWrFJeP9_SLZ7ZBluxK2mjP51yZx_5HOMi_mb4Nu2rWgo3gOqUb19_cPb662sI7td_'
  lat: 40.105687
  level: 2
  lon: -88.225714
  name:  'Smith Memorial Hall'
- ap: 3099
  img:  'http://lh5.ggpht.com/W2upB0MQ9l_1Z1JYjKFslTSSU-oi3b_kOidwTlG4pOCZRHWiD52CzcX2WMquuVEnMpxhtSRQOuAdLgDn8rs'
  lat: 40.096671
  level: 2
  lon: -88.217873
  name:  'Skull And Wagon Wheel'
- ap: 3474
  img:  'http://lh4.ggpht.com/jEbgkWj4jIpuTGF0BsLL3Qhx62u2Xh7IFfVmCspv6e6FjmSfbeTYkwQgAZ75wN8NpO2Lus14Khr5O4f9jvup'
  lat: 40.094517
  level: 5
  lon: -88.217269
  name:  'White Oak'
- ap: 2911
  img:  'http://lh3.ggpht.com/oSQ_YOHo2mfYjOa8bPK9ellznKK29UluW-SeXoGYra9VFg8dJp6YQRdHbHHaTExqXs1qUMBNmpI2hUPcC4GI'
  lat: 40.106789
  level: 3
  lon: -88.222992
  name:  'Beginnings of Computer Music Plaque'
- ap: 2911
  img:  'http://lh6.ggpht.com/s0NjKuARUySFKyN76g9Vr1UymiO5a-Ev822C0UEiLqAFzFggW39lRKoYierDtj89xVWRDioyodaQ1Ve0SGBBXA'
  lat: 40.121861
  level: 4
  lon: -88.198042
  name:  'Chief Shemauger Park'
- ap: 2424
  img:  'http://lh4.ggpht.com/tLO2wjyCgyune3KDOlQMV_oiDRxVsHqO1gAG_0xs9TvKOiuWRVmJcO29WI7jELxoxncaXpy91kMa89Uj65JVNw'
  lat: 40.11784
  level: 2
  lon: -88.24286
  name:  'Kaufman Memorial'
- ap: 2724
  img:  'http://lh3.ggpht.com/AflEYleLSbb1ODQvIdBOrTrq1Zkk-rgHU4WaHjaZ6Md2zDSaqq8cERAJWcwG1QFkrzGf6gp3oC-DZuLOCDb4'
  lat: 40.112779
  level: 5
  lon: -88.239045
  name:  'Layalina Mediterranean Grill'
- ap: 2724
  img:  'http://lh4.ggpht.com/vKiU-Z9PbuWMTBST_ry96h11Nf1d5ooex1Fl5imVUtCPpaeGwy3JDVmhziEnAAySe8NXWHfT5stQGA2BQg9J1g'
  lat: 40.122111
  level: 4
  lon: -88.200203
  name:  'Dane Michael Sherr Memorial '
- ap: 2537
  img:  'http://lh3.googleusercontent.com/SjusdEZ1n6AkcvHdrM3TfGAqP_W5LJRmm4qEdm5xmdvHcBejD6Jg0kXCZaHyUk5WGeE8Zu0RrSSq_1VDXFU'
  lat: 40.117419
  level: 5
  lon: -88.240991
  name:  'Old News Gazette Offices'
- ap: 2312
  img:  'http://lh3.googleusercontent.com/ZyXHLNlediISMVLqM9sUeZ0FEft3El4ni5P7GPOy5UF2YYBkTywnN5g1lkaer_lDNSvBUvg7bQ5yA_4Wd9qRWg'
  lat: 40.113521
  level: 3
  lon: -88.244122
  name:  'Artistic Graffiti at MCS'
- ap: 2537
  img:  'http://lh3.googleusercontent.com/ryRMzj5c3ls-s5Gocd2-IM_oonInNzjPIbCGJVps6JmZxYcG165NabHKNZW7wAepNc8rtLf3A3E0U1mbq-I'
  lat: 40.109923
  level: 5
  lon: -88.239141
  name:  'Circle K 59 E. Green'
- ap: 2537
  img:  'http://lh6.ggpht.com/0IsQORyEW-bPA7sEbGspygtoI7ixEshm_2fUw5oeh9AeXg6JN5w0ypYIshpuKm-C0nG4Vm2XmpLvtWTZzWzd'
  lat: 40.111607
  level: 5
  lon: -88.233753
  name:  'Chabad Menorah'
- ap: 2537
  img:  'http://lh6.ggpht.com/5hQmgOy7ipMn0NeXRdn7vEER__CJ3-TCDol2Xwo2091XbwqjSdk6xNz3qhVQqpMUJz39XRJuMj8zTrh_2B3z_A'
  lat: 40.10496
  level: 5
  lon: -88.225639
  name:  'Walk of Life 2007'
- ap: 2537
  img:  'http://lh6.ggpht.com/-flzg4lDDrUKk9tz52QmAPy1_59-9KbIO96Br3rNDxK1nmopyzD21z31JQVdJNJHB-Cy6IsEX0VwBbVwvd5r'
  lat: 40.104256
  level: 5
  lon: -88.225268
  name:  'Institute of Genomic Biology Gateway'
- ap: 2537
  img:  'http://lh3.googleusercontent.com/hvoLMUc9UoNVVPttxWTc8PzOWdu5MBmPETnBexH7Alyl20WGCrNa0G_j7DwvD3qbhqpTaeThFhGDV2rCtp8'
  lat: 40.107629
  level: 5
  lon: -88.224484
  name:  'Bucky Balls'
- ap: 2537
  img:  'http://lh5.ggpht.com/J4IbsPUjPF6cIlktTr1tOGHi61krS9o1eXeuAlPRBrSYUQrwdyShfNzuzxD0epa_cBMPF1xJ9YhoBA5VOQtYRw'
  lat: 40.105467
  level: 5
  lon: -88.225644
  name:  'Smith Music Hall'
- ap: 2537
  img:  'http://lh3.ggpht.com/2wN9MWxEFPbMzRPAzNmaAiCOQJj_EFr94Y1YkQP_wMlyajkajmcw00gqW-EluMvpQmvnGgcQ-WdPxjcYTmr2'
  lat: 40.106519
  level: 5
  lon: -88.223748
  name:  'Thunderbird Theatre Mosaic'
- ap: 2537
  img:  'http://lh4.ggpht.com/hJDi8J7CZU-933hT0Culp2nhslv6p8rDRPdTFz6FwNaAjB5CmfkaQzj9sM--E-QBvI8yvIJn1F2jxy7ZKWlh'
  lat: 40.10816
  level: 5
  lon: -88.234245
  name:  'Stratford House'
- ap: 2537
  img:  'http://lh4.ggpht.com/OFVPvdgB3GVpaQknHdnt2okgP3xcQksAH3wvOGYVuP85MMlxo3bQ2SRpBb0hzNfjQoC_5LlRqaE6jLB-h9Gr'
  lat: 40.108092
  level: 5
  lon: -88.234589
  name:  'Koinonia Plaque'
- ap: 2312
  img:  'http://lh4.ggpht.com/YkAjLbUQwdId1pIn7-0sv7p3fU5sUakSrInODEYBL40IL2O6a6iP0KdmXupzcZMPqJ3arf7sss9irQ7NDzzF'
  lat: 40.110882
  level: 2
  lon: -88.231138
  name:  'Boneyard Greenway'
- ap: 2537
  img:  'http://lh6.ggpht.com/TALpZtbbV03GxohN-2-Cazq4J_-gGRySLT5x6qaUfd-iDuON_0Vc8YB8fsIr9HIFZ2NipUXtr0a_yvCyI24'
  lat: 40.121991
  level: 5
  lon: -88.19335
  name:  'New Life Fellowship'
- ap: 2537
  img:  'http://lh4.ggpht.com/VZT9NM5dfGAaJAZj9cFhDmCgknQCF0UI4Hv3AwcaZedRlXhGb2wfVLTFOWjtoSJRG7MEsjv784wAB1XZgQqpBA'
  lat: 40.126642
  level: 5
  lon: -88.198163
  name:  'Armored Gopher Games'
- ap: 2537
  img:  'http://lh4.ggpht.com/lmmAipLLlemZCx_GvFWKPFhu7DSZrKSc3OxReeZJ15aabG51w3_L9IdcpKrku-QUoKanND7aZEBZIToeu8ha'
  lat: 40.120805
  level: 4
  lon: -88.201892
  name:  'American Veterans Memorial'
