- ap: 13033
  img:  'http://lh4.ggpht.com/vKgqIecJshMQxrhO-ZhMjcIyARuJdyU63wKfzAG0wouZex6LVzO46Qi5zM1N3Jx8xyantDFk9sQGsSEBhb-y'
  lat: 40.101327
  level: 8
  lon: -88.251412
  name:  'Zeus Memorial'
- ap: 11346
  img:  'http://lh6.ggpht.com/yjfa0jJLjsfLRf9Zn9iafMp3MuIhgCi0WiOCF8GqTGiGvzEnsPGrFa0H1n-uzWhVehLbt44ShthsA32VzHd5iQ'
  lat: 40.099737
  level: 8
  lon: -88.251157
  name:  'Tyler Van Atkins Memorial'
- ap: 10596
  img:  'http://lh6.ggpht.com/5CDidk0pqfUtSW_Yqouuf3diX8drdMu9DoT728QpSz8q6A-WxNhT0yLcgM_7gGpyIAeXrHiTkIzzaVJFgnN9WA'
  lat: 40.099852
  level: 8
  lon: -88.251947
  name:  'Our Friend Tim Palmer'
- ap: 9283
  img: http://i.imgur.com/5j1qaiT.png
  lat: 42.772529
  level: '?'
  lon: -86.215837
  name:  '64f91a4e227149ce937f5fb293786cd9.16'
- ap: 9096
  img:  'http://lh5.ggpht.com/4DJAFPeZ_w65Km7VDnsbOqouQaeBuPuxA0KHPQToT_B6o1hBxzdu3kn89UhHgv22Ygj52Fx9QqcbzOytuw'
  lat: 40.100078
  level: 8
  lon: -88.250683
  name:  'Brian Clark Memorial Plaque'
- ap: 8722
  img:  'http://lh6.ggpht.com/qSCp5fQMlyCQ-GOAgiSFy5gaHJei705Pa3eOlJiYO5wGjZTYtjA8q7QWWfAWcLKjxZSaFiMfXOPR8SO7rWU'
  lat: 40.099353
  level: 8
  lon: -88.251876
  name:  'Raymond B. Cattell Memorial'
- ap: 8159
  img: http://i.imgur.com/5j1qaiT.png
  lat: 41.89123
  level: '?'
  lon: -87.600699
  name:  'c15ce27abd68473d9f566ab392dbc4c8.16'
- ap: 7972
  img:  'http://lh4.ggpht.com/B_I1b0Jy3vW41RX8jjCNPP68AULplU0Pf8ddolyKmpEWCfBVShQkmjF1HfTPzDjmBBQGgOs0jHW-rUR0mv8BkA'
  lat: 40.098789
  level: 8
  lon: -88.251685
  name:  'Curtis William McKinney Memorial'
- ap: 7222
  img:  'http://lh3.ggpht.com/rUgM7jkTqL0VHxvsSW0yWuNJF5UrU62ITflghfn4PfKjn6L4WGz0ALkv98fc_q9dmK9SSpU1PXIawGvcRwE'
  lat: 40.098246
  level: 8
  lon: -88.251974
  name:  'Hessel Park'
- ap: 7035
  img:  'http://lh4.ggpht.com/4LxsGZZMk3DnpJXUvqzrL54CHSP5TDXjUnDJyHmCCTtCJIjGEI7kxT9g4uxfSPh0X6yGLgQo1jfqbu7B8VEr'
  lat: 40.099084
  level: 8
  lon: -88.251826
  name:  'Irina P. Stewart Memorial Plaque'
- ap: 7035
  img:  'http://lh3.ggpht.com/lzCSS0_tjwUV7JQ2fgLI0e05IrzPxlVUs-6aEPOwUv67IanQJSTi71gkw0SGm8asmoE_r3Xoh048Fd9xRpE'
  lat: 40.099169
  level: 8
  lon: -88.251419
  name:  'Lyman Larson Memorial'
- ap: 6472
  img:  'http://lh5.ggpht.com/kElaGOaV9aI8SrnM1D65gx9J0Ky1AKrN9Yo-pXVmDhELt2pee4MwVRiCqCmlqWzUWj5pS33GnEzAiXmiWKsw'
  lat: 40.108111
  level: 5
  lon: -88.229625
  name:  'Illini Sports Mural'
- ap: 6098
  img:  'http://lh3.ggpht.com/VrbXGwlUosNLEkVdshWUFoVa3KtlJQoEU4yLYygvftYbPCmxo644Uvar_v8Kb9RS53hB0tXgvV44GotrxZyu'
  lat: 40.098592
  level: 8
  lon: -88.251676
  name:  'Ruth and Fred Steigmann Plaque'
- ap: 6098
  img:  'http://lh3.ggpht.com/G1CvGhpethi5UmprDWxZN9rTblHa3anSsQz1UPgJtkREkfN7lDFoxFObst0609Cg5mofuZxJKr0ddNKhY4VL'
  lat: 40.098464
  level: 8
  lon: -88.251426
  name:  'Ruth Haasis Memorial'
- ap: 6098
  img:  'http://lh3.ggpht.com/8FqlniFErK7cq59awiT84u8KyV4FIRd5krZzfYa58zJToFps7whdBnriPqvO_kFKeLUE3SWbJhCOPuvUQzaGFA'
  lat: 40.100691
  level: 8
  lon: -88.251337
  name:  'In Loving Memory of Zeus'
- ap: 6098
  img:  'http://lh3.ggpht.com/gJYGj7_wDDnnkZAlCFgChMLxPptIEvTDKzPJQqVLWhygPTnHHPEe9YrX22kkUU6oScgCqoGv_Sb_cKdY6V32'
  lat: 40.10395
  level: 5
  lon: -88.211413
  name:  'Carle Park Fountain'
- ap: 5535
  img:  'http://lh6.ggpht.com/nbUJivBo0zF8f8aBbk1GwakUpPbLUVOoEovTTETYwJvfNIHXwG9XUbwoV0x-ly4ZO5Hsyv5KPo3c9cE6Nh8'
  lat: 40.118832
  level: 5
  lon: -88.243643
  name:  'Tesla Ball'
- ap: 5535
  img:  'http://lh5.ggpht.com/H6c2QR_sGnIrBNnlkreE_k9AGNNj03EgBFOn2L-D_occ8syrKvx4f0LJ3s-YNtw6SyGGI9htmM5uD6aWWbRQ'
  lat: 40.103403
  level: 5
  lon: -88.211706
  name:  'Brian L. Larson Memorial'
- ap: 5348
  img:  'http://lh3.ggpht.com/oAhplQsltGmJyd6-FfScd0PFPwkg1lJn96dHQNw4VxgOy__gt2IaqcXddSDJHyFfu2JMrCFWTHHXbHhHnTU'
  lat: 40.119636
  level: 3
  lon: -88.243213
  name:  'Sunder Planet'
- ap: 5348
  img:  'http://lh4.ggpht.com/PHV-1ZpFzCAl_ViCKwBY_x2pIDbVyaT7wJH1sTvFJCxrSdRrO1x7NaXq9OdRGwz_Mls4iwk6wuGHMBArfV54'
  lat: 40.098688
  level: 8
  lon: -88.25063
  name:  '"New Holland Yellow Dinosaurs" at Hessel Park'
- ap: 5161
  img:  'http://lh5.ggpht.com/ENeQgqydWbi9-Oyf7vizunoRqJdsZV4o0RA_956wjGI8hqpTCHBPyWMpbTrrkwYpj5tgzDRvevGmvH4eFRU'
  lat: 40.099593
  level: 8
  lon: -88.251724
  name:  'Blessings from Devon Elaine Cattell'
- ap: 4598
  img:  'http://lh6.ggpht.com/duOeXcOSQLWosdD0JJXg3pWWQp4t5sL0x9qDHoTIBFNOzEW0t53Lt2cnwgV2E_Su0l1ajIQxPtVbbK_sDRaS'
  lat: 40.141775
  level: 5
  lon: -88.242671
  name:  'Marketplace Mall Fountain'
- ap: 4598
  img:  'http://lh6.ggpht.com/pxaCt7clhIXc1RVGMMJZsmnbEWNWjFYJiUrQMev_SeOmXBothvOzmfnirQ5_W8CMa7hpigqydQhKMa4XFCAi'
  lat: 40.108173
  level: 6
  lon: -88.230209
  name:  'Mural on South Sixth Street'
- ap: 4598
  img:  'http://lh6.ggpht.com/BzDhCANV_iNTHhKFBGLuaUqOvChRZtPWnJ2Xk4h7NsKJHmTGgCWtFHWv2PpDA2fCsHHKSCRTrUNK8AKrLRnS'
  lat: 40.108066
  level: 5
  lon: -88.230687
  name:  'Community United Church of Christ'
- ap: 4598
  img:  'http://lh5.ggpht.com/POqHe98NzuBf0a60NvZTCOYoC0L6aw_FSOZMaxr88kV1-papt0D2DM7cRXxDK-_qXTmzSJspa4Zzh9ao7rOaN0iWFYVm5G01GVzh-4gAlR8OFvTH'
  lat: 40.09976
  level: 5
  lon: -88.205422
  name:  'Ann and Ben Schrumpf Memorial'
- ap: 4411
  img: http://i.imgur.com/5j1qaiT.png
  lat: 39.951576
  level: '?'
  lon: -90.20876
  name:  '2719674f27164480aac1d2c66c7f97f9.16'
- ap: 4411
  img: http://i.imgur.com/5j1qaiT.png
  lat: 40.441099
  level: '?'
  lon: -89.313489
  name:  'fa303e162e1349c7ac2d93cf3df18bf0.16'
- ap: 4411
  img: http://i.imgur.com/5j1qaiT.png
  lat: 40.466664
  level: '?'
  lon: -88.375445
  name:  '8027cdd796814d63b3d817cdead1e269.16'
- ap: 4411
  img: http://i.imgur.com/5j1qaiT.png
  lat: 40.753838
  level: '?'
  lon: -88.29154
  name:  'f87bcd5251964920aeee2b3093ac8a54.12'
- ap: 4411
  img:  'http://lh5.ggpht.com/nWEtxuKQdy0teBBue1DYmG7P3SF5-3A6zlB7GwVHBWlolAZYGq6Br78lWcF9ltFy-KeSlozXie2RmU6JfCUX'
  lat: 40.142673
  level: 5
  lon: -88.244603
  name:  'Italian Statue'
- ap: 4411
  img:  'http://lh5.ggpht.com/Jp7IxKww4URJW7CuBmWK-wgnCfMK0iUJrKL_UoRhWCyoVY0_cHasH1WH_nYzDpInelHY0uL_3K-u3czrBCY'
  lat: 40.11949
  level: 4
  lon: -88.242871
  name:  'Orpheum Children''s Science Museum'
- ap: 4411
  img:  'http://lh5.ggpht.com/HhVreJipNvxPRVFpmsh2BPo9PcpPO2Q2l3jCpDjIKgfKGycoTNPXR4DKiYccBXW4X-4dJf_vV0ESsWAWHcChsg'
  lat: 40.100936
  level: 8
  lon: -88.250855
  name:  'Donald F. Bresnan Memorial'
- ap: 4411
  img:  'http://lh6.ggpht.com/S7Utf4_59vQkAP5JhC3mdbzVLKBTt-0zoJ2UjfxUnN10VBbixO-_VwvssWd1LbFSx_yafaijd_U0wTGo870'
  lat: 40.100941
  level: 8
  lon: -88.251314
  name:  'Gabriel Patrick Maxeiner Memorial Plaque'
- ap: 4411
  img:  'http://lh5.ggpht.com/C6wRSaEWO1NYGY5luyYZKHG3Z3aib4aflaPdV7B9G6N6adE890g3QuPRSvCUhsdFHqjoVUjo27mfz9WsjXyuhQ'
  lat: 40.100521
  level: 8
  lon: -88.250864
  name:  'Gabriel Patrick Maxeiner Memorial'
- ap: 4411
  img:  'http://lh5.ggpht.com/-UWK84I78Sftf7yg-E2pg6xEAWTvyiThgJBJlxbqOZPYKNmzQ8uGgEEMetzplrG1HpXG5kQqNItUeXKxOHDsGA'
  lat: 40.100286
  level: 8
  lon: -88.251747
  name:  'Tennis Anyone'
- ap: 4411
  img:  'http://lh5.ggpht.com/Lup2et0i5h8oHqtBffIdoyX5uclC2MBn9ZnnKnYPr4RIFSflf9bi78zBHK7QqycA0qgEev9qOk0zU-1o1hg'
  lat: 40.108451
  level: 5
  lon: -88.228733
  name:  'The Centennial Colophon'
- ap: 4411
  img:  'http://lh6.ggpht.com/BtOK_UA_7UyJErE7xLTTwmLcG19nlTBIVAdTbfQVzDhL8s25D3rQ9JZNHM5m0liZck_hsO0vA_4ZVd5jeGI8cg'
  lat: 40.103643
  level: 5
  lon: -88.211298
  name:  'Quercus Robur'
- ap: 4411
  img:  'http://lh6.ggpht.com/VOmNYAji11ksGzTqPwZrEZPKMlq4BXQNbDtJSSM2CsgATlg3X5djVVLQGMHixKe3TA2tg1ILm0QZDfIJio_A'
  lat: 40.104257
  level: 5
  lon: -88.211344
  name:  'Cucumber Magnolia Treewalk Plaque'
- ap: 4411
  img:  'http://lh4.ggpht.com/J4angdYTKCPYybB0GhGqQPugzEy-7X48yLh6UFakxJsUTJY156aWvDAIxyqAbX9wGOUddPZcWQMvmhS10vVL'
  lat: 40.10391
  level: 5
  lon: -88.21116
  name:  'Carle Park Pavilion'
- ap: 4411
  img:  'http://lh6.ggpht.com/SOEkawCv91wHrlqOJdkbN9KzhF3V8Uc1_VE_5V-PUNZhbJ9jXtSHQLjSEP4PGO091UFjUtYxX4Ikg7x6rE0LNawabllL4qbEUfQY-thKMrIXW2E'
  lat: 40.100186
  level: 5
  lon: -88.205286
  name:  'Blair Park Viewing Pavillion'
- ap: 4035
  img:  'http://lh5.ggpht.com/QNdE7Z3gNcz1M-mzDms1aMrHPZpKr43FIfnMxwfwdp6kP1N6fPKwUzIx5qrt3k_KBeBFRmcD-PXCWq7V2Ygo'
  lat: 40.119969
  level: 5
  lon: -88.243775
  name:  'Mural at Bentley''s'
- ap: 3848
  img:  'http://lh4.ggpht.com/1LzO6yLZvWb6_g3FLduNKYb6d5TVljqsdNnQggC6Idh7XbUSLf4TOcuWChcYsVve_pt7N5f77mEJLTqUmA'
  lat: 40.085878
  level: 5
  lon: -88.331166
  name:  'Porter Family Park Dedication'
- ap: 3848
  img:  'http://lh5.ggpht.com/OjHvATZsWSqcIG4MCHe5lUc8sE12iGmAJiQ_pp4ttXXy6QR3QTJ9OiFqGfdFxEbY6WMTgh_Vl2WcqFK0ptEn'
  lat: 40.086227
  level: 5
  lon: -88.332388
  name:  'Spiral the Gate'
- ap: 3848
  img:  'http://lh4.ggpht.com/cXzBVEYwsBuU4BX2Fkwi_8TwqSW6ExF6m7IyyHAOrdCMru_sr74MrtK8iGVa0zj3YFt--pdhmI5xwUIeJw'
  lat: 40.120191
  level: 2
  lon: -88.215485
  name:  'Champaign County Fairgrounds'
- ap: 3848
  img:  'http://lh6.ggpht.com/RR0i4QdfoY8NkTQtssdOtDLhAEaCR7e-R4ipk5NzdKe9lTGDq2nyKI_7sF2BCXrgCZAZ2zEEtIzS7vg6Pu0hzA'
  lat: 40.126458
  level: 4
  lon: -88.218544
  name:  'The Vineyard Church'
- ap: 3661
  img: http://i.imgur.com/5j1qaiT.png
  lat: 40.020795
  level: '?'
  lon: -89.48304
  name:  '471d8afd168d46008e66a79e31045981.12'
- ap: 3661
  img:  'http://lh6.ggpht.com/prg5Oedqi1_YJMN9GAesf7bmbUwbMGc9v7E3SYkm-TYdudfpX9SwuC1J4D4zkb1K4yrvF2ZPNWDoUniixORu'
  lat: 40.086493
  level: 5
  lon: -88.330828
  name:  'Environmental Plaque - Prairie '
- ap: 3661
  img:  'http://lh3.googleusercontent.com/hJZWoErzM-MuXulq4FlhlZwMbJX1Isd81GBUBVKayd57jVIVxUle3itd-1DRKo2VaNXznWr1X639fa44Etk'
  lat: 40.141919
  level: 5
  lon: -88.244611
  name:  'Marketplace Mall Carousel'
- ap: 3661
  img:  'http://lh3.ggpht.com/V-oTVbkji_q7V9k0WGhQyDum7PEtruXdbp6e-PzZq3sFNxGWdA79FLEv8uGaZrcSwWE15UhTtBB0ZMW0Ig3j'
  lat: 40.127466
  level: 7
  lon: -88.216274
  name:  'Lincoln Bindery'
- ap: 3436
  img:  'http://lh4.ggpht.com/HPJCnjDX7RNIKo1Nb9pEeLm37UaylaBupc0bWDexHxCLAmBV-4-tYBf1Jof3ssNpFCmoyw3MrokNv4_zt20'
  lat: 40.108274
  level: 4
  lon: -88.219925
  name:  'Memory Squares'
- ap: 3474
  img: http://i.imgur.com/5j1qaiT.png
  lat: 42.587184
  level: '?'
  lon: -87.808968
  name:  '5bd42763ece444d3a3ae12b1d8272202.16'
- ap: 3474
  img: http://i.imgur.com/5j1qaiT.png
  lat: 41.891516
  level: '?'
  lon: -87.600566
  name:  '3600890b800e41ee89ce98d3e5622d6c.12'
- ap: 3474
  img: http://i.imgur.com/5j1qaiT.png
  lat: 41.891948
  level: '?'
  lon: -87.600188
  name:  'c4cb6d0688b74f2781a7947d63f8fcd6.16'
- ap: 3474
  img: http://i.imgur.com/5j1qaiT.png
  lat: 42.588618
  level: '?'
  lon: -87.812443
  name:  '78ce5fefcc5842e7bc050b0dd84d4251.16'
- ap: 3474
  img: http://i.imgur.com/5j1qaiT.png
  lat: 42.588741
  level: '?'
  lon: -87.812867
  name:  '58cc2085b6bb44bfb3fa7aecc28b186f.11'
- ap: 3474
  img: http://i.imgur.com/5j1qaiT.png
  lat: 42.585531
  level: '?'
  lon: -87.807675
  name:  '9ccc069dcb654a4286a8457b75e85a3a.16'
- ap: 3474
  img: http://i.imgur.com/5j1qaiT.png
  lat: 41.024703
  level: '?'
  lon: -88.307981
  name:  'cf7988203f0e4122aa009d8d7887a22d.12'
- ap: 3474
  img: http://i.imgur.com/5j1qaiT.png
  lat: 40.190541
  level: '?'
  lon: -90.142716
  name:  '29a1ead4e61e4cc4a6749034de2897c0.12'
- ap: 3474
  img: http://i.imgur.com/5j1qaiT.png
  lat: 42.587753
  level: '?'
  lon: -87.809375
  name:  '6c33babea66644b39f43515211073fd6.16'
- ap: 3474
  img: http://i.imgur.com/5j1qaiT.png
  lat: 42.587867
  level: '?'
  lon: -87.809634
  name:  '7971878a49404dc98cc1aeb390f3ff93.16'
- ap: 3474
  img: http://i.imgur.com/5j1qaiT.png
  lat: 40.312242
  level: '?'
  lon: -88.201368
  name:  '2012 Employee Dedication Bench'
- ap: 3474
  img:  'http://lh4.ggpht.com/FOqmWFqpxmpdNn358B7Xko5DVp_H3_qI49Lw-6NI8lusw3iqZM-wuMsxRn82L8WFxV7TKpxjxwwzvqLHR0QF'
  lat: 40.087474
  level: 5
  lon: -88.329182
  name:  'Environmental Plaque - Woodland'
- ap: 3474
  img:  'http://lh3.ggpht.com/mH9oKWk-phPYmQF0ge48xB3OAch9161ZF0yJS5uGLtF8Hv4c7JZjcHweRyEF7yWhjzuN4sLJzH5MIu2dLa_F'
  lat: 40.084503
  level: 4
  lon: -88.332162
  name:  'Red Metal Sculpture '
- ap: 3474
  img:  'http://lh5.ggpht.com/Dnxa0uyF4RKoIJbGj2tdvyDNb0rGtuO_uRKbU5rlo_G2o90ZQh1TJPY85qrIuM3pseJmLtXNbo0wS6tvowaz'
  lat: 40.08479
  level: 5
  lon: -88.331095
  name:  'Butterfly Bridge'
- ap: 3474
  img:  'http://lh3.ggpht.com/07XrBN-er6Ecleor0n9RJ4DfGO6B2yn-ZxjI-Uy8Ba46Jtb6cXNVmATPiPiGyk-1jZ4wxa7-EeIWbWUqArCG'
  lat: 40.142554
  level: 5
  lon: -88.243468
  name:  'Dog Heart'
- ap: 3474
  img:  'http://lh5.ggpht.com/qXsP4-THlaQ8DmIiopsvR0dY2hqwPjIHoy1A1b_CUmqmADgED0FAkXDjkBzS-PY4jNfThICrCaXGja5OH8bWF4ghh7lBwJz0FzKz_zOvaiwHohU_'
  lat: 40.11945
  level: 4
  lon: -88.243175
  name:  '"Stride", Downtown Champaign'
- ap: 3474
  img:  'http://lh5.ggpht.com/nirQKdy3s9r8TSV7cB7_B0l-0EsFXBkg1aitH05R0ttPhOEewGxlq1GRnlDvYFT2V8Z91hWnB9YD3WjxBvyZ'
  lat: 40.11868
  level: 5
  lon: -88.243426
  name:  '"Pointless"'
- ap: 3474
  img:  'http://lh6.ggpht.com/rGhR45ZFbHtxmrZSSy9V19eFoyHIDB42c6MK188isPJFWpUsW9ywNHayKt3acNvKNC8DAV6mDkUloj3aiS4'
  lat: 40.118422
  level: 5
  lon: -88.24346
  name:  'Entrance'
- ap: 3474
  img:  'http://lh5.ggpht.com/6qIQAtIoPbAVQ1O3BoOnGg6gtTa9fd0JIkxt6P1kmSimVswLaPpCRaLEudsNcMfP_kKb4SCE1By1o3lhYevmIA'
  lat: 40.1172
  level: 5
  lon: -88.243745
  name:  'Circle of Friends'
- ap: 3249
  img:  'http://lh3.ggpht.com/CwgYIhVaivHHg_U6yqu5KSGhSh9ipRBDu7G192KiQfrnXc7C8uh7UOh6MP91vhZJ3LZdiTaFwpvFukvIaj6J'
  lat: 40.117445
  level: 3
  lon: -88.243409
  name:  'From Swords to Plowshares'
- ap: 3474
  img:  'http://lh4.ggpht.com/wbrbzDCo3C4qFJyHTWOST5o8B7kwZSWePUWOboIlYrdvxjrhWLqVQ1MqUF5-Hy4nt26x_oHQq9f8EbfdEjVK'
  lat: 40.117382
  level: 5
  lon: -88.243748
  name:  'Days of Venus'
- ap: 3474
  img:  'http://lh5.ggpht.com/tfAfnmo6mSMc6U0P533NMFJRGwn6lasmx-MLR2JJg1QOizMKkghFU8E7hb2zgYgdQEbgnCJUlvZIMdrrJe4'
  lat: 40.100822
  level: 8
  lon: -88.25193
  name:  'Seeds of Kindness Bench'
- ap: 3474
  img:  'http://lh4.ggpht.com/H1kV6JSczzSbcCblAHg5ZOgITW1mBAz0_oLbqbzxBlijGTBn7TP6KwA6UI0AAGrCN4VF0DAF79Vcj6_2R4dsB8LRTq6tud6v'
  lat: 40.107753
  level: 6
  lon: -88.228913
  name:  'Zipcar-Wright Street & Daniel Street'
- ap: 3474
  img:  'http://lh4.ggpht.com/S734i_6SihPtJW8WdegLb3gEuKeNx8e1qDm6CXjREzYHohw7XqL82m4EF2K5nS2TixHweLn3EuJ4YoQnrsw'
  lat: 40.107751
  level: 3
  lon: -88.231532
  name:  'Graduate School of Library and Information Science'
- ap: 3474
  img:  'http://lh6.ggpht.com/3SaonyLU_evy1YzQKwgtBDaqXYmjw8T23hTzjuYRMKiAuUQhggQrma2fSybhpdItiFt7zHajL_U2nIa8UcDx'
  lat: 40.107526
  level: 8
  lon: -88.219106
  name:  'Axiom Christian Church Ministry'
- ap: 3249
  img:  'http://lh6.ggpht.com/tTU-Y5FRAb4F92hceoxPTuE4REQk2A9674rjMKsbcjBvAo4QT0vO_hstMwuRjymG8xwGglkae1Jcxli35886tHdHOqWzAvkKEzTz5eIiZIZV76hTZQ'
  lat: 40.108646
  level: 4
  lon: -88.219838
  name:  'Hallene Gateway'
- ap: 3474
  img:  'http://lh6.ggpht.com/PJNZOMCQPAWy2UMMUz7FvQhEb9zSo2mg1ImzZDYViGOn1FI2EqJX2AwZe_uOwiAKSL2QYkbPfTaRsdL2VvmG'
  lat: 40.103204
  level: 5
  lon: -88.212443
  name:  'Serviceberry'
- ap: 3474
  img:  'http://lh3.ggpht.com/nHykU-r6nAcUQliLD4vcs6UTayaoX6Aay87D-bgyrRjGaqMQQYuxIbHuVKSTH0vbqNO9g2sBdp_ZBWLM3LDYeQ'
  lat: 40.103044
  level: 5
  lon: -88.211741
  name:  'Great Neighborhoods Dedication'
- ap: 3474
  img:  'http://lh5.ggpht.com/_7T_9npLcYDGVQxXhXrsFORj35gQQEYqiUxwW949h0mVOq-jNHvpY7g9JscyWOIX-Km5HQ4RLRKtUI2nR7Nw'
  lat: 40.099589
  level: 5
  lon: -88.205137
  name:  'Blair Park'
- ap: 3474
  img:  'http://lh4.ggpht.com/m41WytddHvUQZQvwN8vv-Mf6LHne1_3LkN4y39ZCxrwY2v0-Q7lDbE63wlDSkhpMjG7OxDM0LO5Sh9DNyjo4lbZBu-mAykPo3qPOd6orSfwlfucL'
  lat: 40.099946
  level: 5
  lon: -88.205936
  name:  'Blair Park Center Stone'
- ap: 2724
  img:  'http://lh5.ggpht.com/D9O580D9hlBOqeMvt2V4nL-eHP62h4vG4YFgk-WTw7GunusU9AOffFuHZ9XYWoB8YrGxpCMu2Y77-LCAgcdT'
  lat: 40.119328
  level: 4
  lon: -88.243755
  name:  'Birthplace of Champaign / Beautiful Beardsley Hotel'
- ap: 2724
  img:  'http://lh5.ggpht.com/J6mcCWpzY1HtqSgO5x_y5aVz-YFsC8M7QP6HkXPiD48zj2LwljZvVXDN2m_K8oMn6mei5g6B8PphiUGrXGDG6g'
  lat: 40.119305
  level: 1
  lon: -88.244122
  name:  'Women''s Town Club Building'
- ap: 2724
  img:  'http://lh4.ggpht.com/W2chhQwPqSJEkl57NVoIL-OE4KFvJfp7Bsrrxza1apCYltcT3npz95LJxqHxvT9ZZu7wxF2gQy-5bpKal2p2'
  lat: 40.115838
  level: 6
  lon: -88.241338
  name:  'Illinois Terminal'
- ap: 2274
  img:  'http://lh4.ggpht.com/-MJc8fCVxpxV7prlhkP3sXPWZ7jsr8Behc29zUJqdz_V57jSg7SzyMUUv7B9Frzu36mJhM2PQkr_LJk-zyM'
  lat: 40.117729
  level: 1
  lon: -88.243645
  name:  'Watson''s'
- ap: 2199
  img:  'http://lh5.ggpht.com/KYppjeOoIlb4lbowRrrC5qRdYW7_KU8rzjtDMpvhh-Q_c6VZOTtVmOqmmxChJA2hjlpS5dJ1JnhUQcKUAXDWHA'
  lat: 40.117976
  level: 1
  lon: -88.242642
  name:  'Stevick Building'
- ap: 2274
  img:  'http://lh3.ggpht.com/bltQwmnzp2vSKYhLpzNLqB4iddy6ie0kWk9G7Wce4U9qmW3CABxbXAhF7v0oG9QLFD2q57UZuVqZCMgN3MHZfA'
  lat: 40.118335
  level: 1
  lon: -88.243408
  name:  'Downtown Fountain'
- ap: 2724
  img:  'http://lh3.ggpht.com/2wN9MWxEFPbMzRPAzNmaAiCOQJj_EFr94Y1YkQP_wMlyajkajmcw00gqW-EluMvpQmvnGgcQ-WdPxjcYTmr2'
  lat: 40.106519
  level: 4
  lon: -88.223748
  name:  'Thunderbird Theatre Mosaic'
- ap: 2537
  img: http://i.imgur.com/5j1qaiT.png
  lat: 41.37168
  level: '?'
  lon: -90.165095
  name:  'c95c110111b44cd08149a1712123ed13.16'
- ap: 2537
  img: http://i.imgur.com/5j1qaiT.png
  lat: 41.556343
  level: '?'
  lon: -89.461309
  name:  'fd2af0e93c084aa19be07f93e4a11add.16'
- ap: 2537
  img: http://i.imgur.com/5j1qaiT.png
  lat: 40.784611
  level: '?'
  lon: -89.966766
  name:  '6130387fc09b422d828ad41e2d54add8.11'
- ap: 2537
  img: http://i.imgur.com/5j1qaiT.png
  lat: 40.809756
  level: '?'
  lon: -91.099301
  name:  '96e6aca35b894d7b9c51daf1942e5d82.16'
- ap: 2537
  img: http://i.imgur.com/5j1qaiT.png
  lat: 39.719395
  level: '?'
  lon: -90.247862
  name:  '532ad3dc3fe14846ab862abf425a5b4e.16'
- ap: 2537
  img: http://i.imgur.com/5j1qaiT.png
  lat: 40.106513
  level: '?'
  lon: -88.5585
  name:  'Lodge Christian Church'
- ap: 2537
  img: http://i.imgur.com/5j1qaiT.png
  lat: 40.448264
  level: '?'
  lon: -89.029353
  name:  'Pepper Ridge Park'
- ap: 2537
  img:  'http://lh6.ggpht.com/xmgP6_TbSrlLRJsCZSQjC_DLNjFvpQZvEQ1HG5OqrNlNx6ze282h78In-2DEf_6Czi85r3XRa99MH0Ird8qu'
  lat: 40.085035
  level: 5
  lon: -88.33118
  name:  'Environmental Plaque - Pond'
- ap: 2537
  img:  'http://lh4.ggpht.com/vKkSwERLa3zQO2UUIiYl1AEruAx1QTPcP4jSmPt89PG4AviJ1WhlVVH8qmqJ0aY2gqJmHcqdZFcM2pQconc'
  lat: 40.139375
  level: 5
  lon: -88.272793
  name:  'Salt And Light Ministries'
- ap: 2387
  img:  'http://lh5.ggpht.com/QruW49d2dc1uhQlK1BaZIeo6ruDNkqQfmvZz83eQ-1aC9ytGUcpFaHnKRTnXRc70F2EZ0-pVKGr9Slo0_9RfxA'
  lat: 40.139749
  level: 4
  lon: -88.273955
  name:  'Northside Church of Christ'
- ap: 2462
  img:  'http://lh6.ggpht.com/oTEawnC2cPnZ7T10vs9tiueaLsN0ILM7tgPLWVfa0njwvTDrUvS-w8x5SK4iMDd0tuHYP2w5a-H0AQ4NaAyU'
  lat: 40.116388
  level: 5
  lon: -88.243702
  name:  'Cycles of Love'
- ap: 2537
  img:  'http://lh4.ggpht.com/FAqopsayR2vfoblDs12USLGHxH0S1lfng6IlvgMPO2k4a1fKXYQnDWf0Lbf3zAqLfMU0aGaHpSZxycRqft9pmQ'
  lat: 40.119381
  level: 1
  lon: -88.24555
  name:  'The Lodge on Hill'
- ap: 2312
  img:  'http://lh3.googleusercontent.com/tWUxy7KQ-q_qBBIgLzTjjezrBpWPSJ_z3FWnvbB8Y5wIiYZW1I5ioL0Tzq60VyalCaIwOk4UI3agM8tFaykY'
  lat: 40.117427
  level: 3
  lon: -88.243235
  name:  'Cowboy Monkey'
- ap: 2087
  img:  'http://lh5.ggpht.com/KadNuhjGK6FUXezGHW1W1kfPOQV5l7gJP594EQm5nPZFLTgcTsjl4ixa-j7XitgtyJyou3q0pTfMr4i2E_avIA'
  lat: 40.118013
  level: 1
  lon: -88.243445
  name:  'Clock at Neil and Main'
- ap: 2537
  img:  'http://lh3.ggpht.com/tXDyz6XRrR2AKSg9Rrj1z6jBG4dz7uR9qFmSUO1bWljMEw67ncNiq-2Hx3O9Fs029iRtvCV1gdlGN7pG69L0'
  lat: 40.114104
  level: 5
  lon: -88.237694
  name:  'Lo Park Fountain'
- ap: 2012
  img:  'http://lh4.ggpht.com/tLO2wjyCgyune3KDOlQMV_oiDRxVsHqO1gAG_0xs9TvKOiuWRVmJcO29WI7jELxoxncaXpy91kMa89Uj65JVNw'
  lat: 40.11784
  level: 1
  lon: -88.24286
  name:  'Kaufman Memorial'
- ap: 2537
  img:  'http://lh3.ggpht.com/1G0o5RjtXyfAjbI-E2honhhelnuiq4lIkpHmB44e-AwSBuIxVOdLPVYjImbTMS8kyBdZuKuiMQHciUIdAWg'
  lat: 40.118368
  level: 5
  lon: -88.243737
  name:  'Frank Robeson Memorial'
- ap: 2537
  img:  'http://lh4.ggpht.com/eiIi_ozTDxkb4MdOndoTytdxfIB-1IAlz7B6mPPsVwLsPSvNxgR3f1ynOCQiAHPJAfWvPR6x6kWP0shmEfu5Mw'
  lat: 40.1198
  level: 4
  lon: -88.243467
  name:  'Incursion'
- ap: 2537
  img:  'http://lh6.ggpht.com/uyv64Hvc1y5cxlCwT2wsWkD3sPpcam6VXjBGrZ5qOpqIyyynSqXKCeBXqdW39vyyoAaOpvm-gIHYaE_bit8'
  lat: 40.120632
  level: 4
  lon: -88.243669
  name:  'Colonel Sidney Gauntlett Cornerstone'
- ap: 2537
  img:  'http://lh3.ggpht.com/AD9d7JPmLdYRdpxESO9iORy1GRXAcN1jzn8dDNvm6FO7cIHVsjwAKI8LmbW4dico1Xe9jzJfsZZriP0CxXA46w'
  lat: 40.104084
  level: 7
  lon: -88.241616
  name:  'Honorary Memorial Steam Ventilation Pipe'
- ap: 2537
  img:  'http://lh3.ggpht.com/-HtfCPsl6TBR07OSYeO879iOvq7SdMYFxEnoERPL5FVgGJEwLdiysHzEBNfVhjVLVD6bohjNTro7bbSOwgvj'
  lat: 40.094638
  level: 8
  lon: -88.241532
  name:  'National Petascale Computing Facility'
- ap: 2537
  img:  'http://lh3.ggpht.com/OtT56RocwPxPgcve6b9P9h4GvUFT5XVlsBBqmCg-K8i6I1c-3RVRip5KtAoqlaUqE2BUkSwl8clISDit9EU'
  lat: 40.119453
  level: 4
  lon: -88.219746
  name:  'Family Video'
- ap: 2537
  img:  'http://lh6.ggpht.com/cUV2o6ZPyJSFnHYl7jePeUIS7BrVr1H5D8Zbf7B3B8ALrTq7pTI3e271i1DHztqUGXITpiA399P3vNP83fk0'
  lat: 40.105767
  level: 6
  lon: -88.223378
  name:  'Busey Hall'
- ap: 2537
  img:  'http://lh3.googleusercontent.com/XQb7KWjSJlhbfrYsW2727_AeRoEQ5BbG0fRTTY5js_4zRdArbiRhCRkXunVa81rQpk9yX4RB6x1dV97DnYN7'
  lat: 40.104722
  level: 4
  lon: -88.223683
  name:  'Louise Freer Hall'
- ap: 2537
  img:  'http://lh5.ggpht.com/fHd4PN9y6K8vITWYf02HBqZwj7gTOYz9XqUVbI3_bHVW0KUAbFgY_jdyXgwKOFRz8VeKMD2BkELNjIedp5Le'
  lat: 40.108821
  level: 5
  lon: -88.228411
  name:  'John Milton Gregory''s Grave'
- ap: 2537
  img:  'http://lh4.ggpht.com/sz_e7469a1MnmlNIKBE9ABOh9Z5c-TMUKTj_dlubknMbwU0IKI_4hZ8QQtHWwjgbnkA_Plk1yb2bT4XQ3UjA'
  lat: 40.104561
  level: 5
  lon: -88.21207
  name:  'Carle Park'
- ap: 2537
  img:  'http://lh3.ggpht.com/UCJEg0nnZFNSfAC4NfT2gp9OudEjLUlBiuDJTG4gHlqqHWj8gXAlFIR92jIPXQa3I6VnEMYSwenr5PMJylrt'
  lat: 40.104077
  level: 5
  lon: -88.212367
  name:  'Stalking Panther'
- ap: 2387
  img:  'http://lh3.ggpht.com/rt1AXuZl8jGPdfbkCHVe40c16QTdy7Fnli6-OVAu5U8AaOyetc4UKIl3-AqgrS9U310eFfeO0kvHNooTUHC2'
  lat: 40.108342
  level: 4
  lon: -88.220239
  name:  'Grand Fountain - University of Illinois'
- ap: 2537
  img:  'http://lh3.ggpht.com/nEmxwddo6XwjpSBtzzXHCx_v9wYD5ITuVRx4VF0emrxiLFZGpsBb4HkcXFS4BAR3ZhrmD8t2YDKEWF7NGxV7'
  lat: 40.099595
  level: 5
  lon: -88.206642
  name:  'Blair Park Shuffle Board Courts'
