- ap: 8346
  img:  'http://lh6.ggpht.com/BANSBFfuZ3_0ya-JodV7jEB1a-DwSOyegBwPKAODSUFHLmvI7b8zwSiLUAvvqIAYjpU6S_Lm8XRBJ30KDGCIEg'
  lat: 40.116917
  level: 5
  lon: -88.24078
  name:  'North Star Sculpture'
- ap: 7409
  img:  'http://lh3.googleusercontent.com/SjusdEZ1n6AkcvHdrM3TfGAqP_W5LJRmm4qEdm5xmdvHcBejD6Jg0kXCZaHyUk5WGeE8Zu0RrSSq_1VDXFU'
  lat: 40.117419
  level: 4
  lon: -88.240991
  name:  'Old News Gazette Offices'
- ap: 7409
  img:  'http://lh6.ggpht.com/MsCeiBKy8tV3-ziINPCBPzkisfwOnBClSPr68FUxT1uMHlVmqtyTYYxNAZapU8bvWdcmm0lsmIzjMyv0CTJ2tQ'
  lat: 40.095364
  level: 5
  lon: -88.217386
  name:  'Miles C Hartley Selection Garden'
- ap: 7033
  img:  'http://lh6.ggpht.com/nRwew4OU3JNWRI1-xCyuN1xwDabajLFDuSlOZ-_M8BwJELli4V8o30JI0UyF6Kpc4gfDGdh10kJ6mD6ggMo'
  lat: 40.108561
  level: 5
  lon: -88.250039
  name:  'Harris Park'
- ap: 6472
  img:  'http://lh3.googleusercontent.com/xo3k3XO7tBJe91QAyjpFM6Hf4-lz36JNDF9bA9GpCbvobxWKkUZtf-RYl9CynmW3YuV0JGQht2y6D_5zsfHz'
  lat: 40.117571
  level: 4
  lon: -88.240851
  name:  'The Accord'
- ap: 6472
  img:  'http://lh3.ggpht.com/eIZLSi2oHXQIznnki3LOUvKrTTcJ6a2d9xmuW9B9IjzRMAyaWG19Qw6gTUGWsC5V7R3LlRVD-ySQPp_6uK_aZw'
  lat: 40.117519
  level: 4
  lon: -88.240577
  name:  'Spiral Flight'
- ap: 6472
  img:  'http://lh3.ggpht.com/gJYGj7_wDDnnkZAlCFgChMLxPptIEvTDKzPJQqVLWhygPTnHHPEe9YrX22kkUU6oScgCqoGv_Sb_cKdY6V32'
  lat: 40.10395
  level: 5
  lon: -88.211413
  name:  'Carle Park Fountain'
- ap: 6098
  img:  'http://lh3.ggpht.com/WDQ55kRMYCIrw9Pm69IuV6cBTI2nx7Z1gU9yxX2oE2oH9EdPnO1ltxSROAjUmHmBu84SEtHmLKregkDqlLYzUg'
  lat: 40.117126
  level: 4
  lon: -88.240623
  name:  'Depot Barber Shop'
- ap: 6098
  img:  'http://lh5.ggpht.com/H6c2QR_sGnIrBNnlkreE_k9AGNNj03EgBFOn2L-D_occ8syrKvx4f0LJ3s-YNtw6SyGGI9htmM5uD6aWWbRQ'
  lat: 40.103403
  level: 5
  lon: -88.211706
  name:  'Brian L. Larson Memorial'
- ap: 5722
  img:  'http://lh6.ggpht.com/ZQaguxPyiC-6DeFDFa2niVKJz3ySxwxYaFCv8PRdNuoMYUfP-Xtirg-8pXCTdBCyH1BruprOVmqf3D1kdp7o'
  lat: 40.115225
  level: 5
  lon: -88.248866
  name:  'Holy Cross Catholic Church'
- ap: 5722
  img:  'http://lh6.ggpht.com/PJNZOMCQPAWy2UMMUz7FvQhEb9zSo2mg1ImzZDYViGOn1FI2EqJX2AwZe_uOwiAKSL2QYkbPfTaRsdL2VvmG'
  lat: 40.103204
  level: 6
  lon: -88.212443
  name:  'Serviceberry'
- ap: 5535
  img:  'http://lh5.ggpht.com/hjAc940kWyt9QT4G_BJyJKaTef3jL_Njnm8ubUtQD7u6qVsD9_7TiJbgZpKeqAv60kNw8FYspVxkn-Bt1cxYBw'
  lat: 40.109959
  level: 5
  lon: -88.24318
  name:  'Mini Park II Sculpture'
- ap: 5348
  img:  'http://lh3.ggpht.com/yeYI3q7rDQLA5xBcWfH-Caw2Uh740ZPRQjjyvOrZz7ZyLI-gxBpi8yqxqDrlOBzG9YHs6YlxdgX0obTpXlQ'
  lat: 40.117681
  level: 5
  lon: -88.241405
  name:  'Jupiter''s Downtown'
- ap: 5348
  img:  'http://lh6.ggpht.com/4lSW4EwRiN3ZMZYjxrHWvIT7z6LDW-K6E686ImBYJg9AY_QNi-hZrn6ok63-XHe6Ls0E5tiQUt_QiGwGXvsqnA'
  lat: 40.116613
  level: 5
  lon: -88.240555
  name:  'Mural at the Station'
- ap: 5348
  img:  'http://lh6.ggpht.com/BtOK_UA_7UyJErE7xLTTwmLcG19nlTBIVAdTbfQVzDhL8s25D3rQ9JZNHM5m0liZck_hsO0vA_4ZVd5jeGI8cg'
  lat: 40.103643
  level: 5
  lon: -88.211298
  name:  'Quercus Robur'
- ap: 4785
  img:  'http://lh6.ggpht.com/vEN9GcvyvnN9TcF7V_jt__S6kOXIMX-XvLg5_iKqPHWpkT7sHe-QYFue_eGZ1OH6XJsPAb-jowAUKnHmkh4'
  lat: 40.110029
  level: 5
  lon: -88.249534
  name:  'Hardwick'
- ap: 4785
  img:  'http://lh4.ggpht.com/Gyz7BDhWdUinBQfD8duByX5-aBgPmB9oSesH20dH8uGJnTiaIHkeRJARtH6YQUUD5A5X2IjPTlT989AfutNc'
  lat: 40.092773
  level: 5
  lon: -88.250951
  name:  'William C. Fox Waterway'
- ap: 4785
  img:  'http://lh3.ggpht.com/wkPcdDupubV3THJo6r2OpMtshziiIkqBISPTCPe8boa-8nH33u83Mznkr1yYWNR_l60RCy8HO_obqrdNGUI'
  lat: 40.093633
  level: 5
  lon: -88.246611
  name:  'Fountain at Illini Plaza'
- ap: 4785
  img:  'http://lh5.ggpht.com/W2upB0MQ9l_1Z1JYjKFslTSSU-oi3b_kOidwTlG4pOCZRHWiD52CzcX2WMquuVEnMpxhtSRQOuAdLgDn8rs'
  lat: 40.096671
  level: 5
  lon: -88.217873
  name:  'Skull And Wagon Wheel'
- ap: 4598
  img:  'http://lh6.ggpht.com/hmDofhQgtMboyY40gAShyf0g__uH_qYaFzVKnGKShUBNn-JjwpN526PPOYKyq8kvusIGRrMQIZ7ozPedDVm4iA'
  lat: 40.117495
  level: 5
  lon: -88.241616
  name:  'Lincoln Building'
- ap: 4598
  img:  'http://lh3.ggpht.com/O6KWMS3yeRHd2EWk2OjTB00RVhM_Qhb2N2cDdMTObRRym9RV_RKbca6MkCx6JKPdqJgFoetXy0BR1jWxjvZ15g'
  lat: 40.096357
  level: 3
  lon: -88.218009
  name:  'Idea Garden Prairie House '
- ap: 4598
  img:  'http://lh3.ggpht.com/bVNaflT1bCgFsUDizKeHZFExlTyUFdVVpjEqrpacNh843YeRnU98IEQb8a02eE36XmEJXAkBC-FG1_3ezYP7'
  lat: 40.095365
  level: 5
  lon: -88.216784
  name:  '1867 Garden'
- ap: 4598
  img:  'http://lh4.ggpht.com/jEbgkWj4jIpuTGF0BsLL3Qhx62u2Xh7IFfVmCspv6e6FjmSfbeTYkwQgAZ75wN8NpO2Lus14Khr5O4f9jvup'
  lat: 40.094517
  level: 5
  lon: -88.217269
  name:  'White Oak'
- ap: 4411
  img:  'http://lh5.ggpht.com/AX1hc0zh7ZtN2MoSsNXTKwRtGJWb8EgeHffmjJfZvCLL7wvvjMZ8d0BwESKKrdNM--UUKA09PrLQ9qmTrMw'
  lat: 40.117186
  level: 6
  lon: -88.241556
  name:  'Champaign Limestone Sidewalk'
- ap: 4411
  img:  'http://lh5.ggpht.com/H9Tmm-D_Dg3Q1_QsO7RlfHiZrkr4Oc34TPaqym0wpq88iGAGgqIs2QicN-RDnz4iEc7CbRPgGsv4QYUwL2ue'
  lat: 40.117334
  level: 3
  lon: -88.240517
  name:  'Glory Pipes 2.0'
- ap: 4411
  img:  'http://lh3.ggpht.com/nHykU-r6nAcUQliLD4vcs6UTayaoX6Aay87D-bgyrRjGaqMQQYuxIbHuVKSTH0vbqNO9g2sBdp_ZBWLM3LDYeQ'
  lat: 40.103044
  level: 5
  lon: -88.211741
  name:  'Great Neighborhoods Dedication'
- ap: 4411
  img:  'http://lh4.ggpht.com/ZIOjKYlH2wMvdRD5A5HKGJPgBUYAaA7xHjGYnoXNzhzPIE6KR05FBciTJcN-AojoLyuwRlp3SF3TR1PXBrUPjw'
  lat: 40.094935
  level: 5
  lon: -88.216986
  name:  'Leroy Hubble Honorary Bench'
- ap: 4035
  img:  'http://lh5.ggpht.com/fGRHfMAqdWrUnPE8GStKSdMkgQmu9qvuxAC4VzcU1v2KyxQu2BeuJKhvhefSeFNTkgFh6YdR-F4P6plMbh0'
  lat: 40.110194
  level: 4
  lon: -88.231488
  name:  'Fighting Illini Memorial'
- ap: 3848
  img:  'http://lh3.ggpht.com/IKYzmqr6aeIX2d99jn1dQHjjq0-h7glRdyPEPoTdQnggoAgc8uutzh3X4OYjcCllXVp5r9rYyYnVPwNALI8B'
  lat: 40.115178
  level: 5
  lon: -88.246191
  name:  'Clark Bar'
- ap: 3848
  img:  'http://lh5.ggpht.com/jz0XvZSSYKqKSa4lJDK-rludOns_o36jZ8ZTzfEr42piZamiTjSASTLdII6pkxgjZgnCwKirjhEouS77BPB8Dg'
  lat: 40.094288
  level: 5
  lon: -88.248914
  name:  'Boulware Trail'
- ap: 3661
  img:  'http://lh4.ggpht.com/PmGpygZ2fBs43twk2Y44XZbgGcHWv0YimAq7Fp3vlIRRqUyLpSmDmFwcn1ucfmJarcQrAAXJjYAXAhNyxSrz'
  lat: 40.110049
  level: 5
  lon: -88.231968
  name:  'Potbelly Mural'
- ap: 3474
  img: http://i.imgur.com/5j1qaiT.png
  lat: 41.549333
  level: '?'
  lon: -89.12357
  name:  '141d9ff1006547f38f015e2e1482ab0d.16'
- ap: 3474
  img: http://i.imgur.com/5j1qaiT.png
  lat: 42.094904
  level: '?'
  lon: -88.843717
  name:  '34b091f34c754c1a84833fcd38a5eb25.16'
- ap: 3474
  img: http://i.imgur.com/5j1qaiT.png
  lat: 41.843658
  level: '?'
  lon: -89.305066
  name:  'c7a180afbdce496ba6b599e95a69c256.16'
- ap: 3474
  img:  'http://lh6.ggpht.com/Sz4BABPqyoIyZVGpSBEM1QNIxPngQLl7hopqjyVJi_fak1xgpFAX_X7TbK6tICEaYnLrvC1hV2jv-AwPofQX'
  lat: 40.090038
  level: 5
  lon: -88.249379
  name:  'Three Hierarchs Orthodox Church'
- ap: 3474
  img:  'http://lh6.ggpht.com/PXc3YHSOsx0c_WrfpzvHHiHEl1FSv5RvbgXj7Ji3-xS7oBwJIkFCD8eQySiUega_iQvX8FiUBuDhXdK9l9QWIA'
  lat: 40.116623
  level: 5
  lon: -88.240844
  name:  'R. Forrest Colwell Memorial'
- ap: 3474
  img:  'http://lh3.ggpht.com/gSjoDo9KYu-lgQFkD5uUnj4HXGc1BOihKfh-rNeZu_Q3hHyEkaBoalqYiV46QcvH9y4o8cPkHP_cmo_LxCyo4Q'
  lat: 40.10214
  level: 7
  lon: -88.218932
  name:  'Twin City Bible Church'
- ap: 3474
  img:  'http://lh4.ggpht.com/J4angdYTKCPYybB0GhGqQPugzEy-7X48yLh6UFakxJsUTJY156aWvDAIxyqAbX9wGOUddPZcWQMvmhS10vVL'
  lat: 40.10391
  level: 5
  lon: -88.21116
  name:  'Carle Park Pavilion'
- ap: 2911
  img:  'http://lh6.ggpht.com/s0NjKuARUySFKyN76g9Vr1UymiO5a-Ev822C0UEiLqAFzFggW39lRKoYierDtj89xVWRDioyodaQ1Ve0SGBBXA'
  lat: 40.121861
  level: 4
  lon: -88.198042
  name:  'Chief Shemauger Park'
- ap: 2724
  img:  'http://lh4.ggpht.com/vKiU-Z9PbuWMTBST_ry96h11Nf1d5ooex1Fl5imVUtCPpaeGwy3JDVmhziEnAAySe8NXWHfT5stQGA2BQg9J1g'
  lat: 40.122111
  level: 4
  lon: -88.200203
  name:  'Dane Michael Sherr Memorial '
- ap: 2537
  img: http://i.imgur.com/5j1qaiT.png
  lat: 41.49264
  level: '?'
  lon: -88.169941
  name:  '102bafb346f44164b5a2fedd204cbf89.16'
- ap: 2537
  img: http://i.imgur.com/5j1qaiT.png
  lat: 42.24742
  level: '?'
  lon: -88.841819
  name:  'd8145c6eb0a54e19aeb2a93ddea91236.16'
- ap: 2537
  img:  'http://lh3.googleusercontent.com/vMuPZQrBjsuqibkb-FCbuVrZzyuUSOhjlXxxxRc9hq0Y7prkP-Fpk1Hh6o5Eq8BhT6s7GRP5S5z2KFUL7hJY'
  lat: 40.113606
  level: 5
  lon: -88.243766
  name:  'Mural on South Neil St.'
- ap: 2537
  img:  'http://lh3.googleusercontent.com/ZyXHLNlediISMVLqM9sUeZ0FEft3El4ni5P7GPOy5UF2YYBkTywnN5g1lkaer_lDNSvBUvg7bQ5yA_4Wd9qRWg'
  lat: 40.113521
  level: 4
  lon: -88.244122
  name:  'Artistic Graffiti at MCS'
- ap: 2537
  img:  'http://lh3.ggpht.com/9aQBG-poFARclK9XL7iFIvWePkawZwWhv4Sh0zQhQ0Sy9gdDD508d4gCtpcUP9UNoYM6uztea0aQ05RPd9rZLg'
  lat: 40.115412
  level: 6
  lon: -88.245046
  name:  'Eddie Thorpe''s Memorial Rock And Tree'
- ap: 2537
  img:  'http://lh6.ggpht.com/eeOtj4-6PU8Dt6QXk_TJjgkoEGRW9L8YzUqZE8QV5ZMCHnqA5CzoQoxKpnjCvXwaIflUUvPJmO_S7BdvMhcuzw'
  lat: 40.117588
  level: 5
  lon: -88.241787
  name:  'Adam & Eve Mourning Over the Soul of Abel'
- ap: 2537
  img:  'http://lh5.ggpht.com/Tn5ARN-X6VTc2q6atZ2WYq3c2g3gbSGXu6_vXf1MDwHfLpdTtnQ-CilBAVGvL6R-SHhq3fJ4WZI-yiJKmIId'
  lat: 40.110398
  level: 3
  lon: -88.235143
  name:  'US Post Office, E Green St, Champaign'
- ap: 2537
  img:  'http://lh5.ggpht.com/BKHQBYKq1WHplCUxjyl6ZyElMZVN9SFIPmdKwffI6avqoyvbXRxFSFwn-RrmpqLRdSu6LntKwTDnQvCc1n0x'
  lat: 40.110358
  level: 5
  lon: -88.230181
  name:  'Murphy''s Pub '
- ap: 2537
  img:  'http://lh4.ggpht.com/hJDi8J7CZU-933hT0Culp2nhslv6p8rDRPdTFz6FwNaAjB5CmfkaQzj9sM--E-QBvI8yvIJn1F2jxy7ZKWlh'
  lat: 40.10816
  level: 5
  lon: -88.234245
  name:  'Stratford House'
- ap: 2537
  img:  'http://lh4.ggpht.com/OFVPvdgB3GVpaQknHdnt2okgP3xcQksAH3wvOGYVuP85MMlxo3bQ2SRpBb0hzNfjQoC_5LlRqaE6jLB-h9Gr'
  lat: 40.108092
  level: 5
  lon: -88.234589
  name:  'Koinonia Plaque'
- ap: 2537
  img:  'http://lh6.ggpht.com/TALpZtbbV03GxohN-2-Cazq4J_-gGRySLT5x6qaUfd-iDuON_0Vc8YB8fsIr9HIFZ2NipUXtr0a_yvCyI24'
  lat: 40.121991
  level: 5
  lon: -88.19335
  name:  'New Life Fellowship'
- ap: 2537
  img:  'http://lh4.ggpht.com/VZT9NM5dfGAaJAZj9cFhDmCgknQCF0UI4Hv3AwcaZedRlXhGb2wfVLTFOWjtoSJRG7MEsjv784wAB1XZgQqpBA'
  lat: 40.126642
  level: 5
  lon: -88.198163
  name:  'Armored Gopher Games'
- ap: 2537
  img:  'http://lh4.ggpht.com/lmmAipLLlemZCx_GvFWKPFhu7DSZrKSc3OxReeZJ15aabG51w3_L9IdcpKrku-QUoKanND7aZEBZIToeu8ha'
  lat: 40.120805
  level: 4
  lon: -88.201892
  name:  'American Veterans Memorial'
