- ap: 6285
  img: http://i.imgur.com/5j1qaiT.png
  lat: 40.011563
  level: '?'
  lon: -89.278425
  name:  '93ee049f33d544d78fc4ce1dc2b491fc.12'
- ap: 6098
  img: http://i.imgur.com/5j1qaiT.png
  lat: 40.026865
  level: '?'
  lon: -88.535309
  name:  '978bef9392354bf895fe9c00c1cf2a7f.16'
- ap: 5348
  img: http://i.imgur.com/5j1qaiT.png
  lat: 40.146331
  level: '?'
  lon: -88.960068
  name:  'e31a4818b9f94aa9ae1b32779fa54dbd.16'
- ap: 5348
  img: http://i.imgur.com/5j1qaiT.png
  lat: 44.607633
  level: '?'
  lon: -87.43205
  name:  '8e6a8255e7c342e8806313a728bf9918.12'
- ap: 5348
  img: http://i.imgur.com/5j1qaiT.png
  lat: 42.781176
  level: '?'
  lon: -87.758749
  name:  'da8a9ff388b54e9b8be758bc820d0bcd.16'
- ap: 5161
  img: http://i.imgur.com/5j1qaiT.png
  lat: 40.026078
  level: '?'
  lon: -88.783718
  name:  'edce8f4594c948e790402f25987eea45.16'
- ap: 3474
  img: http://i.imgur.com/5j1qaiT.png
  lat: 40.311696
  level: '?'
  lon: -89.169242
  name:  '74a2abe956ec428e8662daadb4b010f1.16'
- ap: 3474
  img: http://i.imgur.com/5j1qaiT.png
  lat: 41.963978
  level: '?'
  lon: -87.632299
  name:  '85bcd2426f9a4116b47afa8aae88aa3b.16'
- ap: 3474
  img: http://i.imgur.com/5j1qaiT.png
  lat: 41.966004
  level: '?'
  lon: -87.632502
  name:  '367908f1dbf04c84bf3cb27575c4359e.16'
- ap: 3474
  img: http://i.imgur.com/5j1qaiT.png
  lat: 41.96438
  level: '?'
  lon: -87.632348
  name:  '3e80a79b13e74f3a9d999f32d2216f1d.16'
