- ap: 11346
  img:  'http://lh5.ggpht.com/4DJAFPeZ_w65Km7VDnsbOqouQaeBuPuxA0KHPQToT_B6o1hBxzdu3kn89UhHgv22Ygj52Fx9QqcbzOytuw'
  lat: 40.100078
  level: 8
  lon: -88.250683
  name:  'Brian Clark Memorial Plaque'
- ap: 11346
  img:  'http://lh5.ggpht.com/C6wRSaEWO1NYGY5luyYZKHG3Z3aib4aflaPdV7B9G6N6adE890g3QuPRSvCUhsdFHqjoVUjo27mfz9WsjXyuhQ'
  lat: 40.100521
  level: 8
  lon: -88.250864
  name:  'Gabriel Patrick Maxeiner Memorial'
- ap: 10783
  img:  'http://lh3.ggpht.com/rUgM7jkTqL0VHxvsSW0yWuNJF5UrU62ITflghfn4PfKjn6L4WGz0ALkv98fc_q9dmK9SSpU1PXIawGvcRwE'
  lat: 40.098246
  level: 8
  lon: -88.251974
  name:  'Hessel Park'
- ap: 10596
  img:  'http://lh3.ggpht.com/lzCSS0_tjwUV7JQ2fgLI0e05IrzPxlVUs-6aEPOwUv67IanQJSTi71gkw0SGm8asmoE_r3Xoh048Fd9xRpE'
  lat: 40.099169
  level: 8
  lon: -88.251419
  name:  'Lyman Larson Memorial'
- ap: 9846
  img:  'http://lh5.ggpht.com/ENeQgqydWbi9-Oyf7vizunoRqJdsZV4o0RA_956wjGI8hqpTCHBPyWMpbTrrkwYpj5tgzDRvevGmvH4eFRU'
  lat: 40.099593
  level: 8
  lon: -88.251724
  name:  'Blessings from Devon Elaine Cattell'
- ap: 9846
  img:  'http://lh6.ggpht.com/BKeORacgeVrG8XzxTuXmpq5UxomWpK-I2n7Xy0PVbdSciNx9MJl869TcibnFIiV5PJHGv5R3QOpX6ZgLUwU'
  lat: 40.099706
  level: 8
  lon: -88.250065
  name:  'Lois Barham Memorial Tree'
- ap: 9470
  img:  'http://lh3.ggpht.com/KxQsev6i7POmNh1IadCWwWQSMdCuLIYpPwIdenSlVtzum523D1R-1kfeTbuOGTkt_jDwn4jswCu1edkumm2-'
  lat: 40.110037
  level: 7
  lon: -88.23549
  name:  'Red Lion'
- ap: 9096
  img:  'http://lh3.ggpht.com/-HtfCPsl6TBR07OSYeO879iOvq7SdMYFxEnoERPL5FVgGJEwLdiysHzEBNfVhjVLVD6bohjNTro7bbSOwgvj'
  lat: 40.094638
  level: 7
  lon: -88.241532
  name:  'National Petascale Computing Facility'
- ap: 8909
  img:  'http://lh3.ggpht.com/VLipBehsKPCp8ewQnBV1ZCz7uE75zcY46iGDyFfFHgX1o55t3DONb3wcBcL5RMYSqABRK0TgIW3DluNy8y6WaA'
  lat: 40.101131
  level: 8
  lon: -88.250539
  name:  'Hessel Park'
- ap: 8909
  img:  'http://lh5.ggpht.com/-UWK84I78Sftf7yg-E2pg6xEAWTvyiThgJBJlxbqOZPYKNmzQ8uGgEEMetzplrG1HpXG5kQqNItUeXKxOHDsGA'
  lat: 40.100286
  level: 8
  lon: -88.251747
  name:  'Tennis Anyone'
- ap: 8909
  img:  'http://lh6.ggpht.com/5CDidk0pqfUtSW_Yqouuf3diX8drdMu9DoT728QpSz8q6A-WxNhT0yLcgM_7gGpyIAeXrHiTkIzzaVJFgnN9WA'
  lat: 40.099852
  level: 8
  lon: -88.251947
  name:  'Our Friend Tim Palmer'
- ap: 8909
  img:  'http://lh6.ggpht.com/n0f7lyo15OzZn5IJHsohIGAA58iioentPZGEY4zeMZCCoX4GjEEkqfaTCIbrx9OnezriThnbFV14kYcwKTgL1g'
  lat: 40.098444
  level: 7
  lon: -88.248167
  name:  'Healthcare Not War Mural'
- ap: 8909
  img:  'http://lh6.ggpht.com/YdeB0EKlsopL39a9YXWj4JBZgXNNLWHgfe4PQzdpWCNWc0fR1YTj8WjARDHnmrusvKWTqKLcGg8U9frhtsw'
  lat: 40.09821
  level: 8
  lon: -88.249879
  name:  'Hessel Park'
- ap: 8909
  img:  'http://lh3.ggpht.com/GXyi2ghi2DR3h7uIHNYiEZPYixRhDo7LO0WHQ0PyEzb-150r7ar7JGeVjUoPuObC-GFWf22UWqnYCMtED0M-'
  lat: 40.100341
  level: 8
  lon: -88.249937
  name:  'Alice Marie Weber Plaque'
- ap: 8909
  img:  'http://lh5.ggpht.com/3t7XZHqwxLZ8Lc9YomR8FInm74U2PAA-DBk8kmdxXIrcXbKa1CoBDTlgdDJeO-_yVT3qNKRnNLzbdil1eH41iA'
  lat: 40.09935
  level: 8
  lon: -88.249766
  name:  'Jim Bickel Honorary Plaque'
- ap: 8722
  img:  'http://lh4.ggpht.com/4LxsGZZMk3DnpJXUvqzrL54CHSP5TDXjUnDJyHmCCTtCJIjGEI7kxT9g4uxfSPh0X6yGLgQo1jfqbu7B8VEr'
  lat: 40.099084
  level: 8
  lon: -88.251826
  name:  'Irina P. Stewart Memorial Plaque'
- ap: 8531
  img:  'http://lh3.ggpht.com/psgrRGIt786cUSq8EV7SBSDsS-aptrUKjaCXWv864H7OaJL2K71qJpxU9Iw-acwFMi52ZN2qpEmicGmlmhJq'
  lat: 40.121061
  level: 6
  lon: -88.250227
  name:  'Curtis F. Columbia Legacy Plaque'
- ap: 7972
  img:  'http://lh5.ggpht.com/fDRifvVcFT_dKhPuNBN4rR9lNHL0Q6NvbMnGr2-ZdiirR2rJrBcWRi4vyM3-DYNHymUs7bWchaWRaUtBpg'
  lat: 40.098541
  level: 8
  lon: -88.250389
  name:  'Dennis Robert Costello Memorial'
- ap: 7972
  img:  'http://lh6.ggpht.com/3o0ObAARFV_8mBVCC_QD0iLOPVzNkakXybhLnSVEuXIJfDLKMxeYj-EkWIw9NPoZIVRf5Dkrid2yf_NEQ-iE'
  lat: 40.100347
  level: 8
  lon: -88.249385
  name:  'Travis Marmion Memorial'
- ap: 7972
  img:  'http://lh3.ggpht.com/KzADjdPRAvwycpfTBdAeDwFJ0AxZJG2dPmbPWkXq55QLV9PfpJ_-DsXWIlVgsISUApRdJ5cAxRWx0k0W2hI'
  lat: 40.09979
  level: 8
  lon: -88.249107
  name:  'Jerome Cook Memorial'
- ap: 7972
  img:  'http://lh5.ggpht.com/yEiiHAgbSW12_Cpdb0_ksVrjWt6yb6BFtEwm3wjzPJN68wl0QhkI_oaTXxM__Dud8x9jZitaHmpZHZNxDHrD'
  lat: 40.099056
  level: 8
  lon: -88.249136
  name:  '"Cricket" and Bob Barger Memorial'
- ap: 7972
  img:  'http://lh5.ggpht.com/q-mJ2EvrjGn2PfbBh3Pl3XIGUyzTqxGjZmTMhn3k9_2Qi0S2hs3k2ZvpKb4kvt60AXHiyQdxqft5ZecPcg7x'
  lat: 40.098959
  level: 8
  lon: -88.250141
  name:  'Bob and Wilma Tinkham'
- ap: 7972
  img:  'http://lh6.ggpht.com/S7Utf4_59vQkAP5JhC3mdbzVLKBTt-0zoJ2UjfxUnN10VBbixO-_VwvssWd1LbFSx_yafaijd_U0wTGo870'
  lat: 40.100941
  level: 8
  lon: -88.251314
  name:  'Gabriel Patrick Maxeiner Memorial Plaque'
- ap: 7972
  img:  'http://lh3.ggpht.com/sisvfsphxy7AK_2qrrqb7lNJk3_7ciHSVJyodINYITBc-UqugyNOooCxKupgJKEg5m_x95eZwouSO2WCmN60ew'
  lat: 40.098579
  level: 8
  lon: -88.249603
  name:  'Chef Ra Memorial Plaque'
- ap: 7970
  img: http://i.imgur.com/5j1qaiT.png
  lat: 40.152792
  level: '?'
  lon: -88.253532
  name:  'Toalson Park'
- ap: 7785
  img:  'http://lh3.ggpht.com/VrbXGwlUosNLEkVdshWUFoVa3KtlJQoEU4yLYygvftYbPCmxo644Uvar_v8Kb9RS53hB0tXgvV44GotrxZyu'
  lat: 40.098592
  level: 8
  lon: -88.251676
  name:  'Ruth and Fred Steigmann Plaque'
- ap: 7785
  img:  'http://lh4.ggpht.com/Gyz7BDhWdUinBQfD8duByX5-aBgPmB9oSesH20dH8uGJnTiaIHkeRJARtH6YQUUD5A5X2IjPTlT989AfutNc'
  lat: 40.092773
  level: 6
  lon: -88.250951
  name:  'William C. Fox Waterway'
- ap: 7783
  img:  'http://lh4.ggpht.com/mlUN5QXAR7rKFvUg7yhxcae3udkR7zCJVaWt5sq_YA47piV6tRi42RNN9fEtT_FafT7lhqg26WM1VETbz5E'
  lat: 40.098239
  level: 7
  lon: -88.25376
  name:  'Hessel Park Christian Reformed Church'
- ap: 7596
  img:  'http://lh4.ggpht.com/vbIH-PkUCBuwDTIRXA4p5jtGQ86SqYlc1e-g3Y9Ef2zaSb0ozkDD41Iq51orLhtPyShj4UzC6CPn0Unt8SY'
  lat: 40.145108
  level: 8
  lon: -88.260083
  name:  'Historic Interpretive Map of Champaign'
- ap: 7596
  img:  'http://lh5.ggpht.com/dgQfoxxVeHT5ODqLiUYHV45qvkC_BMS0kIFRqvHvE2GO0TduZ0-XzhW8RE80LtPDK0Ay5xwA6PtjM7G3C9U8'
  lat: 40.108947
  level: 8
  lon: -88.232251
  name:  'McKinley Church'
- ap: 7596
  img:  'http://lh5.ggpht.com/Q32BPmFRIQYqXI5gLOV9ifHvFlGdyD_yws2172-sHnSZ-StunhCM0Abqd9rBWSaKBWN7RPpa1h-nok4Mc23i'
  lat: 40.101062
  level: 8
  lon: -88.249275
  name:  'Narayan & Shanti Achanta Memorial Plaque'
- ap: 7222
  img:  'http://lh6.ggpht.com/XsUl74M1oxj6ptAvGEBOMH2wivRhxBNns62UJSGcPiQkuJIgPrmUYxMpSZZUfXRMMjrwoxlFK_DbAM78UrOh'
  lat: 40.113499
  level: 5
  lon: -88.244374
  name:  'Shatterglass Studios Mural'
- ap: 7222
  img:  'http://lh4.ggpht.com/vKgqIecJshMQxrhO-ZhMjcIyARuJdyU63wKfzAG0wouZex6LVzO46Qi5zM1N3Jx8xyantDFk9sQGsSEBhb-y'
  lat: 40.101327
  level: 8
  lon: -88.251412
  name:  'Zeus Memorial'
- ap: 7222
  img:  'http://lh3.ggpht.com/lSr_gDGX9o1BHZX9FUPCKAO2VVQjZ_NwTBaSNhNgjVyJ2p6BnLDByC_vIkhu637-W5nKMW2SShi0gXOlXNqY7A'
  lat: 40.097979
  level: 7
  lon: -88.247785
  name:  'Jarling''s Custard Cup'
- ap: 7222
  img:  'http://lh4.ggpht.com/S734i_6SihPtJW8WdegLb3gEuKeNx8e1qDm6CXjREzYHohw7XqL82m4EF2K5nS2TixHweLn3EuJ4YoQnrsw'
  lat: 40.107751
  level: 8
  lon: -88.231532
  name:  'Graduate School of Library and Information Science'
- ap: 7035
  img:  'http://lh3.ggpht.com/J_h4tdb4wqy8bmmQfDuy5yqTR2IlkzKojfvsMOvlD-3tf1pKxbDlhA6W9Q8RX-JaSxhItMr4bmCxiUQXTLbz'
  lat: 40.10064
  level: 8
  lon: -88.24958
  name:  'Edward A. Cousins Plaque'
- ap: 7035
  img:  'http://lh3.ggpht.com/G1CvGhpethi5UmprDWxZN9rTblHa3anSsQz1UPgJtkREkfN7lDFoxFObst0609Cg5mofuZxJKr0ddNKhY4VL'
  lat: 40.098464
  level: 8
  lon: -88.251426
  name:  'Ruth Haasis Memorial'
- ap: 7035
  img:  'http://lh6.ggpht.com/YVbqGVTjJuDMDdj71CP2mWvnUIdgO25PgoDdJwEGnEE_M9I1aDgKyjSr9JOZVU6UQTZQtfUo9RAWyz92n3jtCQ'
  lat: 40.098475
  level: 8
  lon: -88.249208
  name:  'In Fond Memory of William Moore Jr'
- ap: 7035
  img:  'http://lh5.ggpht.com/8zq5tMevCiipZK8N9-8SZw3vdsA2HwH0E02ormQshGxHVZrB2WPK7OPC8zt6pjLlgpXVuEYHVA_08_Q8fPw-'
  lat: 40.099647
  level: 8
  lon: -88.249648
  name:  'Max Overmyer Memorial Playground'
- ap: 7035
  img:  'http://lh5.ggpht.com/CRkkFx_9jq2hCt1HtflqZDqCdmSG5MN88FV0rLXk1PZm7maZWzLTKZhjqlSKUx1Tg0tSB62l75w2VFsyUZI'
  lat: 40.09991
  level: 8
  lon: -88.249899
  name:  'Benjamin Biddle Memorial Plaque'
- ap: 7035
  img:  'http://lh5.ggpht.com/T0WLAJf0s4nu2Phxax31eu6pO6zNoA4JpvHMLyfMKttzJALEWB8EAWOziQwgjdWE3YjBbG1XjGYsgihqCSX9'
  lat: 40.100414
  level: 8
  lon: -88.249061
  name:  'Randy William Auteberry Memorial'
- ap: 7033
  img:  'http://lh4.ggpht.com/RDM16YNiohkHnzuD-g6YsAoY8vRq4Hn6IMhPX6LC3gV_BoJDnAPjwc_n-PzXrDZM-OXMD6oA7kUbrXMczOZa'
  lat: 40.081276
  level: 6
  lon: -88.20502
  name:  'Tango at Meadowbrook Park'
- ap: 6846
  img:  'http://lh5.ggpht.com/RsXj0S9rbD_i4VFZmhxJtNtmwEeJOoYsmM8wyu90kB6srZMfUskP6iqrTY9eqFNQhhQrU50k92lCH4JEQ2w'
  lat: 40.127358
  level: 8
  lon: -88.243851
  name:  'Stanchion'
- ap: 6659
  img:  'http://lh5.ggpht.com/hjAc940kWyt9QT4G_BJyJKaTef3jL_Njnm8ubUtQD7u6qVsD9_7TiJbgZpKeqAv60kNw8FYspVxkn-Bt1cxYBw'
  lat: 40.109959
  level: 7
  lon: -88.24318
  name:  'Mini Park II Sculpture'
- ap: 6659
  img:  'http://lh4.ggpht.com/aXG2XQNJXyPDBz0o8tyfv07VIfskZuFMOWW2ylZpZKkWMnFjoiBmBiWg2VedsjdIorpfX5mtUGnwVLFb7Ga6'
  lat: 40.091438
  level: 7
  lon: -88.25077
  name:  'Fox Development Corporation'
- ap: 6659
  img:  'http://lh6.ggpht.com/5FrAAzvYmAM-WLKT5FARCFzegoqjWDbNOkEi5jS2tKCRLbTeSfKuZonDJsFpjSfnQpj_fSJSV6P-msLaTJSk'
  lat: 40.080453
  level: 6
  lon: -88.205614
  name:  'Elaine Regehr  Memorial'
- ap: 6472
  img:  'http://lh5.ggpht.com/pSVHjk6puyYdv3ztHlpJGnbkZyGsGsirMnxkDhlt8UMko4AhtTQbrzwInBCu5lK4Ttf7furE5pNW2AZh8HuSZQ'
  lat: 40.138109
  level: 7
  lon: -88.270158
  name:  'Glory Center International Church'
- ap: 6472
  img:  'http://lh5.ggpht.com/jz0XvZSSYKqKSa4lJDK-rludOns_o36jZ8ZTzfEr42piZamiTjSASTLdII6pkxgjZgnCwKirjhEouS77BPB8Dg'
  lat: 40.094288
  level: 6
  lon: -88.248914
  name:  'Boulware Trail'
- ap: 6472
  img:  'http://lh4.ggpht.com/XlTZ26_29c4-74t23p1lgghqNfLI7aS3_kradmcl7vVQzV9jJRu78D1HdzJf-sWibnak644kxCBJDnA594PVaw'
  lat: 40.092849
  level: 6
  lon: -88.251586
  name:  'Boulware Trail'
- ap: 6472
  img:  'http://lh3.googleusercontent.com/awNe0JGlWWAtHv9iiLcqQjVyppWY-io4ybTL_ir2ZKsMLJgkZcW4rdUAuDjOFdWQvIcp5jlTWiROgHANh1Y1'
  lat: 40.087822
  level: 5
  lon: -88.253161
  name:  '"Ice" at Mattis Park'
- ap: 6472
  img:  'http://lh3.ggpht.com/3Zmkt--7llPgVt7DBvxcj4VWf2chqeJFGGK3MxoJQUsf4eyqv2iI35GHX8cDE1VJzJcS7rt1tLhm2NSszA4J'
  lat: 40.080946
  level: 6
  lon: -88.20312
  name:  'Jack and Marilyn Memorial Bench'
- ap: 6285
  img:  'http://lh5.ggpht.com/K052rUVcM_dwOByJbJw0zZVn5R34oIGn9_FWFzquLCf0caed6K4EQXvJSH0lYUOvmWY8V8cF31UjqKpZXEbL'
  lat: 40.083331
  level: 6
  lon: -88.202167
  name:  'Urbana''s Time Capsule'
- ap: 6285
  img:  'http://lh6.ggpht.com/UXx9XSWX3zuym6SdX68IXNFYcpnbhGuF7Zk3taO-TJ2VI_LvwmooNWjUHb8OIgKsjyto3PT7YU0D-Y7HW7c'
  lat: 40.077643
  level: 6
  lon: -88.208694
  name:  'El-Ahrairah'
- ap: 6098
  img:  'http://lh5.ggpht.com/aeGh3iXJqJ7skg-2JHEpngMSfcp1qDIEPoLMxzQNqbS5Y7HcxN7oE789bXiVFoFIcdCn7-3AhLPtxT_WE2E'
  lat: 40.0985
  level: 7
  lon: -88.248681
  name:  'Siti Sculpture'
- ap: 6098
  img:  'http://lh4.ggpht.com/PHV-1ZpFzCAl_ViCKwBY_x2pIDbVyaT7wJH1sTvFJCxrSdRrO1x7NaXq9OdRGwz_Mls4iwk6wuGHMBArfV54'
  lat: 40.098688
  level: 8
  lon: -88.25063
  name:  '"New Holland Yellow Dinosaurs" at Hessel Park'
- ap: 6098
  img:  'http://lh6.ggpht.com/qSCp5fQMlyCQ-GOAgiSFy5gaHJei705Pa3eOlJiYO5wGjZTYtjA8q7QWWfAWcLKjxZSaFiMfXOPR8SO7rWU'
  lat: 40.099353
  level: 8
  lon: -88.251876
  name:  'Raymond B. Cattell Memorial'
- ap: 6098
  img:  'http://lh3.googleusercontent.com/Tixp17uCaP682s77UzvCwWCOE6vg7iB2qEFLjACq7xtVJdHE0K3yKYsl3_SwKbiUfQWwgTQRbvfka3U0NvNc'
  lat: 40.098819
  level: 8
  lon: -88.249214
  name:  'Bette McKown Honorary'
- ap: 6096
  img:  'http://lh6.ggpht.com/WA_L9RXB_ZwCyxpgQ7Lyjp1-4xTl5O-BQohOBQcoEMnP7-wKp--MGUdnY_DPuCGZ78-x0LtEWc8FT2n9QMPS'
  lat: 40.148879
  level: 7
  lon: -88.258423
  name:  'War Veteran Memorial'
- ap: 5909
  img:  'http://lh4.ggpht.com/Ww9lgcscjGtB0ieiqyf2qK2ZzV0y3mZVpoi5ZZdPpArkbOa2B5aNli_k7t86GjD7eAeEFOw8W0oZvfr61S6Kxg'
  lat: 40.139196
  level: 7
  lon: -88.257755
  name:  'Market View Fountain'
- ap: 5909
  img:  'http://lh5.ggpht.com/Sgu5qG2Ltp9axQc8nEr3fJ_qvNo6-gwd5TuKMrk2LM9d5P7DDy0oCoWiGnr6Ybp84FGMh9DQYLnFtBTZtBIm'
  lat: 40.113606
  level: 7
  lon: -88.243766
  name:  'Mural on South Neil St.'
- ap: 5909
  img:  'http://lh3.ggpht.com/HX3mWBGofQk08Qdp7A6KMK1AnSXlLEPJR-n6oeX69Efiiss29GHsLiDsHhRS5K8DrXh-QXP1T0AMaOsJmx_w'
  lat: 40.106921
  level: 8
  lon: -88.230145
  name:  'University Lutheran Church'
- ap: 5909
  img:  'http://lh6.ggpht.com/Pvgc8EILl7jWftQ3dvPTZTa98KpCUdaq9yHkecl-ZIKR_whDQCQrKSwrdX56lqH7d7ma5TsbyH70RvcdhLSp-T_4IjJqzXAbRhLMMkEpNo9gayrY'
  lat: 40.080493
  level: 6
  lon: -88.204819
  name:  'Molecular Reflection Statue'
- ap: 5909
  img:  'http://lh3.ggpht.com/hZulWSNApQFnDW-rnL3Fu95nMq2pO60CHDwUislaEOwUfLfJymLB8M4-WTugDbUq60zu72Cn2vLHMFFf5IxxNbp6rsbl9bAHHAlqFVlgckw_gJM'
  lat: 40.079765
  level: 6
  lon: -88.206953
  name:  'Connectors'
- ap: 5722
  img:  'http://lh4.ggpht.com/vxjetUOC6_S8Ru3Q1ivzG4NE4bAAWg7_opiMwStExCoUHiRaIab8NyXLypEOAo7KBtsRQRzJX-TimhsOlBu3'
  lat: 40.087121
  level: 5
  lon: -88.251406
  name:  'Amdocs Shelter'
- ap: 5722
  img:  'http://lh3.googleusercontent.com/vJ_iyOb44eFzOJUNpRouOPDI8rKgOESn7TWw9U9BR3OcWsb6Oak-SSfVH4iPPmtXJdk30rqet1D0KxVohiBC'
  lat: 40.114712
  level: 5
  lon: -88.238392
  name:  'Mexico Mural'
- ap: 5535
  img: http://i.imgur.com/5j1qaiT.png
  lat: 39.550414
  level: '?'
  lon: -89.296045
  name:  '8056138cea6847df92401a87563b3c46.16'
- ap: 5535
  img: http://i.imgur.com/5j1qaiT.png
  lat: 40.879885
  level: '?'
  lon: -88.665628
  name:  '75d391a42a3b435ab916b6bebedf7da7.16'
- ap: 5535
  img:  'http://lh6.ggpht.com/hPutcAvS7zQN-tagfEY-fvkvdlgj7j5sZwUSLY883Twc7tHyslIAp7lzWYciJmCytDfsbFQtavAlzqGwCgFZkw'
  lat: 40.105562
  level: 6
  lon: -88.234991
  name:  'Acacia House'
- ap: 5535
  img:  'http://lh4.ggpht.com/HEEvU2OlgWiV5huAu3cvNKaI-C8YKYTO3qB8WMTO7EbsjTO84KS6jLjbGCq7THZq6l63UiUKCSEqY2IADYns'
  lat: 40.091766
  level: 7
  lon: -88.250003
  name:  '"The Cranes" at Fox Corporate Center'
- ap: 5535
  img:  'http://lh6.ggpht.com/PrKWQe_StHjP7QQeyxlKiMSxAelIQlmbHzFMejewhMdVT0J-uvMpZCUGvQy_dZfrqfDnkmrIZYWkZORSGrnp'
  lat: 40.088449
  level: 5
  lon: -88.251396
  name:  'Boots''s Garden'
- ap: 5535
  img:  'http://lh5.ggpht.com/yK94cjys6dDm62pDsBwEKJP8ioxZEFbb2oelmT5ZMmaNZPkqAXW00NHP3_7fvtyG796u2ZhKGfbY7To9Sdtz'
  lat: 40.088063
  level: 6
  lon: -88.248271
  name:  'Still Waters'
- ap: 5535
  img:  'http://lh5.ggpht.com/k_9eqZVvGcr3ZNyeeSNDM1-Y7od35KmnQQptB9usrdpTdpGW2c_5-12rYy9hGazdx7qhlYrEXxaJ_ZIVFywlcA'
  lat: 40.106706
  level: 7
  lon: -88.232116
  name:  'Illini Tower'
- ap: 5348
  img: http://i.imgur.com/5j1qaiT.png
  lat: 40.470135
  level: '?'
  lon: -88.366192
  name:  'b2be45c432384a99bb7726a2f0a8b6b3.16'
- ap: 5348
  img:  'http://lh3.ggpht.com/AD9d7JPmLdYRdpxESO9iORy1GRXAcN1jzn8dDNvm6FO7cIHVsjwAKI8LmbW4dico1Xe9jzJfsZZriP0CxXA46w'
  lat: 40.104084
  level: 6
  lon: -88.241616
  name:  'Honorary Memorial Steam Ventilation Pipe'
- ap: 5348
  img:  'http://lh5.ggpht.com/qq3QmeyCYxWnJF_DzzI5wVvHF4foNyr_bF3_j5eVPHJ1omSbD2INOifPJEO3pjz4X1l4_wMGD4uOT1_w6Tid'
  lat: 40.086713
  level: 6
  lon: -88.248293
  name:  'Garden Patio'
- ap: 5348
  img:  'http://lh4.ggpht.com/aQomBYYXuWBUbnpgDH92zk4VBmLMOuf5n6WXkMHGTzf1DUlyXL-u4a9ulFUrqE5AO82s_LFM126E-B0HqONp'
  lat: 40.088127
  level: 5
  lon: -88.253036
  name:  'Peggy and Robert White Garden'
- ap: 5198
  img:  'http://lh3.ggpht.com/Du0TJmMI1dnX36-rCGs6310UXd29Ay1bttUFdbpIrAA2wGtULNMGT_z3Un2VNx9iV4CxY5Tg8ZO5GpMjnmAQ'
  lat: 40.083189
  level: 5
  lon: -88.202092
  name:  'Twiddle This'
- ap: 5348
  img:  'http://lh6.ggpht.com/OeWiEqijQeAf256S5XDmv8VIj-SUQ0QHnet5J28ThcRwPEYY7-uk4CXixqualhlYxTcgKYe55FOcK_Ov7BE30jWvWzeBabSEra5jDLx3ZGj-XSs'
  lat: 40.08069
  level: 6
  lon: -88.20463
  name:  'Swift'
- ap: 5161
  img:  'http://lh4.ggpht.com/B_I1b0Jy3vW41RX8jjCNPP68AULplU0Pf8ddolyKmpEWCfBVShQkmjF1HfTPzDjmBBQGgOs0jHW-rUR0mv8BkA'
  lat: 40.098789
  level: 8
  lon: -88.251685
  name:  'Curtis William McKinney Memorial'
- ap: 5161
  img:  'http://lh4.ggpht.com/DJiaqGgwCaKSjYczELIcjQOeBtoEqd--7TZYBJWO9_Nd16vjKwlco9tKatJTdAKT1CPoO7Cj39_rZvp8p0Ch'
  lat: 40.087241
  level: 6
  lon: -88.248222
  name:  'NCSA Blue Waters'
- ap: 5159
  img:  'http://lh4.ggpht.com/T-65fHAmnGmht8xdcXCF8weDy3uDecS4uOASIFtQBn7v84jrUpS3m9_rbJ1MNz5Syzjr8g_zO6YPklMYjlZQ'
  lat: 40.13695
  level: 7
  lon: -88.259966
  name:  'Goodwill Donation Center'
- ap: 5159
  img:  'http://lh4.ggpht.com/ik1uVZ-KWyRH4dh51LJI7gFmnM7bmfSZ-1YqfELbVQEvuo-gEx2QpG6jQpFPeAlFPi2rVPAuzRmXMD0Whsm2HA'
  lat: 40.122038
  level: 7
  lon: -88.245318
  name:  'The Old Residential Block'
- ap: 4972
  img:  'http://lh5.ggpht.com/xcqe13f85fuXohGUUBZkNrUU1PunkcZ6xMNmHpAp0GJBtydVqCCGj5MqP3Uax4M7Qq4JzDFGqICFrFb6PNEXRw'
  lat: 40.08932
  level: 5
  lon: -88.251883
  name:  'Boulware Trail'
- ap: 4785
  img:  'http://lh4.ggpht.com/vKkSwERLa3zQO2UUIiYl1AEruAx1QTPcP4jSmPt89PG4AviJ1WhlVVH8qmqJ0aY2gqJmHcqdZFcM2pQconc'
  lat: 40.139375
  level: 6
  lon: -88.272793
  name:  'Salt And Light Ministries'
- ap: 4785
  img:  'http://lh5.ggpht.com/QruW49d2dc1uhQlK1BaZIeo6ruDNkqQfmvZz83eQ-1aC9ytGUcpFaHnKRTnXRc70F2EZ0-pVKGr9Slo0_9RfxA'
  lat: 40.139749
  level: 7
  lon: -88.273955
  name:  'Northside Church of Christ'
- ap: 4785
  img:  'http://lh6.ggpht.com/vqiOPPON1phvYOdOmbFDrxhN6cbYjeLHVgH42EV0XsJjVNd81EM1DKY_aRVM-rwJ9Il5tLc3QsL_gOS4qAkF'
  lat: 40.139891
  level: 6
  lon: -88.257367
  name:  'Market View Baby Fountain'
- ap: 4785
  img:  'http://lh5.ggpht.com/_gJqtOHLZ9UHsmd_iLjxMsPw5eF5YzqE63qEAzURvSp_3OL9ZrPjM-usiUeYx95b7zTdNodab42cQiyiRRja'
  lat: 40.087835
  level: 5
  lon: -88.251299
  name:  'Amdocs Shelter'
- ap: 4785
  img:  'http://lh6.ggpht.com/WVVbmiu2GGTnPTszcnYYILHKlkZDoxB-QY6Yv7YPoUfdVn92jYnKjpVKNkfWdFrPjq-BaFeKGJWLZlE-bbA'
  lat: 40.120467
  level: 4
  lon: -88.2577
  name:  'Salvation Army Church'
- ap: 4785
  img:  'http://lh5.ggpht.com/X-Tq3QbQ3JvCApWIGFxRwDJId7aLa8hY_ka0eU3QySTcZBgXcbPC4UXEQ9VVMsA-dYRxGqAdCotw-q7dby8f'
  lat: 40.088412
  level: 5
  lon: -88.251667
  name:  'French L. Fraker Memorial'
- ap: 4785
  img:  'http://lh6.ggpht.com/pxaCt7clhIXc1RVGMMJZsmnbEWNWjFYJiUrQMev_SeOmXBothvOzmfnirQ5_W8CMa7hpigqydQhKMa4XFCAi'
  lat: 40.108173
  level: 7
  lon: -88.230209
  name:  'Mural on South Sixth Street'
- ap: 4785
  img:  'http://lh5.ggpht.com/kElaGOaV9aI8SrnM1D65gx9J0Ky1AKrN9Yo-pXVmDhELt2pee4MwVRiCqCmlqWzUWj5pS33GnEzAiXmiWKsw'
  lat: 40.108111
  level: 7
  lon: -88.229625
  name:  'Illini Sports Mural'
- ap: 4785
  img:  'http://lh3.ggpht.com/7bgelseGarzAjQzGod3J4OO3H3gx7YcHuwtoT6Lx2LrV84TbmH4I8GW92yROJO9sJFi_vFLaKy0frUM7C31B_Q'
  lat: 40.083561
  level: 6
  lon: -88.203382
  name:  'Yikes'
- ap: 4785
  img:  'http://lh4.ggpht.com/ojeB36C4pFrkpUOLeRf1wlevsVasnc0hxMgCCqBw0bmWLkPKciRkj06rLhJaSpLFbnUhIn2WqKdmVVVYGBw'
  lat: 40.077334
  level: 6
  lon: -88.202929
  name:  '"Marker" at Meadowbrook Park'
- ap: 4598
  img:  'http://lh6.ggpht.com/QhX7LQjknZJxL4GjIVRORINW4Ftw5F854uaMsoIWpHQNzoc_1c8nRxsoxw27U0InC7UZkcxueRyo8sqyTD7-iA'
  lat: 40.113262
  level: 4
  lon: -88.257966
  name:  'Grace Lutheran Church'
- ap: 4598
  img:  'http://lh5.ggpht.com/93SMm7gYjGLu_6bFOqGL5MXKxKF_NsnHuxiDyywI_Jrhz-LaQoNlm0yw7lG0I9rhp5vnHkATk01A_CNYmYf-'
  lat: 40.128358
  level: 8
  lon: -88.243471
  name:  'Champaign Church of the Bretheren'
- ap: 4598
  img:  'http://lh6.ggpht.com/Jltxi7PZ9OVi8hBCUxdt9oxXQk9zmbrtHpM_jru2WhVYyY0UkNZ8h5SU3CdwMRNzZ1ZKabPR8hDCPz7p3Ms'
  lat: 40.114439
  level: 7
  lon: -88.245013
  name:  'New Covenant Fellowship'
- ap: 4598
  img:  'http://lh5.ggpht.com/6MHa8mHyPoZr8QcAXRVJp6cTJ-Besa5bB801GzhlToXL5ff4Zg6U6VtnrbMINQ441jCzYNZDWNxHIBtf7VXvVw'
  lat: 40.087719
  level: 4
  lon: -88.253446
  name:  'Milla Gross Memorial'
- ap: 4598
  img:  'http://lh3.googleusercontent.com/pYGYCzdOo2RX46MuyUVPGExxz3vVjAYCerSG06O3aGWbr302Vmw6bhoapK9LjwYEuZZ17xDHUfLw765dCYfRUA'
  lat: 40.080163
  level: 6
  lon: -88.207829
  name:  'Windmill at Meadowbrook Park'
- ap: 4598
  img:  'http://lh6.ggpht.com/k_7DcxCHlkFP0CTNHoTY5V3-yA-EKIuGisBB8E77m940i61vkhvgHMsmxpNBkUhVm6Oy2XzndXI9_HF9MNJt-bahjS2gelImbCJmBrpBHpGW9VvA'
  lat: 40.080794
  level: 6
  lon: -88.203294
  name:  '"Fluke" at Meadowbrook Park'
- ap: 4598
  img:  'http://lh6.ggpht.com/o5v6x0IS1pBK2dWUvxkTn4pb6FfZnj8RLeXKDhPtC9Db_KQTVRqO-ye9oQATUZIczQsTyfBFXI1KvNsP020ZCc1BpubNrbvzVaKrsMTRErtsBNDb'
  lat: 40.082594
  level: 6
  lon: -88.202694
  name:  '"Here and There" at Meadowbrook'
- ap: 4598
  img:  'http://lh5.ggpht.com/i_8huo_CxMxwTgcukj2dHefx7TgK3uMShcy5UJPAMHS9EfTTWEsWq2FpQew2G7N3KnatQxJjlQekJmvjhqc'
  lat: 40.078738
  level: 6
  lon: -88.208631
  name:  'Open at Meadowbrook '
- ap: 4598
  img:  'http://lh4.ggpht.com/efOG849cf8EKwVLL2BfNKzwBdkrAuNsMeYOZfeR8FYnK3axQJJON0VH191MLBwjJaQ1EeQC9Pt8LMtNI2LEa'
  lat: 40.07718
  level: 6
  lon: -88.203511
  name:  'Denise and Ernest Walker Grove'
- ap: 4411
  img: http://i.imgur.com/5j1qaiT.png
  lat: 40.483316
  level: '?'
  lon: -88.914428
  name:  '6840fb57214f4b9db6f128ec0bcf9e00.16'
- ap: 4411
  img: http://i.imgur.com/5j1qaiT.png
  lat: 40.482892
  level: '?'
  lon: -88.913904
  name:  '6d2e2f3aa0c34d58ae2e7f4a4f648e45.16'
- ap: 4411
  img: http://i.imgur.com/5j1qaiT.png
  lat: 41.325889
  level: '?'
  lon: -89.199728
  name:  '5741123e7ac6495ba259b58a9031d735.12'
- ap: 4411
  img: http://i.imgur.com/5j1qaiT.png
  lat: 40.587534
  level: '?'
  lon: -88.383109
  name:  '7d3052ee9a6f48adb54198b1868f2fe6.12'
- ap: 4411
  img: http://i.imgur.com/5j1qaiT.png
  lat: 40.463893
  level: '?'
  lon: -88.365929
  name:  'ffb4879e7e5a443aa5ec0b49bc840acd.12'
- ap: 4411
  img:  'http://lh3.ggpht.com/LunaMtSKD9yiLQClolDY-Iqh0ENm9AgJdL4D1QxGs0j6TXPgqxDZea35x5ilAfeI5_0TGh5x1q1EqRsJsLFi'
  lat: 40.114111
  level: 7
  lon: -88.243697
  name:  'Champaign Surplus'
- ap: 4411
  img:  'http://lh5.ggpht.com/wX6-mbTE7nT00T6ildapKbI5ZrnhPIt4l91DhMseyo3GYFrgQIuqbjh8ntZY6NxGZ-qa6fKWlyoBOPdIdNIt'
  lat: 40.114653
  level: 7
  lon: -88.243729
  name:  'The Phoenix'
- ap: 4411
  img:  'http://lh6.ggpht.com/yjfa0jJLjsfLRf9Zn9iafMp3MuIhgCi0WiOCF8GqTGiGvzEnsPGrFa0H1n-uzWhVehLbt44ShthsA32VzHd5iQ'
  lat: 40.099737
  level: 8
  lon: -88.251157
  name:  'Tyler Van Atkins Memorial'
- ap: 4411
  img:  'http://lh5.ggpht.com/tfAfnmo6mSMc6U0P533NMFJRGwn6lasmx-MLR2JJg1QOizMKkghFU8E7hb2zgYgdQEbgnCJUlvZIMdrrJe4'
  lat: 40.100822
  level: 8
  lon: -88.25193
  name:  'Seeds of Kindness Bench'
- ap: 4411
  img:  'http://lh3.ggpht.com/8FqlniFErK7cq59awiT84u8KyV4FIRd5krZzfYa58zJToFps7whdBnriPqvO_kFKeLUE3SWbJhCOPuvUQzaGFA'
  lat: 40.100691
  level: 8
  lon: -88.251337
  name:  'In Loving Memory of Zeus'
- ap: 4411
  img:  'http://lh5.ggpht.com/N1cFx79JwZqPlYPDW3HkNwRX8N4Auriii45qzYkAx9l-cKeK81qgZ6nuBpTBEIOyLzy4aIIhQKt2E7ZiysSjkg'
  lat: 40.10036
  level: 8
  lon: -88.250515
  name:  'Mark Foutch Pavilion'
- ap: 4411
  img:  'http://lh5.ggpht.com/HhVreJipNvxPRVFpmsh2BPo9PcpPO2Q2l3jCpDjIKgfKGycoTNPXR4DKiYccBXW4X-4dJf_vV0ESsWAWHcChsg'
  lat: 40.100936
  level: 8
  lon: -88.250855
  name:  'Donald F. Bresnan Memorial'
- ap: 4411
  img:  'http://lh3.ggpht.com/Jjm7ZUINFebdUQM0ZQth9oP9Uyw8xFVkOvgyZHQPHJ1pHk0-WPWHpdBULljg6f9GLhbmItzSwpavqyrf1zXwIQ'
  lat: 40.087721
  level: 6
  lon: -88.248276
  name:  'Work And Play'
- ap: 4411
  img:  'http://lh4.ggpht.com/aFcisvUEjvw8cW_JZB2JIOpPXr_cWq9tGzjT65AMZfaR6Dwevg8S6dfNMTVswut9cKOr9-SCQdSqoOnQ4c1Q'
  lat: 40.087914
  level: 4
  lon: -88.253489
  name:  'In Loving Memory of Robert and Elizabeth Grubb'
- ap: 4411
  img:  'http://lh5.ggpht.com/AsiP7X99phJsAWWLusxVx9jztxrqq-wjSe7AQS2KrK6muMt4sB3UIjlshPNUA13BR-o8cX70DxvhbxODvrY'
  lat: 40.087526
  level: 4
  lon: -88.253714
  name:  'Plotner Memorial'
- ap: 4411
  img:  'http://lh3.ggpht.com/rlm0tE7Js-ApRSIfi0JxzxMVzrls50Gpr-Dbml7uBn7o0sCMtpiVa81HJc88eD0VlJiuzy9UTBFPebVcw-GK'
  lat: 40.087494
  level: 5
  lon: -88.253476
  name:  'Rotary Club Meditation Garden'
- ap: 4411
  img:  'http://lh3.ggpht.com/ugJXpaIWZ-wI1vpderJmQjM8r0T5_Li2j4hvvsu4fRM9k3MeBpETqj2LFNd1pEkcfH0I9bgZh--5g1AEJKkq'
  lat: 40.092745
  level: 6
  lon: -88.251235
  name:  'William C Fox Honorary Plaque'
- ap: 4411
  img:  'http://lh3.ggpht.com/_K7sIxE489M-QkUoRrgaLB_XBi9BcOI563VzvhOcmhjwHsLO51ORrhkiWZkqThKNBlPAYzclT_qdR_sGe8g'
  lat: 40.114277
  level: 5
  lon: -88.238879
  name:  'Prow 2'
- ap: 4411
  img:  'http://lh3.ggpht.com/-xag7tp3BReTAhfRmVAvpMw1Af15prESg4rve7QnsiIC5IKmKjBszxDIj8F212BmRU1apH_2u_9wAmq58_91'
  lat: 40.114157
  level: 5
  lon: -88.238621
  name:  'Bombay Indian Grill'
- ap: 4411
  img:  'http://lh6.ggpht.com/LJB7sU5C-p9Dsf4gZ7RkqrEbfZnlh-rR33SARIHJOOUld5Lhb6_CH4gN1rtHGaLP4sPAsl8gN6mFkpl7ZQ5_'
  lat: 40.081475
  level: 6
  lon: -88.20239
  name:  'Prairie Buoy'
- ap: 4261
  img:  'http://lh6.ggpht.com/gKoAVfAXPNcc0cL_CNbiCdHIsPyUbMbJmy6o9XlvmyVEcG71RrD0Zj1NmWw9sbPBd957NYMtr7u-eLKY8jGQHw'
  lat: 40.083528
  level: 5
  lon: -88.202233
  name:  'Fathers & Sons'
- ap: 4411
  img:  'http://lh4.ggpht.com/Ad3EyxZM9v5cjmOiED5nr8Hf1mHtOMXrJtjU_U63YfE8lgUjAteiDYuYxND-ybx6tARUErULHJBDhgoDIblz'
  lat: 40.077349
  level: 6
  lon: -88.20659
  name:  'Bruno Schielzeth Plaque'
- ap: 4411
  img:  'http://lh3.ggpht.com/N3joo2vGiOAq-hh0peo2upcDO7iyxx1XC_6L1CBWIQ2PhXEpR1UI3dtCOYHcM8pchVwGj0GyVko-qxrGx3Q'
  lat: 40.078315
  level: 6
  lon: -88.208939
  name:  'Sunstruck'
- ap: 4222
  img:  'http://lh4.ggpht.com/-2q6p_jcZ5xVswdwpO98pGsMWXnqxUlsBmhWA2F6xs0MbwejV7FTN7-kHSb4nlsfg3uUsrvdDmUM5v1lQ-Ia'
  lat: 40.086252
  level: 6
  lon: -88.249351
  name:  'A Lady Waiting for the Bus'
- ap: 4222
  img:  'http://lh5.ggpht.com/Vr_4ImpNKaqK50Ic81rBi87YRc7CGxn1wrgok5oUZwCy-NYWdCYcePOKUERBtPb_hxa_Z2Dk395t7M01M6sp'
  lat: 40.081821
  level: 6
  lon: -88.204706
  name:  '"Balencia" at Meadowbrook Park'
- ap: 4035
  img:  'http://lh5.ggpht.com/V9AFUiWKES88x0FruZILBXEBv1d476XQMgH8JsCHDQgvjDvk95Mgjf5vcl-Nx7CkPvfhwVGIrvB1EA5Tlh2j'
  lat: 40.132437
  level: 5
  lon: -88.29022
  name:  'Dr. Ray Braun Memorial'
- ap: 4035
  img:  'http://lh5.ggpht.com/BkbaZlRlq44d6DiMOVuIlrel2Hsi_RzzHhhdmJH6BLzJk5RKxAcvh2mMd93BFhKgTKLk-yZsNLTaJiTbZsk'
  lat: 40.086686
  level: 5
  lon: -88.252282
  name:  'Elsie Mattis Springer Memorial'
- ap: 4035
  img:  'http://lh5.ggpht.com/YaIKBanBs_Nk5kstDaA9jBqnvY9vRfXO2YuO21JwbSo1c2OiJZvSlWe3x_6vyCPb-NZKQSBmnkOstTytpNxw'
  lat: 40.079832
  level: 6
  lon: -88.208385
  name:  'Herb Society Garden'
- ap: 3848
  img:  'http://lh6.ggpht.com/wk0l8Qe7j_Ph_LhyPvdNO6g8nwrxpswodrbNuOzLa3K1QNBrIVidi9iztmDXu3HtCWo5TpqDDjPsEbSl2aWUKg'
  lat: 40.144554
  level: 7
  lon: -88.248689
  name:  'Town Center Park Champaign Park District'
- ap: 3848
  img: http://i.imgur.com/5j1qaiT.png
  lat: 40.245226
  level: '?'
  lon: -88.3081
  name:  'Jersey Cemetary'
- ap: 3848
  img: http://i.imgur.com/5j1qaiT.png
  lat: 41.291981
  level: '?'
  lon: -89.505371
  name:  '35ddc311f13947e3890d4206f42a5694.12'
- ap: 3848
  img:  'http://lh6.ggpht.com/JgD9-vk2pVIQENqssLAn_4Smd4aFydCLSHsQWVF4D4gn8xxgO5PTgDfjr0DKtVdau2_ZQc7RR-gYrOaMwStSRg'
  lat: 40.143345
  level: 5
  lon: -88.256693
  name:  'Captain Morgan Statue'
- ap: 3848
  img:  'http://lh3.ggpht.com/wkPcdDupubV3THJo6r2OpMtshziiIkqBISPTCPe8boa-8nH33u83Mznkr1yYWNR_l60RCy8HO_obqrdNGUI'
  lat: 40.093633
  level: 6
  lon: -88.246611
  name:  'Fountain at Illini Plaza'
- ap: 3848
  img:  'http://lh6.ggpht.com/ZpJuVeWuDsVo9oPzh9mGzFjeTz2FQluKlriJijNL29HFEEWmMBqok5fCxVis8MpHqJYCBQUhRLNU9yuE7luP'
  lat: 40.129233
  level: 7
  lon: -88.238696
  name:  'Bristol Park'
- ap: 3848
  img:  'http://lh5.ggpht.com/WtLGJ5PPeFPGSKegRKCurNiGVHvfV53LdGHbVkCfDXxVvUpneEqngOPUTZJgZL4RdA1_YVGUXlpWs0ZDr6OH'
  lat: 40.086378
  level: 5
  lon: -88.251308
  name:  'Life Lessons from Kimberly Kueffler'
- ap: 3848
  img:  'http://lh5.ggpht.com/FeahTnHcc-Tb0sWOd6cQiYz5QrczzT5-Behz0KlyeiGyzYhvAlNlhPI72BVkREal1tU_4g4r2UklF7lcQgKr'
  lat: 40.087292
  level: 4
  lon: -88.253528
  name:  'Agnes Sweikar Memorial'
- ap: 3848
  img:  'http://lh3.ggpht.com/by946OhJ5ooOkbG4f662qjbXqvrQAd98E36mSJLgTsLgL_tb8GDpNxTOEhtgsjEhY-OzKmRxAmLFbYPscSH6'
  lat: 40.101619
  level: 7
  lon: -88.233644
  name:  'Taft-Van Doren Hall'
- ap: 3848
  img:  'http://lh5.ggpht.com/W3y0aDYTuLZ7E0KYzawIeqddSRPOrY1oAV8peDaDhUsxn_hKEJ1O4XyO_JF2p0ORGwae1oEwE5oTkJ_1TMDA'
  lat: 40.080601
  level: 6
  lon: -88.208399
  name:  'Urbana Parks Department Gardens'
- ap: 3661
  img:  'http://lh6.ggpht.com/v2m1E6vVK4ZRaRPhGli7jCsG7xZQZ7I3vV_5AogdEpPU_A1vz9WEkH0vZ-vau2IAdmydYJcXrOA6SMr7vUfT'
  lat: 40.128726
  level: 7
  lon: -88.290287
  name:  'McMillen Ehler Homestead'
- ap: 3661
  img:  'http://lh3.googleusercontent.com/mFMoKbSLtdP7TnaDrMHLxDWN1FGdQeY6BuKqxtEYSN--Sp6L7DgrpNlGARlPutxd0UNQuEW3WwuNl_Hny6_1'
  lat: 40.13183
  level: 7
  lon: -88.288788
  name:  'Student Union Building'
- ap: 3661
  img:  'http://lh3.ggpht.com/K-b9T4FjMxrtkS2Awkze3fELfwY2Va92gMQloHtHf4bfeKPPRzOUJxaSYYi6-OHHQbpDVY3ONWwPgIa78fBX'
  lat: 40.118332
  level: 3
  lon: -88.250276
  name:  'Mckinley Aquatics Center'
- ap: 3661
  img:  'http://lh3.ggpht.com/HW1b8GEkWmutU8Hsv_zX2TXNh-iirGoXN5HmxCJd5nc3o1VeCkahkCZ_vbSxOB_ffrBlWW3M-LLMSo97tg-c'
  lat: 40.123709
  level: 3
  lon: -88.250518
  name:  'Spalding Skate Park'
- ap: 3661
  img:  'http://lh4.ggpht.com/ZEK-DXu7TJqsrt7cbLRjXyr3JbENJCn1FaKxH4Oi6kEvo4K0Yzm5qzMddhRLNlXvokAwQoeG4EKaNkXnJDA'
  lat: 40.114015
  level: 7
  lon: -88.245256
  name:  'Firefighters Park'
- ap: 3661
  img:  'http://lh3.ggpht.com/DpFBT6YsInBvoo-6DUZeryDpITUgNnrw3j-iMPdeg6S2h9pL4DSqJLbMzsMqmLRwgJKLHa-xMVjHKDoSqwE'
  lat: 40.089107
  level: 5
  lon: -88.251579
  name:  'Donald M. Decker Memorial'
- ap: 3661
  img:  'http://lh5.ggpht.com/EaT0PxhOud4vjm0kHYMit1zq4b2aTjV4M2olWNI-rM0oUVFeEI4kgeWGcrbk_EvcGBz6hwrN_wYLDLK3CUBi'
  lat: 40.088861
  level: 5
  lon: -88.251811
  name:  'A Flagstone Garden in Mattis Park'
- ap: 3661
  img:  'http://lh3.ggpht.com/swF7asGHDD1L9hslewSBg2z-tocpd_HXkIYuOmz739SWxCj8KBqf-kcOPOFPoE8pLXKDxR6Z8jAJ8Kx7Fbnc'
  lat: 40.089334
  level: 6
  lon: -88.253652
  name:  'Mattis Park'
- ap: 3661
  img:  'http://lh6.ggpht.com/MzDfG6eMMwVr56zIpVxRJKU2aoUq-95CLeBhoiEQQKzpC2zulq5jFDLv1IK0JcRy5Q0PhRAreZ1p2ElsdnNu'
  lat: 40.108048
  level: 5
  lon: -88.226279
  name:  'Nuclear Magnetic Resonance II Plaque'
- ap: 3361
  img:  'http://lh5.ggpht.com/OF0rdXnVnZe6syFsa4G9CE6iyvhfoYQN3QH9RESyB78MTKDC2NXYJuVd0TAnACMccmsKXhNcBH6qzWy9DPQ'
  lat: 40.105073
  level: 2
  lon: -88.231952
  name:  'University of Illinois Armory'
- ap: 3661
  img:  'http://lh6.ggpht.com/BzDhCANV_iNTHhKFBGLuaUqOvChRZtPWnJ2Xk4h7NsKJHmTGgCWtFHWv2PpDA2fCsHHKSCRTrUNK8AKrLRnS'
  lat: 40.108066
  level: 7
  lon: -88.230687
  name:  'Community United Church of Christ'
- ap: 3661
  img:  'http://lh4.ggpht.com/zAxC11GCLRrj5wlF-U0mbjaisXjS5ukHSkGR5sVCfSWYKSlV2kxvtrD04m3n_XzT59XQ1xyf4ctzShUNem0'
  lat: 40.080381
  level: 6
  lon: -88.209174
  name:  'Meadowbrook Park'
- ap: 3661
  img:  'http://lh6.ggpht.com/ARxGPDwwD9zGWfT9onLvNXRMYpYW0G7tL4osRfuUfWaG2wAJR486QSRQ_1dw-pJZMHccKUnSShoDVMijLRTh5g'
  lat: 40.07961
  level: 6
  lon: -88.209169
  name:  'Wildflower Walk'
- ap: 3474
  img: http://i.imgur.com/5j1qaiT.png
  lat: 41.326376
  level: '?'
  lon: -89.19721
  name:  '5d33a48d058f4fda9668d53e91da2a1f.12'
- ap: 3474
  img: http://i.imgur.com/5j1qaiT.png
  lat: 41.326277
  level: '?'
  lon: -89.196515
  name:  '97a92e0e5fcd41d3be3d6ad09e383767.16'
- ap: 3474
  img: http://i.imgur.com/5j1qaiT.png
  lat: 40.038713
  level: '?'
  lon: -88.597587
  name:  '90c6bdbac79141418869f2c6a1e74ff5.16'
- ap: 3474
  img: http://i.imgur.com/5j1qaiT.png
  lat: 40.396282
  level: '?'
  lon: -88.87253
  name:  '983118fdef6b4b20b7d5188ad0f89af8.16'
- ap: 3474
  img: http://i.imgur.com/5j1qaiT.png
  lat: 40.00745
  level: '?'
  lon: -88.574966
  name:  'ac80b809cf9349bc8c760ce00d822a12.12'
- ap: 3474
  img: http://i.imgur.com/5j1qaiT.png
  lat: 40.482404
  level: '?'
  lon: -88.913566
  name:  'd42f6a1f502648b188249afe9c11e503.16'
- ap: 3474
  img: http://i.imgur.com/5j1qaiT.png
  lat: 40.743666
  level: '?'
  lon: -88.504875
  name:  '2d719dd62f7e491b860a85095e05d959.16'
- ap: 3474
  img: http://i.imgur.com/5j1qaiT.png
  lat: 40.75263
  level: '?'
  lon: -87.997967
  name:  'Gilman Amtrak Station'
- ap: 3474
  img: http://i.imgur.com/5j1qaiT.png
  lat: 40.483665
  level: '?'
  lon: -88.914383
  name:  '2d8d00426f8a46e18e59083d93a2d8d5.16'
- ap: 3474
  img: http://i.imgur.com/5j1qaiT.png
  lat: 41.326362
  level: '?'
  lon: -89.203381
  name:  '16d0420d7f2c448d80214f58daa7c02a.16'
- ap: 3474
  img: http://i.imgur.com/5j1qaiT.png
  lat: 41.326179
  level: '?'
  lon: -89.198394
  name:  '0be0360f5afa464793335e1c72b8da3f.16'
- ap: 3474
  img: http://i.imgur.com/5j1qaiT.png
  lat: 40.586402
  level: '?'
  lon: -88.383916
  name:  'd642f015efd04fc7a35f14dfc2c894d0.16'
- ap: 3474
  img: http://i.imgur.com/5j1qaiT.png
  lat: 40.457257
  level: '?'
  lon: -88.372597
  name:  'ebaa4a5573f7449399263066d9248473.16'
- ap: 3474
  img: http://i.imgur.com/5j1qaiT.png
  lat: 41.690212
  level: '?'
  lon: -88.983339
  name:  '43007b58438f46d08dcab2f407fbc172.16'
- ap: 3474
  img: http://i.imgur.com/5j1qaiT.png
  lat: 41.2924
  level: '?'
  lon: -89.5068
  name:  'a88632d6c1154609a5eb9f1fb5a79721.12'
- ap: 3474
  img:  'http://lh4.ggpht.com/9dqmZPc9OI1ON-iEnfXAxSAMX2M07pEgKUsb47vLrTrW2BW61siFLquk1fXbldWXGPg69XGdSG4wKPGS5rI'
  lat: 40.113521
  level: 5
  lon: -88.244122
  name:  'Artistic Graffiti at MCS'
- ap: 3174
  img:  'http://lh3.ggpht.com/my_h4qixFMd6jwP9asxucVH5iZ3ZW1oV4DbCKeys_8MAAp1-KYNV0YFzZtZTEd9L0ZaMl1OqucHJTPdwROI'
  lat: 40.127447
  level: 3
  lon: -88.244069
  name:  'Hazel Park Playground Dedication Plaque'
- ap: 3474
  img:  'http://lh3.ggpht.com/tXDyz6XRrR2AKSg9Rrj1z6jBG4dz7uR9qFmSUO1bWljMEw67ncNiq-2Hx3O9Fs029iRtvCV1gdlGN7pG69L0'
  lat: 40.114104
  level: 6
  lon: -88.237694
  name:  'Lo Park Fountain'
- ap: 3474
  img:  'http://lh4.ggpht.com/Nh7M4_i-advmuf0RWReev2TeUAZ57VTRzcf56-U_TuHsKcjIdqXGvbxpOccEx1CaYHKzGwI9mZVmnLdmhryGng'
  lat: 40.115557
  level: 4
  lon: -88.239009
  name:  'Honesty Best Policy  - Vernon A. Roland Building'
- ap: 3474
  img:  'http://lh4.ggpht.com/7U0YXCB_DIhnqPJyjyLpNn6kg4lU8HvKL87ddBKWq1sptvVLvCEiCuNEnghQtqDGSN2OBNcOUK9nZcYjY4Vr'
  lat: 40.107887
  level: 5
  lon: -88.225998
  name:  'Lifesaving Antibiotic Plaque'
- ap: 3474
  img:  'http://lh4.ggpht.com/9hzMj8KV-HraIucojjHAEgyMZsJAR9TWvNS-QSBB5LTYBOTwwqfTQySJ_Sz88eP3eyFWFYhx5qDVY93t8fk'
  lat: 40.108032
  level: 5
  lon: -88.225702
  name:  'Centennial Court'
- ap: 3474
  img:  'http://lh5.ggpht.com/85X0vnlHzLPww3OziBoMSVfkwq66eKQNZ9Mn6qsjghvteOQZiAVlsY80NVcsErHao0QYd9IyF7PDJyp-jaQ'
  lat: 40.101632
  level: 7
  lon: -88.233133
  name:  'Sunken Cube at Art and Design Building'
- ap: 3474
  img:  'http://lh4.ggpht.com/bYrhTw8QophdiqDG-upqJ6JX2g2tZYX4N1jC4d_cciIj4ep8oQvIgjJlfge2VCmzSZe9irj-BTpbj9Jcv7U'
  lat: 40.103009
  level: 6
  lon: -88.233215
  name:  'Mac and Diana Garret Memorial Tree'
- ap: 3474
  img:  'http://lh5.ggpht.com/Tn5ARN-X6VTc2q6atZ2WYq3c2g3gbSGXu6_vXf1MDwHfLpdTtnQ-CilBAVGvL6R-SHhq3fJ4WZI-yiJKmIId'
  lat: 40.110398
  level: 7
  lon: -88.235143
  name:  'US Post Office, E Green St, Champaign'
- ap: 3324
  img:  'http://lh5.ggpht.com/yi0V8I6S2E0v2oc1FMMtt5n823XeDVA_UcGxIRKd87LWu-xz_yY5qTWwmEbVC_STI_YNdHQYFuhNbjFafu4XW73mRfrZ5VRAGtkd1JiHBMyphaKx5Q'
  lat: 40.083139
  level: 5
  lon: -88.202075
  name:  'Southern Passage'
- ap: 3474
  img:  'http://lh6.ggpht.com/UMaVDs4JUJ1obZF_7bkt3YUS02KJCdBmvRnU0gXqrvHeFd-6jyR_VGDBUgiXtVFoAj95F7sZrvFJ1l9fe4S3sBUkt__qi77W2_jm8KR0IU_iwOYcIg'
  lat: 40.080791
  level: 6
  lon: -88.204927
  name:  '"Is It Too Late" @ Meadowbrook'
- ap: 3474
  img:  'http://lh3.ggpht.com/RDi9dMy3Df-Cf9VWDSaCohsnVa-bidVWXN6ZXu_h9yJGuQ22MI8MFwt1iA55QHtTIq5sHU6hZWbydWYFqr5PqQ'
  lat: 40.077419
  level: 6
  lon: -88.208069
  name:  'Walker Grove'
- ap: 3474
  img:  'http://lh5.ggpht.com/9T9y0bpvBrwNNyvb142IyTeakSgjhepOOFAf15hGx0cHg_jgDEhSwReqANYrDhl7giaXpGBSRLV2dRn0Or3R'
  lat: 40.077839
  level: 6
  lon: -88.209091
  name:  '"Niantic" at Meadowbrook'
- ap: 3474
  img:  'http://lh6.ggpht.com/XqG3n3J3bCj61mM2c6ByPJaWYXv51nQkx7me8714asRsez8kx_rSW4mwH2Rm8Y6Yibx71YB6kMcbAYpGch4'
  lat: 40.079324
  level: 6
  lon: -88.209124
  name:  'Timpone Family Ornamental Tree Grove'
- ap: 3474
  img:  'http://lh3.ggpht.com/gDP5JIyK5XQVuxzTukPDz7JRInXgVqjLvl1SZ1_m_ydC4VzlKAFaG92Jj7kHZGJrhTaK2-bslJBu3rBIoXOX'
  lat: 40.079519
  level: 6
  lon: -88.208849
  name:  'Pascaline Lutete Plaque'
- ap: 3474
  img:  'http://lh3.ggpht.com/SGh5Xw4MO1dVvrMemAzgB9RDDBXEv4yPJSQnS537XIPlaVnoge7FriTE0zXjRXDxMtFiaTHXXihwZpbush_dbg'
  lat: 40.077367
  level: 6
  lon: -88.203354
  name:  'Meadowbrook Trail Map'
- ap: 3285
  img:  'http://lh6.ggpht.com/64IV2qUnTMiqle4uf3QZ1RdIJnGJem9Xw1SXDvegN5IpDzOnXxPexG5rW5aPWKQFH2uzgbGOdRcAIHEHWkNtkA'
  lat: 40.116363
  level: 6
  lon: -88.210407
  name:  'Leal Park'
- ap: 3098
  img:  'http://lh5.ggpht.com/d_xORafhhRGmWQQYxORFs1dW_6uXGimDkw117yVoO46fU96UHRY1GWk3ln65AsNRtevh1vFgECrCK8gJD4Y'
  lat: 40.133113
  level: 5
  lon: -88.279062
  name:  'Champaign County Workers Memorial'
- ap: 2911
  img:  'http://lh4.ggpht.com/TlG5EEvh_SZmKrAszUcimO4IIRD2zNw36GKbS6g-pdtCXlPZTjyA4q0KavljRDq1KMCcHgxs_OfHWjVYUvc'
  lat: 40.118705
  level: 3
  lon: -88.286198
  name:  'Weighted'
- ap: 2724
  img:  'http://lh4.ggpht.com/XmQtS5vWS277-auG5r5x80jUieF2311Xfv6rWkYqVBZ3wz2cqxRtgabyzOhXn0fCpSpDD6Y_CFd9Rzti4eqj'
  lat: 40.148874
  level: 6
  lon: -88.268577
  name:  'Newt Dodds Tennis Center'
- ap: 2724
  img:  'http://lh4.ggpht.com/IM3Yvrk727rz6f1euz6nTpei6llE4E4oqn_l-WbxZIN3K6dF8pEa7wGKzbjqfr0DBRubxiNFztHBePH9-Iw'
  lat: 40.132147
  level: 6
  lon: -88.291251
  name:  'Staerkel Planetarium '
- ap: 2724
  img:  'http://lh5.ggpht.com/B8Rn2SSli9Gp6boevvgCFQmdAqu5SZyleVSIDEBfrAA-2kYvtvM5aI756gykEkV4Ycy7BQvvS-3_O-nAMllfhg'
  lat: 40.113028
  level: 5
  lon: -88.276537
  name:  'The New Fellowship Corner'
- ap: 2724
  img:  'http://lh5.ggpht.com/ZfmaOk3UM4PNzP-z0AvBPFqYLc6wAEDSPhL1cSVjXMAFSv4Jadm-hV--eP3OaJuaksphYKN5s6bhWhluTGs'
  lat: 40.133327
  level: 6
  lon: -88.280335
  name:  'Prairie Grid'
- ap: 2724
  img:  'http://lh5.ggpht.com/-aOZyLFNK96FhUdQBYhmRPZrs_PB1oiLRcrPjKwFBANQ42LxLbbHfTZVw_F01meecQXfNQwJYy7qqVh8Q0gR9g'
  lat: 40.133768
  level: 5
  lon: -88.281275
  name:  'Butterfly'
- ap: 2724
  img:  'http://lh5.ggpht.com/zdaFJ-aI4Re55DtEiADt-qd1MMBuWZqEByU3BbT-0eYI80maTD-8JB5vJgtwKPFsFk-V75s-itU-cBisa-W9'
  lat: 40.132819
  level: 7
  lon: -88.286151
  name:  'Dodds Park'
- ap: 2724
  img:  'http://lh6.ggpht.com/tenpgw5pr4OCsrdIgmmHP_sx4RHH2ywHdbNxw556d5JpHC4u64HFYqCdRSeAJgfTN_7BcUv11v8NtBdlaUV8'
  lat: 40.100717
  level: 7
  lon: -88.243989
  name:  'Rainbow Garden'
- ap: 2724
  img:  'http://lh5.ggpht.com/oCw3ZC6UKF3aiK6dkbz72dhzUsJNhOmfVjVsXJET_YP5e1p53pLTa8Dep24gLqeY9FghWE0kaAB64vvn7nq0'
  lat: 40.105008
  level: 5
  lon: -88.243265
  name:  'McCollum Park Peacock'
- ap: 2724
  img: http://i.imgur.com/5j1qaiT.png
  lat: 40.152192
  level: '?'
  lon: -88.252279
  name:  'Toalson Park South Entrance'
- ap: 2724
  img:  'http://lh5.ggpht.com/vYay8RKsCV_BP_MkeFm7se0VZoYthm-1pThiATAADleBlTsPowobgZyUoU7DUto6p5cpg9adpCcTgNR6iop0Jw'
  lat: 40.120121
  level: 5
  lon: -88.251967
  name:  'Sesquicentennial Neighborhood Sign'
- ap: 2724
  img:  'http://lh6.ggpht.com/1K0653ZxIuKpFDYjAXvWFkFii9HCrpkUZDascv0U6nSG3FskYCLjraQFxKX5q3QGemaoIvHBZzttiSoAvfs'
  lat: 40.084517
  level: 7
  lon: -88.249848
  name:  'Boulware Trail'
- ap: 2724
  img:  'http://lh6.ggpht.com/sASzuKZleVbY8UGdZnFzs0GXiOHosiNDf-GldJNSs-w2k410HzHcqBrjuvNoklKZ0G4mwuhXmvFPOMlrFXRZ'
  lat: 40.085468
  level: 5
  lon: -88.251369
  name:  'Mattis Park'
- ap: 2724
  img:  'http://lh6.ggpht.com/WtqWBwqpYTSw3g9ru5NwcFn5iK5STxWgy2kv4OUTWqwtzx76-9Msz0eqoiw0qpEYE1U4zdt9rzzNZMDNagNg'
  lat: 40.107943
  level: 6
  lon: -88.226751
  name:  'Class Of 1917 Plaque'
- ap: 2724
  img:  'http://lh4.ggpht.com/MhW7sdKYdOt__Gmefy7CMOI4_Q8_dqGGb_qolwk4Uf7b_fpr8t5QM5QiCFUOe_ZpsgAfLhPSU_lbVTX5DIEX'
  lat: 40.125951
  level: 6
  lon: -88.209474
  name:  'Give Creeks A Chance Street Art'
- ap: 2349
  img:  'http://lh6.ggpht.com/orpM1lF6sc24rL0AGIiGqg18zTkIPXvZoM2xcA-mKGbaHOESuKbO_RQrwjxW9NTZjG0QqCRU9j2goZUvangFDQ'
  lat: 40.112894
  level: 2
  lon: -88.208433
  name:  'Boulangerie Mural'
- ap: 2724
  img:  'http://lh4.ggpht.com/z_QJOP2CQWiQE36C1zzSwqnKEn7yAz55wOcleeRj1HtGTvAldWJFSigJ8ZdYQmD9UyUfFEzu7N7noscccVM'
  lat: 40.082625
  level: 6
  lon: -88.204564
  name:  'Diamonds Are Forever Statue'
- ap: 2724
  img:  'http://lh4.ggpht.com/kRHQwpjarX7HfwQLr4A30xQMO7de9l3eYpGLma1L5s-RekStFVQR9wmELAfa5uJPMOlf5gV2dSJD3kGjJYz1SLzbacRg2RpKXPScnDHAk2ncu1s'
  lat: 40.082189
  level: 6
  lon: -88.202575
  name:  '"Position 1" @ Meadowbrook Par'
- ap: 2537
  img: http://i.imgur.com/5j1qaiT.png
  lat: 40.160008
  level: '?'
  lon: -89.387825
  name:  '7bb0a855a0ad476da15c867fae0f4350.16'
- ap: 2537
  img:  'http://lh5.ggpht.com/nWEtxuKQdy0teBBue1DYmG7P3SF5-3A6zlB7GwVHBWlolAZYGq6Br78lWcF9ltFy-KeSlozXie2RmU6JfCUX'
  lat: 40.142673
  level: 5
  lon: -88.244603
  name:  'Italian Statue'
- ap: 2537
  img:  'http://lh3.ggpht.com/ehNwLdaa71H3Bylm063pawn4caIGz2rCdmmdBhAFWIuEt2kPjT8nWHDkSuoOidckWiM82FWpDSNGQqQMHiQ'
  lat: 40.098209
  level: 6
  lon: -88.28689
  name:  'First Church of the Nazarene'
- ap: 2537
  img: http://i.imgur.com/5j1qaiT.png
  lat: 41.900504
  level: '?'
  lon: -88.759599
  name:  '7cee4a550f344c90b460bc5ed68a9a7a.16'
- ap: 2537
  img: http://i.imgur.com/5j1qaiT.png
  lat: 41.843024
  level: '?'
  lon: -89.485425
  name:  'f0dfef153dc644919b274d9bca69d0f6.16'
- ap: 2537
  img:  'http://lh3.googleusercontent.com/hJZWoErzM-MuXulq4FlhlZwMbJX1Isd81GBUBVKayd57jVIVxUle3itd-1DRKo2VaNXznWr1X639fa44Etk'
  lat: 40.141919
  level: 5
  lon: -88.244611
  name:  'Marketplace Mall Carousel'
- ap: 2537
  img: http://i.imgur.com/5j1qaiT.png
  lat: 41.686672
  level: '?'
  lon: -88.983653
  name:  'a03610d18a2f4c66a26f0e15b20c7e41.16'
- ap: 2537
  img: http://i.imgur.com/5j1qaiT.png
  lat: 41.679472
  level: '?'
  lon: -88.979851
  name:  '8f63b0a141c34ec69f412a6061705387.16'
- ap: 2537
  img: http://i.imgur.com/5j1qaiT.png
  lat: 40.482592
  level: '?'
  lon: -88.913556
  name:  '94d4c2ef89bb40a99619bf872b2a04e5.16'
- ap: 2537
  img: http://i.imgur.com/5j1qaiT.png
  lat: 40.273121
  level: '?'
  lon: -88.676169
  name:  'a63c9ba7a3a6429fab01573c4828baa2.16'
- ap: 2537
  img:  'http://lh5.ggpht.com/Fl-qbQtlziD-8zSe_WfUrflOcIFP-whkkS2IjEkT19sDskVzbx-bKvw1k0Y8qaNjUpwOCjy3E4DYDTh4Er7B'
  lat: 40.074003
  level: 3
  lon: -88.255085
  name:  'Burwash Park'
- ap: 2537
  img:  'http://lh3.ggpht.com/rgh_2qJQUPC1OrARUkiQqPKoNReiqZYOimm5Nszb77pDh72OszuyiJBKn-vDxHUuyjO2XTeKU9GBHc3oHIYr'
  lat: 40.115283
  level: 4
  lon: -88.287899
  name:  'Greenbelt Bikeway'
- ap: 2537
  img:  'http://lh6.ggpht.com/dzudBxNyxUB12jQt8DMYPfm1nc94wO0GiD8fhqGETiQF94uDlJ4UMhnW4DCCbA6TzoEEe--vXNP-DAskM3_W'
  lat: 40.057678
  level: 4
  lon: -88.25174
  name:  'Savoy Post Office'
- ap: 2537
  img:  'http://lh4.ggpht.com/nxDeNwbXxYuo1VyX_qnfxvSql7bfLS5wokO9KwPy6x9CPdTsbILpEr9jM-sXHDsic6WPJnbvWci9eDEcNOWo'
  lat: 40.129554
  level: 6
  lon: -88.286025
  name:  'Dodds Park Soccer Fields'
- ap: 2237
  img:  'http://lh3.ggpht.com/Uce4t5Ws7-KzD_MUqPDowXTtAg4burxyAm5ez3FhjTqU4ctVVDwec8NkSjzcauhAUbdqgYCAPNIeQ7dolo4t'
  lat: 40.128012
  level: 3
  lon: -88.289763
  name:  'In Memory Of Marian Rodemer'
- ap: 2537
  img:  'http://lh5.ggpht.com/S_72RqBcpwyaqDotOOM3zyRvzzZXNgZUSEfOLLDYY9tEvWcEksixMnIL7N-7FO1EpE-CXGydpsChqEkBjX_I'
  lat: 40.131279
  level: 6
  lon: -88.290872
  name:  'Stone Hand Sculptures'
- ap: 2537
  img:  'http://lh4.ggpht.com/h3t9nwbrudSHJ4Ll-zBceLi_U0iwpgbsVd8Wjzy_JgqMiXIqIu4CILUiFnKdayIi0htMXQ5CNowcXO7XUqI'
  lat: 40.13401
  level: 7
  lon: -88.28239
  name:  'Eddie Albert Gardens'
- ap: 2537
  img:  'http://lh6.ggpht.com/g4DT6SGoajyo3AEVQR_e1LuxmgdTecqzlqjxrY3qYL6mnr6FHMUAtS6E9ZnWczuWrf7WWRNC0XRF5iVTWdS-uQ'
  lat: 40.132002
  level: 5
  lon: -88.277467
  name:  'Dodds Park'
- ap: 2537
  img:  'http://lh4.ggpht.com/a1FVYK5FqYQAl_d_TEIbk8PE4kKJVyIHNjJiJWlhHcozcrVi9qVZ137z5mYYlOeePqk0aqBqWwdZxEIgkxz0HA'
  lat: 40.132588
  level: 6
  lon: -88.279491
  name:  'Ronald D Schafer Plaque'
- ap: 2537
  img:  'http://lh5.ggpht.com/YrrWNVDbF2PvWks7XHMzdNnH29Fm_9w3w-XsfCu_aNeRWe3yogvbKL0L2xuhUlUcT_FrvGouyLbPNDe37GVk'
  lat: 40.132123
  level: 7
  lon: -88.277273
  name:  'American Revolution Bicentennial Plaque'
- ap: 2537
  img:  'http://lh5.ggpht.com/XSTOU98iZoBFcDNR_YYJQfmQaiD_vXAP5Z7R79nVC7k06VMhH8tHSb9Yb9Pe8OnV1svwvlvy6iyz6vMjg3_EzA'
  lat: 40.132804
  level: 6
  lon: -88.285013
  name:  'W Glenn Karr Memorial Plaque'
- ap: 2537
  img:  'http://lh5.ggpht.com/M86zCVcXjmwIC0SQgJ3q_heSiWsj4BJoAcO4SpBWLGzt7XQ3kJMk_1GdLAM_SOt_OkZnGrAEV9_g2KSQCguZ'
  lat: 40.133808
  level: 6
  lon: -88.284367
  name:  'Dodds Park Softball Complex'
- ap: 2537
  img:  'http://lh6.ggpht.com/lcnaor8q6SYRZYMm-tUZtz1sXP81Bdwoa9Pf8LC0Vfggxa8JP98UTcgToQqXfmu99JegLd6L3Pb3aG6XjSQH'
  lat: 40.106714
  level: 5
  lon: -88.267574
  name:  'St. Peter''s United Church of Christ '
- ap: 2537
  img:  'http://lh4.ggpht.com/GH0L77ajJqdeWLVc2Mn_FFhT4HGW8EMC3C1us7H_4f8LxWfQRnYQL6J8MDPNvomSwZP9gl8yMqo0qmwuOphB'
  lat: 40.098826
  level: 5
  lon: -88.284599
  name:  'Bocci Ball Court'
- ap: 2537
  img:  'http://lh3.googleusercontent.com/9QA69H7Pr4YSLDo8gKmXgbDNGmrnheNC-3AgVL1eiVhh8ZUtZ9IaPMQtiOWlxjY2OSbHxN03GWTETFj-wzM'
  lat: 40.098416
  level: 6
  lon: -88.283763
  name:  'Centennial Park'
- ap: 2537
  img:  'http://lh5.ggpht.com/tuo_ByFTbwLitFP5cBseOibqRxENxbCwOJ30dCnja5ijBI_qBv5vqNP7ZuZXnxhYM6ms_GbExZEwwKVUtwV2'
  lat: 40.093712
  level: 6
  lon: -88.281583
  name:  'Brownfield Dedication'
- ap: 2537
  img:  'http://lh6.ggpht.com/p2F3xw4xL4UdiMM9aSy628ISSglrvjPexpF3j340tMAP9MX07yh_sJv7kHVkeud8lyFf2ZwDohw3zsRS2PSd'
  lat: 40.093914
  level: 6
  lon: -88.281531
  name:  'Terry M. Warmbier Memorial'
- ap: 2537
  img: http://i.imgur.com/5j1qaiT.png
  lat: 40.152342
  level: '?'
  lon: -88.252345
  name:  'Toalson Park Basketball Hoop'
- ap: 2537
  img:  'http://lh4.ggpht.com/yi9OPnLGsLTvtOMNuOUfed6edO9tB6h0QmSHJaKKaiMyEXC8Aj2hz9hIvgh8C2DY76mVgNHw4S0gsYpkPpkt'
  lat: 40.148692
  level: 7
  lon: -88.248724
  name:  'Fountain Town Center'
- ap: 2537
  img:  'http://lh6.ggpht.com/_rfJReDlJdrYezXwl9C7a4r7ZMCEE2RZ9dek5gQwKkC4sFtmFVfYF7S04SQXmjcksfbCvLWlOEuqOjxWnX4'
  lat: 40.12284
  level: 7
  lon: -88.246749
  name:  'Queen Smith Memorial Garden'
- ap: 2537
  img:  'http://lh5.ggpht.com/UTu16bRRNKyJj2cFsU4mRCMkGJbH7YCAm0gQdiJKjnnZtB00kMEb_-Lhf6AnAXRia4MH6FBrWQGkBCrMUz8'
  lat: 40.120135
  level: 7
  lon: -88.253121
  name:  'Rain Garden'
- ap: 2537
  img:  'http://lh4.ggpht.com/0JuC7vEVtmbgkx1FUhaTylcKfKuYoGNdW2P5GNZzGbeOzxEH0Q-9gP9gmmBzx2bkLNA0dnw9FiEJYiHjWXM'
  lat: 40.121329
  level: 8
  lon: -88.24558
  name:  'The Gregory'
- ap: 2537
  img:  'http://lh6.ggpht.com/NMgUdPOdhvhvKZh7ugwXgybshZBZ2mkaEWMNKYdFPX6cfIYENSCqE9YpAXSNVuq_9VVWXJB-ShCBAPfF2Yvs'
  lat: 40.102513
  level: 6
  lon: -88.243679
  name:  'Robert Hosier Memorial Garden'
- ap: 2312
  img:  'http://lh6.ggpht.com/ytlRYKlqnchcFvl3QEN1XknYcwYKIjohz4qzWW8SmhDi5mypBmgPbf9e4ghZWMZY5gpD9HIyalemSKsIzyA'
  lat: 40.11408
  level: 3
  lon: -88.245852
  name:  'Champaign Fire Department'
- ap: 2537
  img:  'http://lh6.ggpht.com/2NvBiEF5E3wBXJ0JKc8NUUbuZm1PhUhLId32Sc_hNjaonDtojWnGWZRYwJgz-UJwMgucV2NHBfCK_51gIyU'
  lat: 40.084725
  level: 6
  lon: -88.251794
  name:  'Masonic Temple of Champaign'
- ap: 2537
  img:  'http://lh3.ggpht.com/STEfnDDHEff3fffoWiEjvWm4SETgCRyRIvPgf92kzrsxo3sdh1SNg1AmGiFqvspDfSx0OXri-AXVfOZRWRMe'
  lat: 40.13156
  level: 7
  lon: -88.239027
  name:  'Human Kinetics Park'
- ap: 2537
  img:  'http://lh4.ggpht.com/MkhRfx0p0ll37O7C8IfCWHSNAQW5D8kba_E7Fu6frVIIFFf1fvRccq8wfjh6qu9yfggxSk0NSuf9oSvidos'
  lat: 40.116068
  level: 3
  lon: -88.237578
  name:  'Mural at Habitat for Humanity'
- ap: 2537
  img:  'http://lh6.ggpht.com/BCoBN1k9qdgU4oqqht_93bj9zxyhLJFkws-e6kAP1Zoz97AaCfbgSYLSVeMERRNl3hLBAVTbcCUn41RUxMmC'
  lat: 40.116203
  level: 1
  lon: -88.23781
  name:  'Habitat For Humanity'
- ap: 2312
  img:  'http://lh5.ggpht.com/1fPvqpqXG5PDCkmegoWb9Tv9N5_MZh9XjmZpbyNEs5yPDsCscbrPB1cO_Pf8GT35HYrTF01FZ6s5VPIpjJ_20A'
  lat: 40.107098
  level: 4
  lon: -88.228984
  name:  'Saint Andrew''s Church'
- ap: 2537
  img:  'http://lh3.googleusercontent.com/DJEd6b3-MwXXA5oX_rKCuAtk2dlQ1yS2p9nG8oDmc86DmbzFvhKsP-KR9nKAzn84UUf_K5LjjTMgrt7AjCoU'
  lat: 40.110853
  level: 5
  lon: -88.238339
  name:  'Boneyard Greenway'
- ap: 2537
  img:  'http://lh6.ggpht.com/3fVcmJ2u-5Mnni1a2NQuYee7Li3LXX1-Iih3NUqXYB8H0qCYAU7OEXBG0ysoYX44R9K5zwbI6c4G8fRDoZJY'
  lat: 40.101768
  level: 5
  lon: -88.234922
  name:  'Snyder Hall'
- ap: 2537
  img:  'http://lh5.ggpht.com/NUOCD82iNRGW1NGqEC4FKet1u5_cm4WRNc2c9_YABAjGf6-OSCLz7HgYkP1ZuVAbpMl6Qi10HRW16Oc9jNM2'
  lat: 40.106401
  level: 7
  lon: -88.236182
  name:  'Washington Park'
- ap: 2537
  img:  'http://lh6.ggpht.com/y10QgRCNt0Bsefqp3olKgJp98whQkS0-vWqPskj3421hcSq96BG-b_KROqsO1mBEcNiYtAKhXuXG0EV0eaUW'
  lat: 40.107152
  level: 5
  lon: -88.235244
  name:  'Bromley Hall'
- ap: 2537
  img:  'http://lh3.ggpht.com/1JgqaWx4DIU04ms-XmufSumQ5BDP07SB97-kBjzxDePlLQR9HagCTfqdviW9ErxCqpvXgynqeosQhERhCat6'
  lat: 40.108781
  level: 6
  lon: -88.226388
  name:  'Illinois State Water Survey Plaque'
- ap: 2537
  img:  'http://lh4.ggpht.com/KS4k0iDFceOcG_wEnQeqAeJpCkwjbjTItb2FUsyUJGsnhDizNqvrXmfee70SUhCcQ10_m1vv1vtcNRrFhIc'
  lat: 40.126039
  level: 6
  lon: -88.209117
  name:  'Water Sculpture'
- ap: 2537
  img:  'http://lh6.ggpht.com/C_toB9OzPQfQlIsaofeLapNvJVZ1oyDCghG_zzygf8kBY7AiN-utXz8pmgHfwdbakaJplnCeNXbXzEd-VvI'
  lat: 40.116152
  level: 6
  lon: -88.210122
  name:  'Arborist Society Plaque'
- ap: 2537
  img:  'http://lh6.ggpht.com/dIDmkL7jHZb1am2ptK9LrO6Ht_8jTKb3IOvGamBqIYzLXPgtEoPCV_9dMsqLxrgz8_MSq3UsEy9t49y_pqOd'
  lat: 40.125715
  level: 6
  lon: -88.2091
  name:  'Crystal Lake Park Aquatic Center'
- ap: 2387
  img:  'http://lh4.ggpht.com/vyb3xebaf6kWGvQZV2w4QYPG9Oq_jn5wQvUgg3Hp6yvCen9WsHW58eQR3VNCjHZWFzIM1qJ8oDbzRmhR3LM1'
  lat: 40.11233
  level: 4
  lon: -88.207706
  name:  'Alfred D. Costello Dedication'
- ap: 2537
  img:  'http://lh6.ggpht.com/FsUBggh0M3sjncoth6JaamkCglQtDsuiR89k30B2sMp7srgh0Hz6trgv7BhNRSJA6qI7OvipV8B3XEhzHmaNxA'
  lat: 40.113513
  level: 4
  lon: -88.207559
  name:  'Black Dog Smoke & Ale House'
- ap: 2537
  img:  'http://lh4.ggpht.com/od-YwvgDUh147ERgyvR4ZvVNnvSUJwZb_q94O_n0xbffXg01CMZd6RCZwCJ6GgTpW-ex3M0C8w0k6USjhZ-g'
  lat: 40.115915
  level: 6
  lon: -88.210027
  name:  'Darius E Phebus Administration Building'
- ap: 2237
  img:  'http://lh3.ggpht.com/KWHNT4EiiNGpY2l5u1PUHpwnZQcM-ACjcmsF_Ud469mGwgvKWxlH5LM7vyX0NwuZxEcytY7HhFwRRn9onRocwg'
  lat: 40.112532
  level: 3
  lon: -88.208181
  name:  'Urbana Cinema'
- ap: 2537
  img:  'http://lh5.ggpht.com/tVkUyAJPzoQiIilJCSPpwPCqNYSC70DZydpa07fwbCQM-10lVGa41u-oM_7ZXsORl1gYlycrI78KlMpubKMg'
  lat: 40.079691
  level: 6
  lon: -88.208765
  name:  'Bruno Schielzeth Memorial'
- ap: 2537
  img:  'http://lh4.ggpht.com/pTt4-DDT1cwTbzZEeKmOdZaGiy-eSWxNd6UttqXGqJNsFXd38QwCsiHKDTcWeMDbhCt8ddLDZsyBcpNW6aGnLA'
  lat: 40.078858
  level: 6
  lon: -88.200763
  name:  'Prairie Overlook'
