- ap: 11718
  img:  'http://lh3.ggpht.com/lSr_gDGX9o1BHZX9FUPCKAO2VVQjZ_NwTBaSNhNgjVyJ2p6BnLDByC_vIkhu637-W5nKMW2SShi0gXOlXNqY7A'
  lat: 40.097979
  level: 7
  lon: -88.247785
  name:  'Jarling''s Custard Cup'
- ap: 11531
  img:  'http://lh5.ggpht.com/Q32BPmFRIQYqXI5gLOV9ifHvFlGdyD_yws2172-sHnSZ-StunhCM0Abqd9rBWSaKBWN7RPpa1h-nok4Mc23i'
  lat: 40.101062
  level: 8
  lon: -88.249275
  name:  'Narayan & Shanti Achanta Memorial Plaque'
- ap: 11346
  img:  'http://lh5.ggpht.com/4DJAFPeZ_w65Km7VDnsbOqouQaeBuPuxA0KHPQToT_B6o1hBxzdu3kn89UhHgv22Ygj52Fx9QqcbzOytuw'
  lat: 40.100078
  level: 8
  lon: -88.250683
  name:  'Brian Clark Memorial Plaque'
- ap: 11346
  img:  'http://lh5.ggpht.com/C6wRSaEWO1NYGY5luyYZKHG3Z3aib4aflaPdV7B9G6N6adE890g3QuPRSvCUhsdFHqjoVUjo27mfz9WsjXyuhQ'
  lat: 40.100521
  level: 8
  lon: -88.250864
  name:  'Gabriel Patrick Maxeiner Memorial'
- ap: 10783
  img:  'http://lh3.ggpht.com/rUgM7jkTqL0VHxvsSW0yWuNJF5UrU62ITflghfn4PfKjn6L4WGz0ALkv98fc_q9dmK9SSpU1PXIawGvcRwE'
  lat: 40.098246
  level: 8
  lon: -88.251974
  name:  'Hessel Park'
- ap: 10596
  img:  'http://lh3.ggpht.com/lzCSS0_tjwUV7JQ2fgLI0e05IrzPxlVUs-6aEPOwUv67IanQJSTi71gkw0SGm8asmoE_r3Xoh048Fd9xRpE'
  lat: 40.099169
  level: 8
  lon: -88.251419
  name:  'Lyman Larson Memorial'
- ap: 10594
  img:  'http://lh4.ggpht.com/mlUN5QXAR7rKFvUg7yhxcae3udkR7zCJVaWt5sq_YA47piV6tRi42RNN9fEtT_FafT7lhqg26WM1VETbz5E'
  lat: 40.098239
  level: 7
  lon: -88.25376
  name:  'Hessel Park Christian Reformed Church'
- ap: 10220
  img:  'http://lh4.ggpht.com/vKgqIecJshMQxrhO-ZhMjcIyARuJdyU63wKfzAG0wouZex6LVzO46Qi5zM1N3Jx8xyantDFk9sQGsSEBhb-y'
  lat: 40.101327
  level: 8
  lon: -88.251412
  name:  'Zeus Memorial'
- ap: 9846
  img:  'http://lh5.ggpht.com/ENeQgqydWbi9-Oyf7vizunoRqJdsZV4o0RA_956wjGI8hqpTCHBPyWMpbTrrkwYpj5tgzDRvevGmvH4eFRU'
  lat: 40.099593
  level: 8
  lon: -88.251724
  name:  'Blessings from Devon Elaine Cattell'
- ap: 9846
  img:  'http://lh6.ggpht.com/BKeORacgeVrG8XzxTuXmpq5UxomWpK-I2n7Xy0PVbdSciNx9MJl869TcibnFIiV5PJHGv5R3QOpX6ZgLUwU'
  lat: 40.099706
  level: 8
  lon: -88.250065
  name:  'Lois Barham Memorial Tree'
- ap: 9094
  img:  'http://lh4.ggpht.com/-2q6p_jcZ5xVswdwpO98pGsMWXnqxUlsBmhWA2F6xs0MbwejV7FTN7-kHSb4nlsfg3uUsrvdDmUM5v1lQ-Ia'
  lat: 40.086252
  level: 5
  lon: -88.249351
  name:  'A Lady Waiting for the Bus'
- ap: 8909
  img:  'http://lh3.ggpht.com/VLipBehsKPCp8ewQnBV1ZCz7uE75zcY46iGDyFfFHgX1o55t3DONb3wcBcL5RMYSqABRK0TgIW3DluNy8y6WaA'
  lat: 40.101131
  level: 8
  lon: -88.250539
  name:  'Hessel Park'
- ap: 8909
  img:  'http://lh5.ggpht.com/-UWK84I78Sftf7yg-E2pg6xEAWTvyiThgJBJlxbqOZPYKNmzQ8uGgEEMetzplrG1HpXG5kQqNItUeXKxOHDsGA'
  lat: 40.100286
  level: 8
  lon: -88.251747
  name:  'Tennis Anyone'
- ap: 8909
  img:  'http://lh6.ggpht.com/YVbqGVTjJuDMDdj71CP2mWvnUIdgO25PgoDdJwEGnEE_M9I1aDgKyjSr9JOZVU6UQTZQtfUo9RAWyz92n3jtCQ'
  lat: 40.098475
  level: 8
  lon: -88.249208
  name:  'In Fond Memory of William Moore Jr'
- ap: 8909
  img:  'http://lh6.ggpht.com/5CDidk0pqfUtSW_Yqouuf3diX8drdMu9DoT728QpSz8q6A-WxNhT0yLcgM_7gGpyIAeXrHiTkIzzaVJFgnN9WA'
  lat: 40.099852
  level: 8
  lon: -88.251947
  name:  'Our Friend Tim Palmer'
- ap: 8909
  img:  'http://lh3.ggpht.com/GXyi2ghi2DR3h7uIHNYiEZPYixRhDo7LO0WHQ0PyEzb-150r7ar7JGeVjUoPuObC-GFWf22UWqnYCMtED0M-'
  lat: 40.100341
  level: 8
  lon: -88.249937
  name:  'Alice Marie Weber Plaque'
- ap: 8909
  img:  'http://lh5.ggpht.com/3t7XZHqwxLZ8Lc9YomR8FInm74U2PAA-DBk8kmdxXIrcXbKa1CoBDTlgdDJeO-_yVT3qNKRnNLzbdil1eH41iA'
  lat: 40.09935
  level: 8
  lon: -88.249766
  name:  'Jim Bickel Honorary Plaque'
- ap: 8722
  img:  'http://lh5.ggpht.com/yEiiHAgbSW12_Cpdb0_ksVrjWt6yb6BFtEwm3wjzPJN68wl0QhkI_oaTXxM__Dud8x9jZitaHmpZHZNxDHrD'
  lat: 40.099056
  level: 8
  lon: -88.249136
  name:  '"Cricket" and Bob Barger Memorial'
- ap: 8722
  img:  'http://lh4.ggpht.com/4LxsGZZMk3DnpJXUvqzrL54CHSP5TDXjUnDJyHmCCTtCJIjGEI7kxT9g4uxfSPh0X6yGLgQo1jfqbu7B8VEr'
  lat: 40.099084
  level: 8
  lon: -88.251826
  name:  'Irina P. Stewart Memorial Plaque'
- ap: 8157
  img:  'http://lh4.ggpht.com/Gyz7BDhWdUinBQfD8duByX5-aBgPmB9oSesH20dH8uGJnTiaIHkeRJARtH6YQUUD5A5X2IjPTlT989AfutNc'
  lat: 40.092773
  level: 6
  lon: -88.250951
  name:  'William C. Fox Waterway'
- ap: 8157
  img:  'http://lh4.ggpht.com/RDM16YNiohkHnzuD-g6YsAoY8vRq4Hn6IMhPX6LC3gV_BoJDnAPjwc_n-PzXrDZM-OXMD6oA7kUbrXMczOZa'
  lat: 40.081276
  level: 6
  lon: -88.20502
  name:  'Tango at Meadowbrook Park'
- ap: 7972
  img:  'http://lh5.ggpht.com/fDRifvVcFT_dKhPuNBN4rR9lNHL0Q6NvbMnGr2-ZdiirR2rJrBcWRi4vyM3-DYNHymUs7bWchaWRaUtBpg'
  lat: 40.098541
  level: 8
  lon: -88.250389
  name:  'Dennis Robert Costello Memorial'
- ap: 7972
  img:  'http://lh6.ggpht.com/3o0ObAARFV_8mBVCC_QD0iLOPVzNkakXybhLnSVEuXIJfDLKMxeYj-EkWIw9NPoZIVRf5Dkrid2yf_NEQ-iE'
  lat: 40.100347
  level: 8
  lon: -88.249385
  name:  'Travis Marmion Memorial'
- ap: 7972
  img:  'http://lh3.ggpht.com/KzADjdPRAvwycpfTBdAeDwFJ0AxZJG2dPmbPWkXq55QLV9PfpJ_-DsXWIlVgsISUApRdJ5cAxRWx0k0W2hI'
  lat: 40.09979
  level: 8
  lon: -88.249107
  name:  'Jerome Cook Memorial'
- ap: 7972
  img:  'http://lh5.ggpht.com/q-mJ2EvrjGn2PfbBh3Pl3XIGUyzTqxGjZmTMhn3k9_2Qi0S2hs3k2ZvpKb4kvt60AXHiyQdxqft5ZecPcg7x'
  lat: 40.098959
  level: 8
  lon: -88.250141
  name:  'Bob and Wilma Tinkham'
- ap: 7972
  img:  'http://lh6.ggpht.com/S7Utf4_59vQkAP5JhC3mdbzVLKBTt-0zoJ2UjfxUnN10VBbixO-_VwvssWd1LbFSx_yafaijd_U0wTGo870'
  lat: 40.100941
  level: 8
  lon: -88.251314
  name:  'Gabriel Patrick Maxeiner Memorial Plaque'
- ap: 7972
  img:  'http://lh6.ggpht.com/n0f7lyo15OzZn5IJHsohIGAA58iioentPZGEY4zeMZCCoX4GjEEkqfaTCIbrx9OnezriThnbFV14kYcwKTgL1g'
  lat: 40.098444
  level: 7
  lon: -88.248167
  name:  'Healthcare Not War Mural'
- ap: 7972
  img:  'http://lh3.ggpht.com/sisvfsphxy7AK_2qrrqb7lNJk3_7ciHSVJyodINYITBc-UqugyNOooCxKupgJKEg5m_x95eZwouSO2WCmN60ew'
  lat: 40.098579
  level: 8
  lon: -88.249603
  name:  'Chef Ra Memorial Plaque'
- ap: 7972
  img:  'http://lh5.ggpht.com/T0WLAJf0s4nu2Phxax31eu6pO6zNoA4JpvHMLyfMKttzJALEWB8EAWOziQwgjdWE3YjBbG1XjGYsgihqCSX9'
  lat: 40.100414
  level: 8
  lon: -88.249061
  name:  'Randy William Auteberry Memorial'
- ap: 7785
  img:  'http://lh3.ggpht.com/VrbXGwlUosNLEkVdshWUFoVa3KtlJQoEU4yLYygvftYbPCmxo644Uvar_v8Kb9RS53hB0tXgvV44GotrxZyu'
  lat: 40.098592
  level: 8
  lon: -88.251676
  name:  'Ruth and Fred Steigmann Plaque'
- ap: 7596
  img:  'http://lh6.ggpht.com/XsUl74M1oxj6ptAvGEBOMH2wivRhxBNns62UJSGcPiQkuJIgPrmUYxMpSZZUfXRMMjrwoxlFK_DbAM78UrOh'
  lat: 40.113499
  level: 5
  lon: -88.244374
  name:  'Shatterglass Studios Mural'
- ap: 7409
  img:  'http://lh4.ggpht.com/S734i_6SihPtJW8WdegLb3gEuKeNx8e1qDm6CXjREzYHohw7XqL82m4EF2K5nS2TixHweLn3EuJ4YoQnrsw'
  lat: 40.107751
  level: 8
  lon: -88.231532
  name:  'Graduate School of Library and Information Science'
- ap: 7407
  img:  'http://lh5.ggpht.com/hjAc940kWyt9QT4G_BJyJKaTef3jL_Njnm8ubUtQD7u6qVsD9_7TiJbgZpKeqAv60kNw8FYspVxkn-Bt1cxYBw'
  lat: 40.109959
  level: 7
  lon: -88.24318
  name:  'Mini Park II Sculpture'
- ap: 7035
  img:  'http://lh6.ggpht.com/YdeB0EKlsopL39a9YXWj4JBZgXNNLWHgfe4PQzdpWCNWc0fR1YTj8WjARDHnmrusvKWTqKLcGg8U9frhtsw'
  lat: 40.09821
  level: 8
  lon: -88.249879
  name:  'Hessel Park'
- ap: 7035
  img:  'http://lh3.ggpht.com/J_h4tdb4wqy8bmmQfDuy5yqTR2IlkzKojfvsMOvlD-3tf1pKxbDlhA6W9Q8RX-JaSxhItMr4bmCxiUQXTLbz'
  lat: 40.10064
  level: 8
  lon: -88.24958
  name:  'Edward A. Cousins Plaque'
- ap: 7035
  img:  'http://lh3.ggpht.com/G1CvGhpethi5UmprDWxZN9rTblHa3anSsQz1UPgJtkREkfN7lDFoxFObst0609Cg5mofuZxJKr0ddNKhY4VL'
  lat: 40.098464
  level: 8
  lon: -88.251426
  name:  'Ruth Haasis Memorial'
- ap: 7035
  img:  'http://lh5.ggpht.com/8zq5tMevCiipZK8N9-8SZw3vdsA2HwH0E02ormQshGxHVZrB2WPK7OPC8zt6pjLlgpXVuEYHVA_08_Q8fPw-'
  lat: 40.099647
  level: 8
  lon: -88.249648
  name:  'Max Overmyer Memorial Playground'
- ap: 7035
  img:  'http://lh5.ggpht.com/CRkkFx_9jq2hCt1HtflqZDqCdmSG5MN88FV0rLXk1PZm7maZWzLTKZhjqlSKUx1Tg0tSB62l75w2VFsyUZI'
  lat: 40.09991
  level: 8
  lon: -88.249899
  name:  'Benjamin Biddle Memorial Plaque'
- ap: 6659
  img:  'http://lh6.ggpht.com/2lDM_Uj6QcUJmWkmPhNWg-vfkJbBQAo6zb7eXC5qDTaJ5xAsoU7jPPqYmLo7zztC2Za1oH3QVrHQ78-XabqR'
  lat: 40.116398
  level: 5
  lon: -88.242485
  name:  'Champaign Servicemen and Women Memorial'
- ap: 6659
  img:  'http://lh6.ggpht.com/5FrAAzvYmAM-WLKT5FARCFzegoqjWDbNOkEi5jS2tKCRLbTeSfKuZonDJsFpjSfnQpj_fSJSV6P-msLaTJSk'
  lat: 40.080453
  level: 6
  lon: -88.205614
  name:  'Elaine Regehr  Memorial'
- ap: 6472
  img:  'http://lh6.ggpht.com/yQPHFh4brRKGyXx9PtGN3hQza65T2PIyjArUf9NgW5fqFvx9m22oY2acMcEwFcVRNh0MTfGqc0WfMJFOt1io'
  lat: 40.10725
  level: 7
  lon: -88.244219
  name:  'Titan Games'
- ap: 6472
  img:  'http://lh5.ggpht.com/dRrlHXlT2nMNgZNHiYo52ha9L-Xay9DyOJR2Cpqs74hgAJ09abn9OTAtMzRVedt1_R9ObZllLO98vRhNMfgTgVsJCk1S-HJwX_XgiGpG4lz3a328'
  lat: 40.11671
  level: 5
  lon: -88.24263
  name:  'Cafe Kopi'
- ap: 6472
  img:  'http://lh3.ggpht.com/3Zmkt--7llPgVt7DBvxcj4VWf2chqeJFGGK3MxoJQUsf4eyqv2iI35GHX8cDE1VJzJcS7rt1tLhm2NSszA4J'
  lat: 40.080946
  level: 6
  lon: -88.20312
  name:  'Jack and Marilyn Memorial Bench'
- ap: 6285
  img:  'http://lh5.ggpht.com/wX6-mbTE7nT00T6ildapKbI5ZrnhPIt4l91DhMseyo3GYFrgQIuqbjh8ntZY6NxGZ-qa6fKWlyoBOPdIdNIt'
  lat: 40.114653
  level: 7
  lon: -88.243729
  name:  'The Phoenix'
- ap: 6285
  img:  'http://lh5.ggpht.com/K052rUVcM_dwOByJbJw0zZVn5R34oIGn9_FWFzquLCf0caed6K4EQXvJSH0lYUOvmWY8V8cF31UjqKpZXEbL'
  lat: 40.083331
  level: 6
  lon: -88.202167
  name:  'Urbana''s Time Capsule'
- ap: 6285
  img:  'http://lh6.ggpht.com/UXx9XSWX3zuym6SdX68IXNFYcpnbhGuF7Zk3taO-TJ2VI_LvwmooNWjUHb8OIgKsjyto3PT7YU0D-Y7HW7c'
  lat: 40.077643
  level: 6
  lon: -88.208694
  name:  'El-Ahrairah'
- ap: 6283
  img:  'http://lh5.ggpht.com/Vr_4ImpNKaqK50Ic81rBi87YRc7CGxn1wrgok5oUZwCy-NYWdCYcePOKUERBtPb_hxa_Z2Dk395t7M01M6sp'
  lat: 40.081821
  level: 6
  lon: -88.204706
  name:  '"Balencia" at Meadowbrook Park'
- ap: 6098
  img:  'http://lh3.ggpht.com/LunaMtSKD9yiLQClolDY-Iqh0ENm9AgJdL4D1QxGs0j6TXPgqxDZea35x5ilAfeI5_0TGh5x1q1EqRsJsLFi'
  lat: 40.114111
  level: 7
  lon: -88.243697
  name:  'Champaign Surplus'
- ap: 6098
  img:  'http://lh4.ggpht.com/PHV-1ZpFzCAl_ViCKwBY_x2pIDbVyaT7wJH1sTvFJCxrSdRrO1x7NaXq9OdRGwz_Mls4iwk6wuGHMBArfV54'
  lat: 40.098688
  level: 8
  lon: -88.25063
  name:  '"New Holland Yellow Dinosaurs" at Hessel Park'
- ap: 6098
  img:  'http://lh6.ggpht.com/qSCp5fQMlyCQ-GOAgiSFy5gaHJei705Pa3eOlJiYO5wGjZTYtjA8q7QWWfAWcLKjxZSaFiMfXOPR8SO7rWU'
  lat: 40.099353
  level: 8
  lon: -88.251876
  name:  'Raymond B. Cattell Memorial'
- ap: 6098
  img:  'http://lh3.googleusercontent.com/Tixp17uCaP682s77UzvCwWCOE6vg7iB2qEFLjACq7xtVJdHE0K3yKYsl3_SwKbiUfQWwgTQRbvfka3U0NvNc'
  lat: 40.098819
  level: 8
  lon: -88.249214
  name:  'Bette McKown Honorary'
- ap: 6096
  img:  'http://lh4.ggpht.com/AC0e3VVFenyh_tf4lpcee6alCTlto3O4cqychnUlTFCiLaMi6RUVh6BAC1-pjf7f7foTLFALejQiRxf1kKtS'
  lat: 40.104417
  level: 8
  lon: -88.24332
  name:  'Wayland Smith Estate Garden'
- ap: 5909
  img:  'http://lh5.ggpht.com/vYay8RKsCV_BP_MkeFm7se0VZoYthm-1pThiATAADleBlTsPowobgZyUoU7DUto6p5cpg9adpCcTgNR6iop0Jw'
  lat: 40.120121
  level: 6
  lon: -88.251967
  name:  'Sesquicentennial Neighborhood Sign'
- ap: 5909
  img:  'http://lh4.ggpht.com/XlTZ26_29c4-74t23p1lgghqNfLI7aS3_kradmcl7vVQzV9jJRu78D1HdzJf-sWibnak644kxCBJDnA594PVaw'
  lat: 40.092849
  level: 6
  lon: -88.251586
  name:  'Boulware Trail'
- ap: 5909
  img:  'http://lh3.ggpht.com/HX3mWBGofQk08Qdp7A6KMK1AnSXlLEPJR-n6oeX69Efiiss29GHsLiDsHhRS5K8DrXh-QXP1T0AMaOsJmx_w'
  lat: 40.106921
  level: 8
  lon: -88.230145
  name:  'University Lutheran Church'
- ap: 5909
  img:  'http://lh6.ggpht.com/Pvgc8EILl7jWftQ3dvPTZTa98KpCUdaq9yHkecl-ZIKR_whDQCQrKSwrdX56lqH7d7ma5TsbyH70RvcdhLSp-T_4IjJqzXAbRhLMMkEpNo9gayrY'
  lat: 40.080493
  level: 6
  lon: -88.204819
  name:  'Molecular Reflection Statue'
- ap: 5909
  img:  'http://lh3.ggpht.com/hZulWSNApQFnDW-rnL3Fu95nMq2pO60CHDwUislaEOwUfLfJymLB8M4-WTugDbUq60zu72Cn2vLHMFFf5IxxNbp6rsbl9bAHHAlqFVlgckw_gJM'
  lat: 40.079765
  level: 6
  lon: -88.206953
  name:  'Connectors'
- ap: 5722
  img:  'http://lh5.ggpht.com/_9uqsDQROIwqIhKx_URY4DdZAapoZBEWK6Eaclt5mM5vPsjwQAD-v8Bv-4b-Smq2F8X4zOgzLx2KwySkFWc'
  lat: 40.118448
  level: 6
  lon: -88.25211
  name:  'First Church of Christ, Scientist'
- ap: 5722
  img:  'http://lh5.ggpht.com/g7QDa6-HDyxpwueVfcxh6KOOM1S5jAd2MOOL2H5PYpeafOfFl-8hbijtMhWLHWrvlOdKqglGRiiaWMsEWLN4vw'
  lat: 40.116989
  level: 5
  lon: -88.242255
  name:  'Blind Pig'
- ap: 5535
  img: http://i.imgur.com/5j1qaiT.png
  lat: 39.550414
  level: '?'
  lon: -89.296045
  name:  '8056138cea6847df92401a87563b3c46.16'
- ap: 5535
  img:  'http://lh5.ggpht.com/k_9eqZVvGcr3ZNyeeSNDM1-Y7od35KmnQQptB9usrdpTdpGW2c_5-12rYy9hGazdx7qhlYrEXxaJ_ZIVFywlcA'
  lat: 40.106706
  level: 7
  lon: -88.232116
  name:  'Illini Tower'
- ap: 5533
  img:  'http://lh5.ggpht.com/RsXj0S9rbD_i4VFZmhxJtNtmwEeJOoYsmM8wyu90kB6srZMfUskP6iqrTY9eqFNQhhQrU50k92lCH4JEQ2w'
  lat: 40.127358
  level: 8
  lon: -88.243851
  name:  'Stanchion'
- ap: 5348
  img:  'http://lh5.ggpht.com/Sgu5qG2Ltp9axQc8nEr3fJ_qvNo6-gwd5TuKMrk2LM9d5P7DDy0oCoWiGnr6Ybp84FGMh9DQYLnFtBTZtBIm'
  lat: 40.113606
  level: 7
  lon: -88.243766
  name:  'Mural on South Neil St.'
- ap: 5348
  img:  'http://lh6.ggpht.com/Jltxi7PZ9OVi8hBCUxdt9oxXQk9zmbrtHpM_jru2WhVYyY0UkNZ8h5SU3CdwMRNzZ1ZKabPR8hDCPz7p3Ms'
  lat: 40.114439
  level: 7
  lon: -88.245013
  name:  'New Covenant Fellowship'
- ap: 5348
  img:  'http://lh5.ggpht.com/tfAfnmo6mSMc6U0P533NMFJRGwn6lasmx-MLR2JJg1QOizMKkghFU8E7hb2zgYgdQEbgnCJUlvZIMdrrJe4'
  lat: 40.100822
  level: 8
  lon: -88.25193
  name:  'Seeds of Kindness Bench'
- ap: 5348
  img:  'http://lh3.ggpht.com/Du0TJmMI1dnX36-rCGs6310UXd29Ay1bttUFdbpIrAA2wGtULNMGT_z3Un2VNx9iV4CxY5Tg8ZO5GpMjnmAQ'
  lat: 40.083189
  level: 6
  lon: -88.202092
  name:  'Twiddle This'
- ap: 5348
  img:  'http://lh6.ggpht.com/OeWiEqijQeAf256S5XDmv8VIj-SUQ0QHnet5J28ThcRwPEYY7-uk4CXixqualhlYxTcgKYe55FOcK_Ov7BE30jWvWzeBabSEra5jDLx3ZGj-XSs'
  lat: 40.08069
  level: 6
  lon: -88.20463
  name:  'Swift'
- ap: 5161
  img:  'http://lh4.ggpht.com/B_I1b0Jy3vW41RX8jjCNPP68AULplU0Pf8ddolyKmpEWCfBVShQkmjF1HfTPzDjmBBQGgOs0jHW-rUR0mv8BkA'
  lat: 40.098789
  level: 8
  lon: -88.251685
  name:  'Curtis William McKinney Memorial'
- ap: 5161
  img:  'http://lh4.ggpht.com/DJiaqGgwCaKSjYczELIcjQOeBtoEqd--7TZYBJWO9_Nd16vjKwlco9tKatJTdAKT1CPoO7Cj39_rZvp8p0Ch'
  lat: 40.087241
  level: 5
  lon: -88.248222
  name:  'NCSA Blue Waters'
- ap: 5159
  img: http://i.imgur.com/5j1qaiT.png
  lat: 40.152792
  level: '?'
  lon: -88.253532
  name:  'Toalson Park'
- ap: 4972
  img:  'http://lh4.ggpht.com/HEEvU2OlgWiV5huAu3cvNKaI-C8YKYTO3qB8WMTO7EbsjTO84KS6jLjbGCq7THZq6l63UiUKCSEqY2IADYns'
  lat: 40.091766
  level: 7
  lon: -88.250003
  name:  '"The Cranes" at Fox Corporate Center'
- ap: 4972
  img:  'http://lh5.ggpht.com/oCw3ZC6UKF3aiK6dkbz72dhzUsJNhOmfVjVsXJET_YP5e1p53pLTa8Dep24gLqeY9FghWE0kaAB64vvn7nq0'
  lat: 40.105008
  level: 8
  lon: -88.243265
  name:  'McCollum Park Peacock'
- ap: 4972
  img:  'http://lh5.ggpht.com/dgQfoxxVeHT5ODqLiUYHV45qvkC_BMS0kIFRqvHvE2GO0TduZ0-XzhW8RE80LtPDK0Ay5xwA6PtjM7G3C9U8'
  lat: 40.108947
  level: 8
  lon: -88.232251
  name:  'McKinley Church'
- ap: 4785
  img:  'http://lh4.ggpht.com/Ww9lgcscjGtB0ieiqyf2qK2ZzV0y3mZVpoi5ZZdPpArkbOa2B5aNli_k7t86GjD7eAeEFOw8W0oZvfr61S6Kxg'
  lat: 40.139196
  level: 6
  lon: -88.257755
  name:  'Market View Fountain'
- ap: 4785
  img:  'http://lh4.ggpht.com/maBwz4G9LJZ5aVuX_WF1Z73xSbqoFsm3l6oyrNQ16LkJMvaEbFa-amdfCpKDVDe7NzjReNu8IGnn7BAI8yef'
  lat: 40.103534
  level: 8
  lon: -88.243478
  name:  'McCollum Park'
- ap: 4785
  img:  'http://lh6.ggpht.com/pxaCt7clhIXc1RVGMMJZsmnbEWNWjFYJiUrQMev_SeOmXBothvOzmfnirQ5_W8CMa7hpigqydQhKMa4XFCAi'
  lat: 40.108173
  level: 7
  lon: -88.230209
  name:  'Mural on South Sixth Street'
- ap: 4785
  img:  'http://lh5.ggpht.com/kElaGOaV9aI8SrnM1D65gx9J0Ky1AKrN9Yo-pXVmDhELt2pee4MwVRiCqCmlqWzUWj5pS33GnEzAiXmiWKsw'
  lat: 40.108111
  level: 7
  lon: -88.229625
  name:  'Illini Sports Mural'
- ap: 4785
  img:  'http://lh6.ggpht.com/o5v6x0IS1pBK2dWUvxkTn4pb6FfZnj8RLeXKDhPtC9Db_KQTVRqO-ye9oQATUZIczQsTyfBFXI1KvNsP020ZCc1BpubNrbvzVaKrsMTRErtsBNDb'
  lat: 40.082594
  level: 6
  lon: -88.202694
  name:  '"Here and There" at Meadowbrook'
- ap: 4785
  img:  'http://lh3.ggpht.com/7bgelseGarzAjQzGod3J4OO3H3gx7YcHuwtoT6Lx2LrV84TbmH4I8GW92yROJO9sJFi_vFLaKy0frUM7C31B_Q'
  lat: 40.083561
  level: 6
  lon: -88.203382
  name:  'Yikes'
- ap: 4785
  img:  'http://lh4.ggpht.com/ojeB36C4pFrkpUOLeRf1wlevsVasnc0hxMgCCqBw0bmWLkPKciRkj06rLhJaSpLFbnUhIn2WqKdmVVVYGBw'
  lat: 40.077334
  level: 6
  lon: -88.202929
  name:  '"Marker" at Meadowbrook Park'
- ap: 4598
  img: http://i.imgur.com/5j1qaiT.png
  lat: 40.312242
  level: '?'
  lon: -88.201368
  name:  '2012 Employee Dedication Bench'
- ap: 4598
  img:  'http://lh6.ggpht.com/vqiOPPON1phvYOdOmbFDrxhN6cbYjeLHVgH42EV0XsJjVNd81EM1DKY_aRVM-rwJ9Il5tLc3QsL_gOS4qAkF'
  lat: 40.139891
  level: 5
  lon: -88.257367
  name:  'Market View Baby Fountain'
- ap: 4598
  img:  'http://lh5.ggpht.com/BK5TjuMzuJgDVPz4C8HRjfZKeaoISnPJ-H7VaYeMNUYmxvvUY7RzIIlR13FjW9HHF_i5-znqs3O6nMxKPfcj'
  lat: 40.102188
  level: 7
  lon: -88.251507
  name:  'Little Free Library Charter 5753'
- ap: 4598
  img:  'http://lh5.ggpht.com/UTu16bRRNKyJj2cFsU4mRCMkGJbH7YCAm0gQdiJKjnnZtB00kMEb_-Lhf6AnAXRia4MH6FBrWQGkBCrMUz8'
  lat: 40.120135
  level: 7
  lon: -88.253121
  name:  'Rain Garden'
- ap: 4598
  img:  'http://lh4.ggpht.com/ryDcZUJK2aQ_fI0-hY850_t4ZmG2hNmtCx7cxbX83w3cnUWdI-ywpTuQrUVQNxGl3_DcxxNr6bupfDTsagRa'
  lat: 40.117107
  level: 5
  lon: -88.242467
  name:  'Radio Maria'
- ap: 4598
  img:  'http://lh5.ggpht.com/qq3QmeyCYxWnJF_DzzI5wVvHF4foNyr_bF3_j5eVPHJ1omSbD2INOifPJEO3pjz4X1l4_wMGD4uOT1_w6Tid'
  lat: 40.086713
  level: 5
  lon: -88.248293
  name:  'Garden Patio'
- ap: 4598
  img:  'http://lh3.googleusercontent.com/pYGYCzdOo2RX46MuyUVPGExxz3vVjAYCerSG06O3aGWbr302Vmw6bhoapK9LjwYEuZZ17xDHUfLw765dCYfRUA'
  lat: 40.080163
  level: 6
  lon: -88.207829
  name:  'Windmill at Meadowbrook Park'
- ap: 4598
  img:  'http://lh6.ggpht.com/k_7DcxCHlkFP0CTNHoTY5V3-yA-EKIuGisBB8E77m940i61vkhvgHMsmxpNBkUhVm6Oy2XzndXI9_HF9MNJt-bahjS2gelImbCJmBrpBHpGW9VvA'
  lat: 40.080794
  level: 6
  lon: -88.203294
  name:  '"Fluke" at Meadowbrook Park'
- ap: 4598
  img:  'http://lh5.ggpht.com/nP1l1H87xpugqoPpX-3ucCRm1xAlBUs4o60-_eF2Dtfs1LN8QkFCcspxdr1GgsdbBBtDKs1vDK-D0_xwG_2L4iZTySxDRpL2uSD65s5_OvTN8HnU'
  lat: 40.082307
  level: 6
  lon: -88.200089
  name:  'Folk Art at Meadowbrook Park'
- ap: 4598
  img:  'http://lh5.ggpht.com/i_8huo_CxMxwTgcukj2dHefx7TgK3uMShcy5UJPAMHS9EfTTWEsWq2FpQew2G7N3KnatQxJjlQekJmvjhqc'
  lat: 40.078738
  level: 6
  lon: -88.208631
  name:  'Open at Meadowbrook '
- ap: 4598
  img:  'http://lh4.ggpht.com/efOG849cf8EKwVLL2BfNKzwBdkrAuNsMeYOZfeR8FYnK3axQJJON0VH191MLBwjJaQ1EeQC9Pt8LMtNI2LEa'
  lat: 40.07718
  level: 6
  lon: -88.203511
  name:  'Denise and Ernest Walker Grove'
- ap: 4411
  img: http://i.imgur.com/5j1qaiT.png
  lat: 40.483316
  level: '?'
  lon: -88.914428
  name:  '6840fb57214f4b9db6f128ec0bcf9e00.16'
- ap: 4411
  img: http://i.imgur.com/5j1qaiT.png
  lat: 40.482892
  level: '?'
  lon: -88.913904
  name:  '6d2e2f3aa0c34d58ae2e7f4a4f648e45.16'
- ap: 4411
  img:  'http://lh4.ggpht.com/MvwoDsxwfyNLHzfGkFJl-4VFeX7OvqB0hsMCrZ2D9Olh8GSghAJDfFfDh7a7cOtMIGwEDMyesZoKvKCXAGj4'
  lat: 40.116553
  level: 5
  lon: -88.242268
  name:  'Esquire Lounge'
- ap: 4411
  img:  'http://lh6.ggpht.com/yjfa0jJLjsfLRf9Zn9iafMp3MuIhgCi0WiOCF8GqTGiGvzEnsPGrFa0H1n-uzWhVehLbt44ShthsA32VzHd5iQ'
  lat: 40.099737
  level: 8
  lon: -88.251157
  name:  'Tyler Van Atkins Memorial'
- ap: 4411
  img:  'http://lh3.ggpht.com/8FqlniFErK7cq59awiT84u8KyV4FIRd5krZzfYa58zJToFps7whdBnriPqvO_kFKeLUE3SWbJhCOPuvUQzaGFA'
  lat: 40.100691
  level: 8
  lon: -88.251337
  name:  'In Loving Memory of Zeus'
- ap: 4411
  img:  'http://lh5.ggpht.com/aeGh3iXJqJ7skg-2JHEpngMSfcp1qDIEPoLMxzQNqbS5Y7HcxN7oE789bXiVFoFIcdCn7-3AhLPtxT_WE2E'
  lat: 40.0985
  level: 8
  lon: -88.248681
  name:  'Siti Sculpture'
- ap: 4411
  img:  'http://lh5.ggpht.com/N1cFx79JwZqPlYPDW3HkNwRX8N4Auriii45qzYkAx9l-cKeK81qgZ6nuBpTBEIOyLzy4aIIhQKt2E7ZiysSjkg'
  lat: 40.10036
  level: 8
  lon: -88.250515
  name:  'Mark Foutch Pavilion'
- ap: 4411
  img:  'http://lh5.ggpht.com/HhVreJipNvxPRVFpmsh2BPo9PcpPO2Q2l3jCpDjIKgfKGycoTNPXR4DKiYccBXW4X-4dJf_vV0ESsWAWHcChsg'
  lat: 40.100936
  level: 8
  lon: -88.250855
  name:  'Donald F. Bresnan Memorial'
- ap: 4411
  img:  'http://lh3.ggpht.com/Jjm7ZUINFebdUQM0ZQth9oP9Uyw8xFVkOvgyZHQPHJ1pHk0-WPWHpdBULljg6f9GLhbmItzSwpavqyrf1zXwIQ'
  lat: 40.087721
  level: 5
  lon: -88.248276
  name:  'Work And Play'
- ap: 4411
  img:  'http://lh5.ggpht.com/yK94cjys6dDm62pDsBwEKJP8ioxZEFbb2oelmT5ZMmaNZPkqAXW00NHP3_7fvtyG796u2ZhKGfbY7To9Sdtz'
  lat: 40.088063
  level: 5
  lon: -88.248271
  name:  'Still Waters'
- ap: 4336
  img:  'http://lh6.ggpht.com/gKoAVfAXPNcc0cL_CNbiCdHIsPyUbMbJmy6o9XlvmyVEcG71RrD0Zj1NmWw9sbPBd957NYMtr7u-eLKY8jGQHw'
  lat: 40.083528
  level: 5
  lon: -88.202233
  name:  'Fathers & Sons'
- ap: 4411
  img:  'http://lh6.ggpht.com/LJB7sU5C-p9Dsf4gZ7RkqrEbfZnlh-rR33SARIHJOOUld5Lhb6_CH4gN1rtHGaLP4sPAsl8gN6mFkpl7ZQ5_'
  lat: 40.081475
  level: 6
  lon: -88.20239
  name:  'Prairie Buoy'
- ap: 4411
  img:  'http://lh4.ggpht.com/Ad3EyxZM9v5cjmOiED5nr8Hf1mHtOMXrJtjU_U63YfE8lgUjAteiDYuYxND-ybx6tARUErULHJBDhgoDIblz'
  lat: 40.077349
  level: 6
  lon: -88.20659
  name:  'Bruno Schielzeth Plaque'
- ap: 4411
  img:  'http://lh3.ggpht.com/N3joo2vGiOAq-hh0peo2upcDO7iyxx1XC_6L1CBWIQ2PhXEpR1UI3dtCOYHcM8pchVwGj0GyVko-qxrGx3Q'
  lat: 40.078315
  level: 6
  lon: -88.208939
  name:  'Sunstruck'
- ap: 4222
  img:  'http://lh6.ggpht.com/QhX7LQjknZJxL4GjIVRORINW4Ftw5F854uaMsoIWpHQNzoc_1c8nRxsoxw27U0InC7UZkcxueRyo8sqyTD7-iA'
  lat: 40.113262
  level: 7
  lon: -88.257966
  name:  'Grace Lutheran Church'
- ap: 4035
  img:  'http://lh5.ggpht.com/NUOCD82iNRGW1NGqEC4FKet1u5_cm4WRNc2c9_YABAjGf6-OSCLz7HgYkP1ZuVAbpMl6Qi10HRW16Oc9jNM2'
  lat: 40.106401
  level: 7
  lon: -88.236182
  name:  'Washington Park'
- ap: 4035
  img:  'http://lh4.ggpht.com/ik1uVZ-KWyRH4dh51LJI7gFmnM7bmfSZ-1YqfELbVQEvuo-gEx2QpG6jQpFPeAlFPi2rVPAuzRmXMD0Whsm2HA'
  lat: 40.122038
  level: 7
  lon: -88.245318
  name:  'The Old Residential Block'
- ap: 3848
  img: http://i.imgur.com/5j1qaiT.png
  lat: 41.291981
  level: '?'
  lon: -89.505371
  name:  '35ddc311f13947e3890d4206f42a5694.12'
- ap: 3848
  img:  'http://lh5.ggpht.com/-fll1h_4LwvAASQFuSFCPXineRQ-GTGggs2P9L5-qR50oQ1wGjy6dzP_D3SGA7esReq2lemp9JsZqg6uDO8P'
  lat: 40.071293
  level: 6
  lon: -88.253841
  name:  'Lady In Mourning'
- ap: 3848
  img:  'http://lh4.ggpht.com/vKkSwERLa3zQO2UUIiYl1AEruAx1QTPcP4jSmPt89PG4AviJ1WhlVVH8qmqJ0aY2gqJmHcqdZFcM2pQconc'
  lat: 40.139375
  level: 6
  lon: -88.272793
  name:  'Salt And Light Ministries'
- ap: 3848
  img:  'http://lh5.ggpht.com/pSVHjk6puyYdv3ztHlpJGnbkZyGsGsirMnxkDhlt8UMko4AhtTQbrzwInBCu5lK4Ttf7furE5pNW2AZh8HuSZQ'
  lat: 40.138109
  level: 7
  lon: -88.270158
  name:  'Glory Center International Church'
- ap: 3848
  img:  'http://lh6.ggpht.com/WA_L9RXB_ZwCyxpgQ7Lyjp1-4xTl5O-BQohOBQcoEMnP7-wKp--MGUdnY_DPuCGZ78-x0LtEWc8FT2n9QMPS'
  lat: 40.148879
  level: 7
  lon: -88.258423
  name:  'War Veteran Memorial'
- ap: 3848
  img:  'http://lh3.ggpht.com/2WMtYMnBjTlw-gPK9quwjMde6Heie7SQHCZT41kPiIpOwxXEIQWbB_euK-R5rZhqUcmGuZJ0tIBh_801KGyVsw'
  lat: 40.11453
  level: 5
  lon: -88.227324
  name:  'Beckman Institute - Upwells Fountain'
- ap: 3848
  img:  'http://lh6.ggpht.com/C7ThuP5fwrDTu5cMDpoeGmRjotNh6eUnPf3ksvSsUj5NkHZ0yKbIUnF8cSikhX-I_7O42CTwqjhLq9z3jkIL'
  lat: 40.111844
  level: 7
  lon: -88.228609
  name:  'Talbot Labs '
- ap: 3848
  img:  'http://lh5.ggpht.com/ZDv0mHiZcEfLxGVibvfnMCu7reJceCVnxa4GeBjK2DO4Y4a0x-M7C2M0rEam-_bPlr2e2476RXe15pRY48s'
  lat: 40.114351
  level: 6
  lon: -88.227096
  name:  'Chi Epsilon Civil Engineering'
- ap: 3848
  img:  'http://lh3.ggpht.com/by946OhJ5ooOkbG4f662qjbXqvrQAd98E36mSJLgTsLgL_tb8GDpNxTOEhtgsjEhY-OzKmRxAmLFbYPscSH6'
  lat: 40.101619
  level: 7
  lon: -88.233644
  name:  'Taft-Van Doren Hall'
- ap: 3848
  img:  'http://lh3.ggpht.com/KxQsev6i7POmNh1IadCWwWQSMdCuLIYpPwIdenSlVtzum523D1R-1kfeTbuOGTkt_jDwn4jswCu1edkumm2-'
  lat: 40.110037
  level: 7
  lon: -88.23549
  name:  'Red Lion'
- ap: 3848
  img:  'http://lh5.ggpht.com/W3y0aDYTuLZ7E0KYzawIeqddSRPOrY1oAV8peDaDhUsxn_hKEJ1O4XyO_JF2p0ORGwae1oEwE5oTkJ_1TMDA'
  lat: 40.080601
  level: 6
  lon: -88.208399
  name:  'Urbana Parks Department Gardens'
- ap: 3848
  img:  'http://lh5.ggpht.com/YaIKBanBs_Nk5kstDaA9jBqnvY9vRfXO2YuO21JwbSo1c2OiJZvSlWe3x_6vyCPb-NZKQSBmnkOstTytpNxw'
  lat: 40.079832
  level: 6
  lon: -88.208385
  name:  'Herb Society Garden'
- ap: 3848
  img:  'http://lh4.ggpht.com/kRHQwpjarX7HfwQLr4A30xQMO7de9l3eYpGLma1L5s-RekStFVQR9wmELAfa5uJPMOlf5gV2dSJD3kGjJYz1SLzbacRg2RpKXPScnDHAk2ncu1s'
  lat: 40.082189
  level: 6
  lon: -88.202575
  name:  '"Position 1" @ Meadowbrook Par'
- ap: 3661
  img: http://i.imgur.com/5j1qaiT.png
  lat: 40.172593
  level: '?'
  lon: -88.239993
  name:  'Faith Baptist Church'
- ap: 3661
  img: http://i.imgur.com/5j1qaiT.png
  lat: 40.396282
  level: '?'
  lon: -88.87253
  name:  '983118fdef6b4b20b7d5188ad0f89af8.16'
- ap: 3661
  img:  'http://lh5.ggpht.com/ol0RXlyBNe6HMdo476xfY8RSKSHpownpuvzXzt79iXCP5m5YSzxfK5L7hdm7bLVjLavR90KL_lSCQnAXcrQ'
  lat: 40.075288
  level: 7
  lon: -88.256822
  name:  'First Baptist Church of Savoy'
- ap: 3661
  img:  'http://lh4.ggpht.com/BB4y2ChVuPpmuGW8VPeiAPKr-vWwYdihWvrH0i_WALxPd8wX3j2no0JFEMNK8ndCvXwQzLLabPyRoAfsz5g'
  lat: 40.101584
  level: 5
  lon: -88.270546
  name:  'Mayfair Park '
- ap: 3661
  img:  'http://lh5.ggpht.com/QruW49d2dc1uhQlK1BaZIeo6ruDNkqQfmvZz83eQ-1aC9ytGUcpFaHnKRTnXRc70F2EZ0-pVKGr9Slo0_9RfxA'
  lat: 40.139749
  level: 7
  lon: -88.273955
  name:  'Northside Church of Christ'
- ap: 3661
  img:  'http://lh3.ggpht.com/2bCNiD7SWsS3uzFLMO2cZh-LpHUEMQGnfTmcNx5vJapXho2TuXke630-7zop2Sq4fuY8nWVqy4VCG23mvnIJ'
  lat: 40.104168
  level: 7
  lon: -88.238808
  name:  'Alpha Gamma Rho'
- ap: 3661
  img:  'http://lh3.ggpht.com/wkPcdDupubV3THJo6r2OpMtshziiIkqBISPTCPe8boa-8nH33u83Mznkr1yYWNR_l60RCy8HO_obqrdNGUI'
  lat: 40.093633
  level: 7
  lon: -88.246611
  name:  'Fountain at Illini Plaza'
- ap: 3361
  img:  'http://lh5.ggpht.com/QY3-GLhJdz61itX17DuQSrIrTixLDL5l-k33n2ZriKEspP8A7RooZfj3ocL-d6IC1S-Q81PABhuYHEkorzQ'
  lat: 40.121262
  level: 3
  lon: -88.244556
  name:  'Citizens Honor Tom Dodsworth'
- ap: 3661
  img:  'http://lh4.ggpht.com/0JuC7vEVtmbgkx1FUhaTylcKfKuYoGNdW2P5GNZzGbeOzxEH0Q-9gP9gmmBzx2bkLNA0dnw9FiEJYiHjWXM'
  lat: 40.121329
  level: 8
  lon: -88.24558
  name:  'The Gregory'
- ap: 3661
  img:  'http://lh6.ggpht.com/btym2_WGYuFNu2SNiR8qif7GXLMOPT7XpuHE7RPOipPC9Q5lEPfImKAzf2vm9RUe2rN0u3TePq4pM0IuZiLS'
  lat: 40.116436
  level: 7
  lon: -88.243459
  name:  'Champaign City Building'
- ap: 3361
  img:  'http://lh5.ggpht.com/OF0rdXnVnZe6syFsa4G9CE6iyvhfoYQN3QH9RESyB78MTKDC2NXYJuVd0TAnACMccmsKXhNcBH6qzWy9DPQ'
  lat: 40.105073
  level: 2
  lon: -88.231952
  name:  'University of Illinois Armory'
- ap: 3661
  img:  'http://lh6.ggpht.com/BzDhCANV_iNTHhKFBGLuaUqOvChRZtPWnJ2Xk4h7NsKJHmTGgCWtFHWv2PpDA2fCsHHKSCRTrUNK8AKrLRnS'
  lat: 40.108066
  level: 7
  lon: -88.230687
  name:  'Community United Church of Christ'
- ap: 3661
  img:  'http://lh4.ggpht.com/zAxC11GCLRrj5wlF-U0mbjaisXjS5ukHSkGR5sVCfSWYKSlV2kxvtrD04m3n_XzT59XQ1xyf4ctzShUNem0'
  lat: 40.080381
  level: 6
  lon: -88.209174
  name:  'Meadowbrook Park'
- ap: 3661
  img:  'http://lh6.ggpht.com/ARxGPDwwD9zGWfT9onLvNXRMYpYW0G7tL4osRfuUfWaG2wAJR486QSRQ_1dw-pJZMHccKUnSShoDVMijLRTh5g'
  lat: 40.07961
  level: 6
  lon: -88.209169
  name:  'Wildflower Walk'
- ap: 3474
  img: http://i.imgur.com/5j1qaiT.png
  lat: 40.038713
  level: '?'
  lon: -88.597587
  name:  '90c6bdbac79141418869f2c6a1e74ff5.16'
- ap: 3474
  img: http://i.imgur.com/5j1qaiT.png
  lat: 40.00745
  level: '?'
  lon: -88.574966
  name:  'ac80b809cf9349bc8c760ce00d822a12.12'
- ap: 3474
  img: http://i.imgur.com/5j1qaiT.png
  lat: 41.690212
  level: '?'
  lon: -88.983339
  name:  '43007b58438f46d08dcab2f407fbc172.16'
- ap: 3474
  img: http://i.imgur.com/5j1qaiT.png
  lat: 41.2924
  level: '?'
  lon: -89.5068
  name:  'a88632d6c1154609a5eb9f1fb5a79721.12'
- ap: 3474
  img: http://i.imgur.com/5j1qaiT.png
  lat: 40.743666
  level: '?'
  lon: -88.504875
  name:  '2d719dd62f7e491b860a85095e05d959.16'
- ap: 3474
  img: http://i.imgur.com/5j1qaiT.png
  lat: 40.75263
  level: '?'
  lon: -87.997967
  name:  'Gilman Amtrak Station'
- ap: 3474
  img: http://i.imgur.com/5j1qaiT.png
  lat: 40.483665
  level: '?'
  lon: -88.914383
  name:  '2d8d00426f8a46e18e59083d93a2d8d5.16'
- ap: 3474
  img: http://i.imgur.com/5j1qaiT.png
  lat: 40.482404
  level: '?'
  lon: -88.913566
  name:  'd42f6a1f502648b188249afe9c11e503.16'
- ap: 3474
  img: http://i.imgur.com/5j1qaiT.png
  lat: 40.152192
  level: '?'
  lon: -88.252279
  name:  'Toalson Park South Entrance'
- ap: 3474
  img: http://i.imgur.com/5j1qaiT.png
  lat: 40.152342
  level: '?'
  lon: -88.252345
  name:  'Toalson Park Basketball Hoop'
- ap: 3474
  img:  'http://lh6.ggpht.com/WVVbmiu2GGTnPTszcnYYILHKlkZDoxB-QY6Yv7YPoUfdVn92jYnKjpVKNkfWdFrPjq-BaFeKGJWLZlE-bbA'
  lat: 40.120467
  level: 7
  lon: -88.2577
  name:  'Salvation Army Church'
- ap: 3474
  img:  'http://lh4.ggpht.com/9dqmZPc9OI1ON-iEnfXAxSAMX2M07pEgKUsb47vLrTrW2BW61siFLquk1fXbldWXGPg69XGdSG4wKPGS5rI'
  lat: 40.113521
  level: 5
  lon: -88.244122
  name:  'Artistic Graffiti at MCS'
- ap: 3474
  img:  'http://lh5.ggpht.com/arF148UpHKIzlt5NezBSpFkItJk3gWq__xkPolNCeVTwHNpQNm1rzIwSdA2oAJBPtaLhpTHcVdAFFdHAXm8k'
  lat: 40.118383
  level: 7
  lon: -88.247003
  name:  'T E Berger Memorial Plaque'
- ap: 3474
  img:  'http://lh6.ggpht.com/cZVUlNaHjfsB6Lu5hnj8JjUk4lvsgOV7DFz4Nl47-RaQObW1VPRpos6hTDD6WgYrNxCh9UKfn5DFU-K7lRe9pQ'
  lat: 40.1164
  level: 6
  lon: -88.242747
  name:  'Sidewalk Art'
- ap: 3474
  img:  'http://lh4.ggpht.com/ZEK-DXu7TJqsrt7cbLRjXyr3JbENJCn1FaKxH4Oi6kEvo4K0Yzm5qzMddhRLNlXvokAwQoeG4EKaNkXnJDA'
  lat: 40.114015
  level: 7
  lon: -88.245256
  name:  'Firefighters Park'
- ap: 3174
  img:  'http://lh3.ggpht.com/my_h4qixFMd6jwP9asxucVH5iZ3ZW1oV4DbCKeys_8MAAp1-KYNV0YFzZtZTEd9L0ZaMl1OqucHJTPdwROI'
  lat: 40.127447
  level: 3
  lon: -88.244069
  name:  'Hazel Park Playground Dedication Plaque'
- ap: 3474
  img:  'http://lh5.ggpht.com/93SMm7gYjGLu_6bFOqGL5MXKxKF_NsnHuxiDyywI_Jrhz-LaQoNlm0yw7lG0I9rhp5vnHkATk01A_CNYmYf-'
  lat: 40.128358
  level: 8
  lon: -88.243471
  name:  'Champaign Church of the Bretheren'
- ap: 3474
  img:  'http://lh5.ggpht.com/85X0vnlHzLPww3OziBoMSVfkwq66eKQNZ9Mn6qsjghvteOQZiAVlsY80NVcsErHao0QYd9IyF7PDJyp-jaQ'
  lat: 40.101632
  level: 7
  lon: -88.233133
  name:  'Sunken Cube at Art and Design Building'
- ap: 3474
  img:  'http://lh4.ggpht.com/bYrhTw8QophdiqDG-upqJ6JX2g2tZYX4N1jC4d_cciIj4ep8oQvIgjJlfge2VCmzSZe9irj-BTpbj9Jcv7U'
  lat: 40.103009
  level: 6
  lon: -88.233215
  name:  'Mac and Diana Garret Memorial Tree'
- ap: 3474
  img:  'http://lh5.ggpht.com/Tn5ARN-X6VTc2q6atZ2WYq3c2g3gbSGXu6_vXf1MDwHfLpdTtnQ-CilBAVGvL6R-SHhq3fJ4WZI-yiJKmIId'
  lat: 40.110398
  level: 7
  lon: -88.235143
  name:  'US Post Office, E Green St, Champaign'
- ap: 3324
  img:  'http://lh5.ggpht.com/yi0V8I6S2E0v2oc1FMMtt5n823XeDVA_UcGxIRKd87LWu-xz_yY5qTWwmEbVC_STI_YNdHQYFuhNbjFafu4XW73mRfrZ5VRAGtkd1JiHBMyphaKx5Q'
  lat: 40.083139
  level: 5
  lon: -88.202075
  name:  'Southern Passage'
- ap: 3474
  img:  'http://lh6.ggpht.com/UMaVDs4JUJ1obZF_7bkt3YUS02KJCdBmvRnU0gXqrvHeFd-6jyR_VGDBUgiXtVFoAj95F7sZrvFJ1l9fe4S3sBUkt__qi77W2_jm8KR0IU_iwOYcIg'
  lat: 40.080791
  level: 6
  lon: -88.204927
  name:  '"Is It Too Late" @ Meadowbrook'
- ap: 3474
  img:  'http://lh3.ggpht.com/RDi9dMy3Df-Cf9VWDSaCohsnVa-bidVWXN6ZXu_h9yJGuQ22MI8MFwt1iA55QHtTIq5sHU6hZWbydWYFqr5PqQ'
  lat: 40.077419
  level: 6
  lon: -88.208069
  name:  'Walker Grove'
- ap: 3474
  img:  'http://lh5.ggpht.com/9T9y0bpvBrwNNyvb142IyTeakSgjhepOOFAf15hGx0cHg_jgDEhSwReqANYrDhl7giaXpGBSRLV2dRn0Or3R'
  lat: 40.077839
  level: 6
  lon: -88.209091
  name:  '"Niantic" at Meadowbrook'
- ap: 3474
  img:  'http://lh6.ggpht.com/XqG3n3J3bCj61mM2c6ByPJaWYXv51nQkx7me8714asRsez8kx_rSW4mwH2Rm8Y6Yibx71YB6kMcbAYpGch4'
  lat: 40.079324
  level: 6
  lon: -88.209124
  name:  'Timpone Family Ornamental Tree Grove'
- ap: 3474
  img:  'http://lh3.ggpht.com/gDP5JIyK5XQVuxzTukPDz7JRInXgVqjLvl1SZ1_m_ydC4VzlKAFaG92Jj7kHZGJrhTaK2-bslJBu3rBIoXOX'
  lat: 40.079519
  level: 6
  lon: -88.208849
  name:  'Pascaline Lutete Plaque'
- ap: 3474
  img:  'http://lh3.ggpht.com/SGh5Xw4MO1dVvrMemAzgB9RDDBXEv4yPJSQnS537XIPlaVnoge7FriTE0zXjRXDxMtFiaTHXXihwZpbush_dbg'
  lat: 40.077367
  level: 6
  lon: -88.203354
  name:  'Meadowbrook Trail Map'
- ap: 2911
  img: http://i.imgur.com/5j1qaiT.png
  lat: 40.085959
  level: '?'
  lon: -88.508164
  name:  'da266d78e0ae434da37bca94fbf69ab6.12'
- ap: 2724
  img:  'http://lh6.ggpht.com/v2m1E6vVK4ZRaRPhGli7jCsG7xZQZ7I3vV_5AogdEpPU_A1vz9WEkH0vZ-vau2IAdmydYJcXrOA6SMr7vUfT'
  lat: 40.128726
  level: 6
  lon: -88.290287
  name:  'McMillen Ehler Homestead'
- ap: 2724
  img:  'http://lh4.ggpht.com/T-65fHAmnGmht8xdcXCF8weDy3uDecS4uOASIFtQBn7v84jrUpS3m9_rbJ1MNz5Syzjr8g_zO6YPklMYjlZQ'
  lat: 40.13695
  level: 7
  lon: -88.259966
  name:  'Goodwill Donation Center'
- ap: 2724
  img:  'http://lh4.ggpht.com/yi9OPnLGsLTvtOMNuOUfed6edO9tB6h0QmSHJaKKaiMyEXC8Aj2hz9hIvgh8C2DY76mVgNHw4S0gsYpkPpkt'
  lat: 40.148692
  level: 7
  lon: -88.248724
  name:  'Fountain Town Center'
- ap: 2724
  img:  'http://lh3.ggpht.com/O-DGELnJZNJ5CXEaU3N0dzBK_ZVUUnTe6ey0TMrxXnXS1aXD9xo662l9u-8O6f3472F8hgDnW-wwDQ29XUYuyw'
  lat: 40.115941
  level: 5
  lon: -88.258345
  name:  'Trevett  Finch Park Historical Site'
- ap: 2724
  img:  'http://lh6.ggpht.com/ZpJuVeWuDsVo9oPzh9mGzFjeTz2FQluKlriJijNL29HFEEWmMBqok5fCxVis8MpHqJYCBQUhRLNU9yuE7luP'
  lat: 40.129233
  level: 7
  lon: -88.238696
  name:  'Bristol Park'
- ap: 2724
  img:  'http://lh6.ggpht.com/uyv64Hvc1y5cxlCwT2wsWkD3sPpcam6VXjBGrZ5qOpqIyyynSqXKCeBXqdW39vyyoAaOpvm-gIHYaE_bit8'
  lat: 40.120632
  level: 6
  lon: -88.243669
  name:  'Colonel Sidney Gauntlett Cornerstone'
- ap: 2724
  img:  'http://lh4.ggpht.com/eiIi_ozTDxkb4MdOndoTytdxfIB-1IAlz7B6mPPsVwLsPSvNxgR3f1ynOCQiAHPJAfWvPR6x6kWP0shmEfu5Mw'
  lat: 40.1198
  level: 6
  lon: -88.243467
  name:  'Incursion'
- ap: 2724
  img:  'http://lh5.ggpht.com/QNdE7Z3gNcz1M-mzDms1aMrHPZpKr43FIfnMxwfwdp6kP1N6fPKwUzIx5qrt3k_KBeBFRmcD-PXCWq7V2Ygo'
  lat: 40.119969
  level: 7
  lon: -88.243775
  name:  'Mural at Bentley''s'
- ap: 2724
  img:  'http://lh6.ggpht.com/NMgUdPOdhvhvKZh7ugwXgybshZBZ2mkaEWMNKYdFPX6cfIYENSCqE9YpAXSNVuq_9VVWXJB-ShCBAPfF2Yvs'
  lat: 40.102513
  level: 7
  lon: -88.243679
  name:  'Robert Hosier Memorial Garden'
- ap: 2724
  img:  'http://lh6.ggpht.com/f43AXqkZOVuig6JgnORI4vC7QZWr2a0lnTW39-gMaRiWW13AuK6U0ZSoFc1k6xi2YvZU6ad6EC-xTq404ZM'
  lat: 40.103258
  level: 7
  lon: -88.241752
  name:  'Medical Services'
- ap: 2724
  img:  'http://lh3.ggpht.com/AD9d7JPmLdYRdpxESO9iORy1GRXAcN1jzn8dDNvm6FO7cIHVsjwAKI8LmbW4dico1Xe9jzJfsZZriP0CxXA46w'
  lat: 40.104084
  level: 7
  lon: -88.241616
  name:  'Honorary Memorial Steam Ventilation Pipe'
- ap: 2724
  img:  'http://lh5.ggpht.com/jz0XvZSSYKqKSa4lJDK-rludOns_o36jZ8ZTzfEr42piZamiTjSASTLdII6pkxgjZgnCwKirjhEouS77BPB8Dg'
  lat: 40.094288
  level: 5
  lon: -88.248914
  name:  'Boulware Trail'
- ap: 2724
  img:  'http://lh6.ggpht.com/WtqWBwqpYTSw3g9ru5NwcFn5iK5STxWgy2kv4OUTWqwtzx76-9Msz0eqoiw0qpEYE1U4zdt9rzzNZMDNagNg'
  lat: 40.107943
  level: 6
  lon: -88.226751
  name:  'Class Of 1917 Plaque'
- ap: 2574
  img:  'http://lh4.ggpht.com/A0lGmZOBcx4fo0sruij79v-UHVQw5Lq_LdkJ1tVUj-67C2L49ESiGUgmTfI6YDdyECeAmwS3WtyQ4igJ0dOfM6kLg1LhQXZk2Ns1tJdXzMXpE3w0'
  lat: 40.082631
  level: 4
  lon: -88.200245
  name:  'From Night Daddy''s Book of Dream'
- ap: 2724
  img:  'http://lh4.ggpht.com/z_QJOP2CQWiQE36C1zzSwqnKEn7yAz55wOcleeRj1HtGTvAldWJFSigJ8ZdYQmD9UyUfFEzu7N7noscccVM'
  lat: 40.082625
  level: 6
  lon: -88.204564
  name:  'Diamonds Are Forever Statue'
- ap: 2537
  img: http://i.imgur.com/5j1qaiT.png
  lat: 40.457257
  level: '?'
  lon: -88.372597
  name:  'ebaa4a5573f7449399263066d9248473.16'
- ap: 2537
  img: http://i.imgur.com/5j1qaiT.png
  lat: 41.686672
  level: '?'
  lon: -88.983653
  name:  'a03610d18a2f4c66a26f0e15b20c7e41.16'
- ap: 2537
  img: http://i.imgur.com/5j1qaiT.png
  lat: 40.482592
  level: '?'
  lon: -88.913556
  name:  '94d4c2ef89bb40a99619bf872b2a04e5.16'
- ap: 2537
  img: http://i.imgur.com/5j1qaiT.png
  lat: 40.273121
  level: '?'
  lon: -88.676169
  name:  'a63c9ba7a3a6429fab01573c4828baa2.16'
- ap: 2537
  img: http://i.imgur.com/5j1qaiT.png
  lat: 40.879885
  level: '?'
  lon: -88.665628
  name:  '75d391a42a3b435ab916b6bebedf7da7.16'
- ap: 2537
  img: http://i.imgur.com/5j1qaiT.png
  lat: 41.486143
  level: '?'
  lon: -88.73313
  name:  'e9c0e9a7c32944b49cedfd8db159b55a.12'
- ap: 2537
  img: http://i.imgur.com/5j1qaiT.png
  lat: 40.272743
  level: '?'
  lon: -88.675349
  name:  'Adams Leaning Wheel Grader'
- ap: 2537
  img: http://i.imgur.com/5j1qaiT.png
  lat: 40.160008
  level: '?'
  lon: -89.387825
  name:  '7bb0a855a0ad476da15c867fae0f4350.16'
- ap: 2537
  img: http://i.imgur.com/5j1qaiT.png
  lat: 41.679472
  level: '?'
  lon: -88.979851
  name:  '8f63b0a141c34ec69f412a6061705387.16'
- ap: 2537
  img:  'http://lh4.ggpht.com/MnvRIwYBCscNCKIRmPyogxsZdt_OF6dC0mIsI1_2fddZFlc88Sg9wNyU9Ne9q-cY0RUa5VFafv4C5f5-pxVpWg'
  lat: 40.069376
  level: 5
  lon: -88.257672
  name:  'Friendship Crossing'
- ap: 2537
  img:  'http://lh4.ggpht.com/N6E1iW7R1Dt6SCyd1q4Ym_HeSnFZ2mHHlXE-jkX1_YLy9BgSRPcDZK8ri2PWx6-sV1IEsClFGgMgpdI2Bgg'
  lat: 40.069187
  level: 5
  lon: -88.295335
  name:  'Friendship Lutheran Church of Joy'
- ap: 2537
  img:  'http://lh3.ggpht.com/rgh_2qJQUPC1OrARUkiQqPKoNReiqZYOimm5Nszb77pDh72OszuyiJBKn-vDxHUuyjO2XTeKU9GBHc3oHIYr'
  lat: 40.115283
  level: 4
  lon: -88.287899
  name:  'Greenbelt Bikeway'
- ap: 2537
  img:  'http://lh4.ggpht.com/BDVsIEWOaH0zZsTgU8IbvmVNJTrl3EljfhNXeVt4C2BILNtXm5hpAq_6mLrTl66aJcUyYv4hFJKhxedLkKo'
  lat: 40.11679
  level: 4
  lon: -88.281854
  name:  'International Society of Arboriculture'
- ap: 2537
  img:  'http://lh3.googleusercontent.com/mFMoKbSLtdP7TnaDrMHLxDWN1FGdQeY6BuKqxtEYSN--Sp6L7DgrpNlGARlPutxd0UNQuEW3WwuNl_Hny6_1'
  lat: 40.13183
  level: 6
  lon: -88.288788
  name:  'Student Union Building'
- ap: 2237
  img:  'http://lh3.ggpht.com/Uce4t5Ws7-KzD_MUqPDowXTtAg4burxyAm5ez3FhjTqU4ctVVDwec8NkSjzcauhAUbdqgYCAPNIeQ7dolo4t'
  lat: 40.128012
  level: 3
  lon: -88.289763
  name:  'In Memory Of Marian Rodemer'
- ap: 2537
  img:  'http://lh4.ggpht.com/XmQtS5vWS277-auG5r5x80jUieF2311Xfv6rWkYqVBZ3wz2cqxRtgabyzOhXn0fCpSpDD6Y_CFd9Rzti4eqj'
  lat: 40.148874
  level: 6
  lon: -88.268577
  name:  'Newt Dodds Tennis Center'
- ap: 2537
  img:  'http://lh5.ggpht.com/XSTOU98iZoBFcDNR_YYJQfmQaiD_vXAP5Z7R79nVC7k06VMhH8tHSb9Yb9Pe8OnV1svwvlvy6iyz6vMjg3_EzA'
  lat: 40.132804
  level: 6
  lon: -88.285013
  name:  'W Glenn Karr Memorial Plaque'
- ap: 2537
  img:  'http://lh5.ggpht.com/zdaFJ-aI4Re55DtEiADt-qd1MMBuWZqEByU3BbT-0eYI80maTD-8JB5vJgtwKPFsFk-V75s-itU-cBisa-W9'
  lat: 40.132819
  level: 7
  lon: -88.286151
  name:  'Dodds Park'
- ap: 2537
  img:  'http://lh5.ggpht.com/tuo_ByFTbwLitFP5cBseOibqRxENxbCwOJ30dCnja5ijBI_qBv5vqNP7ZuZXnxhYM6ms_GbExZEwwKVUtwV2'
  lat: 40.093712
  level: 6
  lon: -88.281583
  name:  'Brownfield Dedication'
- ap: 2537
  img:  'http://lh6.ggpht.com/p2F3xw4xL4UdiMM9aSy628ISSglrvjPexpF3j340tMAP9MX07yh_sJv7kHVkeud8lyFf2ZwDohw3zsRS2PSd'
  lat: 40.093914
  level: 6
  lon: -88.281531
  name:  'Terry M. Warmbier Memorial'
- ap: 2537
  img:  'http://lh6.ggpht.com/wk0l8Qe7j_Ph_LhyPvdNO6g8nwrxpswodrbNuOzLa3K1QNBrIVidi9iztmDXu3HtCWo5TpqDDjPsEbSl2aWUKg'
  lat: 40.144554
  level: 6
  lon: -88.248689
  name:  'Town Center Park Champaign Park District'
- ap: 2537
  img:  'http://lh4.ggpht.com/53avgB1jGEftJ9eyV5l3nee16yHgYDAXkZoonzyXO3mwPLijOgz1uOtcxfKdCaRzaBqW-BQ4ft-Od3uZnja8'
  lat: 40.118436
  level: 5
  lon: -88.26383
  name:  'Davidson Park'
- ap: 2537
  img:  'http://lh6.ggpht.com/_rfJReDlJdrYezXwl9C7a4r7ZMCEE2RZ9dek5gQwKkC4sFtmFVfYF7S04SQXmjcksfbCvLWlOEuqOjxWnX4'
  lat: 40.12284
  level: 7
  lon: -88.246749
  name:  'Queen Smith Memorial Garden'
- ap: 2537
  img:  'http://lh6.ggpht.com/_k_xJSt6mwst9haWnz5tw__yVrH9BLFSKnCMCEw9V271FMTnmEoDA4E6HprjvPTSiaBeKZmxdG3waPIapBMa'
  lat: 40.125369
  level: 6
  lon: -88.250074
  name:  'Mini Park VIII'
- ap: 2537
  img:  'http://lh6.ggpht.com/KD5w0ez9F7rd70ylNnKO8m3t3aROeGF5SZIUT23pb6WisqWmVYgW1SBL-jgNAPy1UKJPgoTlgGjEK9P1BCqJ'
  lat: 40.11243
  level: 7
  lon: -88.235749
  name:  'Fountain at Scott Park'
- ap: 2537
  img:  'http://lh3.ggpht.com/qkbAVT5J9ZNQHzzLNSiw9MN3XrDX3B8bj-xJzu8jKrFdykdTZdsEIlzOKXKVfJ5dZNrhJmG8VHZNeF5pR1G6'
  lat: 40.119977
  level: 6
  lon: -88.242247
  name:  'Seed House Historic'
- ap: 2537
  img:  'http://lh3.ggpht.com/psgrRGIt786cUSq8EV7SBSDsS-aptrUKjaCXWv864H7OaJL2K71qJpxU9Iw-acwFMi52ZN2qpEmicGmlmhJq'
  lat: 40.121061
  level: 6
  lon: -88.250227
  name:  'Curtis F. Columbia Legacy Plaque'
- ap: 2537
  img:  'http://lh3.ggpht.com/XUcV2LF_XKVfRYKLrnubIeaLniLx97X1-q_QbId6nLk55xKp9axvre_97coBT_kZQNIVfkeseaCxJHtHj6iA'
  lat: 40.113924
  level: 6
  lon: -88.245568
  name:  'September 11th Memorial Plaque'
- ap: 2462
  img:  'http://lh3.ggpht.com/oHMQr2Z5LayQFbZOwOZK4ZbYQ1OVxs85-qNTvSj8epsP72vQiOdrzVmkuMPFQtCSf9Rr0oqcnSLFjLn-sPw'
  lat: 40.116592
  level: 6
  lon: -88.243236
  name:  'Champaign City Bldg. Landmark Plaque'
- ap: 2537
  img:  'http://lh3.googleusercontent.com/0sr-qQ4Z1TW1AZ62RFHko9Cbb8g36Renb3nRyxFJr_r68iVMsuh_EwrbThhXg2hVyqNQSjX7rFVvrWpfHS4'
  lat: 40.103958
  level: 6
  lon: -88.240451
  name:  'Bruce D. Nesbit African American Cultural Center'
- ap: 2537
  img:  'http://lh6.ggpht.com/2NvBiEF5E3wBXJ0JKc8NUUbuZm1PhUhLId32Sc_hNjaonDtojWnGWZRYwJgz-UJwMgucV2NHBfCK_51gIyU'
  lat: 40.084725
  level: 6
  lon: -88.251794
  name:  'Masonic Temple of Champaign'
- ap: 2312
  img:  'http://lh6.ggpht.com/sASzuKZleVbY8UGdZnFzs0GXiOHosiNDf-GldJNSs-w2k410HzHcqBrjuvNoklKZ0G4mwuhXmvFPOMlrFXRZ'
  lat: 40.085468
  level: 3
  lon: -88.251369
  name:  'Mattis Park'
- ap: 2537
  img:  'http://lh3.ggpht.com/STEfnDDHEff3fffoWiEjvWm4SETgCRyRIvPgf92kzrsxo3sdh1SNg1AmGiFqvspDfSx0OXri-AXVfOZRWRMe'
  lat: 40.13156
  level: 7
  lon: -88.239027
  name:  'Human Kinetics Park'
- ap: 2312
  img:  'http://lh5.ggpht.com/1fPvqpqXG5PDCkmegoWb9Tv9N5_MZh9XjmZpbyNEs5yPDsCscbrPB1cO_Pf8GT35HYrTF01FZ6s5VPIpjJ_20A'
  lat: 40.107098
  level: 4
  lon: -88.228984
  name:  'Saint Andrew''s Church'
- ap: 2537
  img:  'http://lh3.googleusercontent.com/DJEd6b3-MwXXA5oX_rKCuAtk2dlQ1yS2p9nG8oDmc86DmbzFvhKsP-KR9nKAzn84UUf_K5LjjTMgrt7AjCoU'
  lat: 40.110853
  level: 4
  lon: -88.238339
  name:  'Boneyard Greenway'
- ap: 2537
  img:  'http://lh6.ggpht.com/3fVcmJ2u-5Mnni1a2NQuYee7Li3LXX1-Iih3NUqXYB8H0qCYAU7OEXBG0ysoYX44R9K5zwbI6c4G8fRDoZJY'
  lat: 40.101768
  level: 5
  lon: -88.234922
  name:  'Snyder Hall'
- ap: 2537
  img:  'http://lh4.ggpht.com/zZ2YpVpDiI1KdIQ9iI7mGJD_VtwFztJ4ZF1vRehD9OSnQ2K3433SIg22svwcqDJVfeO2fjE3fdT4eHAJWGpi'
  lat: 40.104339
  level: 7
  lon: -88.234788
  name:  'Pi Kappa Phi Fraternity'
- ap: 2537
  img:  'http://lh4.ggpht.com/q2L_InMJy4JZq79dX9LLf9XauoaXGOLl7SWvVyD9F_jIgyqpn7SsqHfY9EMYq1SLteTpj0cQDZN4f9x0IuvV5w'
  lat: 40.107273
  level: 5
  lon: -88.222942
  name:  'Tryon Festival Theater'
- ap: 2312
  img:  'http://lh3.ggpht.com/oSQ_YOHo2mfYjOa8bPK9ellznKK29UluW-SeXoGYra9VFg8dJp6YQRdHbHHaTExqXs1qUMBNmpI2hUPcC4GI'
  lat: 40.106789
  level: 4
  lon: -88.222992
  name:  'Beginnings of Computer Music Plaque'
- ap: 2537
  img:  'http://lh6.ggpht.com/y10QgRCNt0Bsefqp3olKgJp98whQkS0-vWqPskj3421hcSq96BG-b_KROqsO1mBEcNiYtAKhXuXG0EV0eaUW'
  lat: 40.107152
  level: 5
  lon: -88.235244
  name:  'Bromley Hall'
- ap: 2537
  img:  'http://lh3.ggpht.com/1JgqaWx4DIU04ms-XmufSumQ5BDP07SB97-kBjzxDePlLQR9HagCTfqdviW9ErxCqpvXgynqeosQhERhCat6'
  lat: 40.108781
  level: 6
  lon: -88.226388
  name:  'Illinois State Water Survey Plaque'
- ap: 2312
  img:  'http://lh3.googleusercontent.com/NRpdP-ebGuykq3sH1NZBQVjhmSdVJW3F4MTCRdXrWKQf3Z5dBgo0Phhyqnel5IrJmriQRmJNFR12lRDrjxJ9'
  lat: 40.114911
  level: 3
  lon: -88.227781
  name:  'Electrical & Computer Engineering Building'
- ap: 2537
  img:  'http://lh3.ggpht.com/3WnMbDq1Vm3HiqAM5qk1r9m3OqcO-YUN0nCOt2yRfUxVWLZ-8huxevlCI0JnIJgpSBZN4mtw0gxJnrGtuaS9iUf7k-JFfmRGRkBXQafWO9MIk_oJ'
  lat: 40.115491
  level: 7
  lon: -88.227358
  name:  'Arnold O. Beckman Statue'
- ap: 2537
  img:  'http://lh5.ggpht.com/tVkUyAJPzoQiIilJCSPpwPCqNYSC70DZydpa07fwbCQM-10lVGa41u-oM_7ZXsORl1gYlycrI78KlMpubKMg'
  lat: 40.079691
  level: 6
  lon: -88.208765
  name:  'Bruno Schielzeth Memorial'
- ap: 2537
  img:  'http://lh4.ggpht.com/pTt4-DDT1cwTbzZEeKmOdZaGiy-eSWxNd6UttqXGqJNsFXd38QwCsiHKDTcWeMDbhCt8ddLDZsyBcpNW6aGnLA'
  lat: 40.078858
  level: 6
  lon: -88.200763
  name:  'Prairie Overlook'
- ap: 2537
  img: http://i.imgur.com/5j1qaiT.png
  lat: 41.900504
  level: '?'
  lon: -88.759599
  name:  '7cee4a550f344c90b460bc5ed68a9a7a.16'
- ap: 2537
  img: http://i.imgur.com/5j1qaiT.png
  lat: 41.843024
  level: '?'
  lon: -89.485425
  name:  'f0dfef153dc644919b274d9bca69d0f6.16'
- ap: 2537
  img:  'http://lh5.ggpht.com/cAVQ0bxfUIyyRsK2WMct_JL7PakeKZCfrM9_YQmE6gunhf9tFyzp6GXC7xVzzzKycFp-LpsvVyPsM9gSEcY'
  lat: 40.106685
  level: 5
  lon: -88.195479
  name:  'Robert V. Johnson Memorial Plaque'
- ap: 2537
  img:  'http://lh6.ggpht.com/3Z_ahLKZKpEJ_5dh8wG1jTBp6wvIadDrU8lnAkZ4flL_mtxKtbh2HxixutEK3usEaP47L6jU0VA1by70WIuJ'
  lat: 40.110984
  level: 4
  lon: -88.196857
  name:  'Victory Park South Entrance'
