- ap: 10409
  img:  'http://lh3.ggpht.com/sisvfsphxy7AK_2qrrqb7lNJk3_7ciHSVJyodINYITBc-UqugyNOooCxKupgJKEg5m_x95eZwouSO2WCmN60ew'
  lat: 40.098579
  level: 8
  lon: -88.249603
  name:  'Chef Ra Memorial Plaque'
- ap: 9659
  img:  'http://lh5.ggpht.com/HhVreJipNvxPRVFpmsh2BPo9PcpPO2Q2l3jCpDjIKgfKGycoTNPXR4DKiYccBXW4X-4dJf_vV0ESsWAWHcChsg'
  lat: 40.100936
  level: 8
  lon: -88.250855
  name:  'Donald F. Bresnan Memorial'
- ap: 9472
  img:  'http://lh3.ggpht.com/8FqlniFErK7cq59awiT84u8KyV4FIRd5krZzfYa58zJToFps7whdBnriPqvO_kFKeLUE3SWbJhCOPuvUQzaGFA'
  lat: 40.100691
  level: 8
  lon: -88.251337
  name:  'In Loving Memory of Zeus'
- ap: 8159
  img:  'http://lh6.ggpht.com/5CDidk0pqfUtSW_Yqouuf3diX8drdMu9DoT728QpSz8q6A-WxNhT0yLcgM_7gGpyIAeXrHiTkIzzaVJFgnN9WA'
  lat: 40.099852
  level: 7
  lon: -88.251947
  name:  'Our Friend Tim Palmer'
- ap: 8159
  img:  'http://lh5.ggpht.com/tfAfnmo6mSMc6U0P533NMFJRGwn6lasmx-MLR2JJg1QOizMKkghFU8E7hb2zgYgdQEbgnCJUlvZIMdrrJe4'
  lat: 40.100822
  level: 7
  lon: -88.25193
  name:  'Seeds of Kindness Bench'
- ap: 7222
  img:  'http://lh4.ggpht.com/vKgqIecJshMQxrhO-ZhMjcIyARuJdyU63wKfzAG0wouZex6LVzO46Qi5zM1N3Jx8xyantDFk9sQGsSEBhb-y'
  lat: 40.101327
  level: 8
  lon: -88.251412
  name:  'Zeus Memorial'
- ap: 7035
  img:  'http://lh5.ggpht.com/q-mJ2EvrjGn2PfbBh3Pl3XIGUyzTqxGjZmTMhn3k9_2Qi0S2hs3k2ZvpKb4kvt60AXHiyQdxqft5ZecPcg7x'
  lat: 40.098959
  level: 8
  lon: -88.250141
  name:  'Bob and Wilma Tinkham'
- ap: 7035
  img:  'http://lh6.ggpht.com/YVbqGVTjJuDMDdj71CP2mWvnUIdgO25PgoDdJwEGnEE_M9I1aDgKyjSr9JOZVU6UQTZQtfUo9RAWyz92n3jtCQ'
  lat: 40.098475
  level: 8
  lon: -88.249208
  name:  'In Fond Memory of William Moore Jr'
- ap: 6846
  img:  'http://lh3.googleusercontent.com/ryRMzj5c3ls-s5Gocd2-IM_oonInNzjPIbCGJVps6JmZxYcG165NabHKNZW7wAepNc8rtLf3A3E0U1mbq-I'
  lat: 40.126572
  level: 6
  lon: -88.258329
  name:  'Circle K 1101 N Prospect'
- ap: 6285
  img:  'http://lh6.ggpht.com/YdeB0EKlsopL39a9YXWj4JBZgXNNLWHgfe4PQzdpWCNWc0fR1YTj8WjARDHnmrusvKWTqKLcGg8U9frhtsw'
  lat: 40.09821
  level: 8
  lon: -88.249879
  name:  'Hessel Park'
- ap: 6285
  img:  'http://lh3.googleusercontent.com/E2FfrLzJb3mHfXBany5NUYpw8tvRpjHxGQ7W0BTKFPVcMupabCQ2fXgQfa0jajRZbLswWOYbEkCO3hUGbIGD'
  lat: 40.099056
  level: 8
  lon: -88.249136
  name:  '"Cricket" and Bob Barger Memorial'
- ap: 6098
  img:  'http://lh6.ggpht.com/yjfa0jJLjsfLRf9Zn9iafMp3MuIhgCi0WiOCF8GqTGiGvzEnsPGrFa0H1n-uzWhVehLbt44ShthsA32VzHd5iQ'
  lat: 40.099737
  level: 8
  lon: -88.251157
  name:  'Tyler Van Atkins Memorial'
- ap: 6098
  img:  'http://lh5.ggpht.com/8zq5tMevCiipZK8N9-8SZw3vdsA2HwH0E02ormQshGxHVZrB2WPK7OPC8zt6pjLlgpXVuEYHVA_08_Q8fPw-'
  lat: 40.099647
  level: 8
  lon: -88.249648
  name:  'Max Overmyer Memorial Playground'
- ap: 5161
  img: http://i.imgur.com/5j1qaiT.png
  lat: 40.244134
  level: '?'
  lon: -88.186714
  name:  'd4f3f6d1908f426b9000814691cde7d3.12'
- ap: 5161
  img:  'http://lh6.ggpht.com/5R8z1wwducaGMkvLFryu9HzC91eX02E3KDY04s9Il7Qrdw8efQiRGZ_vbgqW0Fuvp4-I_d9ugFC6lPc7lxia'
  lat: 40.113465
  level: 5
  lon: -88.291684
  name:  'Anna Jean Russell Memorial Tree'
- ap: 5161
  img:  'http://lh6.ggpht.com/S7Utf4_59vQkAP5JhC3mdbzVLKBTt-0zoJ2UjfxUnN10VBbixO-_VwvssWd1LbFSx_yafaijd_U0wTGo870'
  lat: 40.100941
  level: 8
  lon: -88.251314
  name:  'Gabriel Patrick Maxeiner Memorial Plaque'
- ap: 5161
  img:  'http://lh5.ggpht.com/-UWK84I78Sftf7yg-E2pg6xEAWTvyiThgJBJlxbqOZPYKNmzQ8uGgEEMetzplrG1HpXG5kQqNItUeXKxOHDsGA'
  lat: 40.100286
  level: 7
  lon: -88.251747
  name:  'Tennis Anyone'
- ap: 5161
  img:  'http://lh5.ggpht.com/C6wRSaEWO1NYGY5luyYZKHG3Z3aib4aflaPdV7B9G6N6adE890g3QuPRSvCUhsdFHqjoVUjo27mfz9WsjXyuhQ'
  lat: 40.100521
  level: 7
  lon: -88.250864
  name:  'Gabriel Patrick Maxeiner Memorial'
- ap: 5161
  img:  'http://lh5.ggpht.com/4DJAFPeZ_w65Km7VDnsbOqouQaeBuPuxA0KHPQToT_B6o1hBxzdu3kn89UhHgv22Ygj52Fx9QqcbzOytuw'
  lat: 40.100078
  level: 7
  lon: -88.250683
  name:  'Brian Clark Memorial Plaque'
- ap: 5161
  img:  'http://lh5.ggpht.com/3t7XZHqwxLZ8Lc9YomR8FInm74U2PAA-DBk8kmdxXIrcXbKa1CoBDTlgdDJeO-_yVT3qNKRnNLzbdil1eH41iA'
  lat: 40.09935
  level: 8
  lon: -88.249766
  name:  'Jim Bickel Honorary Plaque'
- ap: 4785
  img:  'http://lh5.ggpht.com/oyiyn1Im-Ppa2y94WGbvZox7rcS2MMu45LOziU7yXZi4v2540YN6hgzBokVq2mxvpPtdDXpAwWD_vYWxjHcO'
  lat: 40.130238
  level: 6
  lon: -88.253835
  name:  'American Legion Post 24'
- ap: 4598
  img:  'http://lh5.ggpht.com/1eDayuS4d2wNAfoiDstKMYbI0A-jF-si0NR2wlIA4cGm_nJhPwg0qgwC4fHnpfADWMcQd31BdogexUe3d1W2'
  lat: 40.124396
  level: 5
  lon: -88.305917
  name:  'Sawgrass Playground'
- ap: 4598
  img:  'http://lh6.ggpht.com/L2LdCXwXyxkV_ENkb567X8EtQ8713-lEbbpVfOAg4_yiMbHvUnq9u0Ks4DCgqlvRAUMgsoMJJR3RPsup2oU'
  lat: 40.122772
  level: 5
  lon: -88.30035
  name:  'Barb Babb Memorial Plaque'
- ap: 4598
  img:  'http://lh3.googleusercontent.com/zcTaX3OHcGZu7CzBV1HvsKtB5RiAW7oMwxS_7phps0tjr70eNr8xbxrJ_P6agi_uXJtMNdHPnks9rZcrR6mG'
  lat: 40.127267
  level: 5
  lon: -88.253451
  name:  'Champaign Fire Department'
- ap: 4411
  img: http://i.imgur.com/5j1qaiT.png
  lat: 40.286148
  level: '?'
  lon: -88.126397
  name:  'b7462fe79c874282b8ca4240ac1d6f55.16'
- ap: 4411
  img: http://i.imgur.com/5j1qaiT.png
  lat: 40.285989
  level: '?'
  lon: -88.127072
  name:  'Paul Fraser Kent Memorial'
- ap: 4411
  img: http://i.imgur.com/5j1qaiT.png
  lat: 40.287854
  level: '?'
  lon: -88.131527
  name:  '930bf9acae704f62af2684dade44b599.16'
- ap: 4411
  img:  'http://lh4.ggpht.com/0pYkppjw5D-G0gCZ1pULK83NAqN9qsyzbBnG8K8YMyMekJwqUrZQDRpTqgqB3rrRD6zJezplE_wlFOTPLovb'
  lat: 40.127745
  level: 5
  lon: -88.287039
  name:  'Parkland College'
- ap: 4411
  img:  'http://lh3.googleusercontent.com/Tixp17uCaP682s77UzvCwWCOE6vg7iB2qEFLjACq7xtVJdHE0K3yKYsl3_SwKbiUfQWwgTQRbvfka3U0NvNc'
  lat: 40.098819
  level: 8
  lon: -88.249214
  name:  'Bette McKown Honorary'
- ap: 4411
  img:  'http://lh5.ggpht.com/aeGh3iXJqJ7skg-2JHEpngMSfcp1qDIEPoLMxzQNqbS5Y7HcxN7oE789bXiVFoFIcdCn7-3AhLPtxT_WE2E'
  lat: 40.0985
  level: 7
  lon: -88.248681
  name:  'Siti Sculpture'
- ap: 4411
  img:  'http://lh5.ggpht.com/bfKOeX_4UfGKl782sh8E3x6aQAo4jfgz9XTIWwc3fQxp79lPdUeONB3Cbev9q3U17KEqZnQHZxN7uxFa8s-B'
  lat: 40.118414
  level: 5
  lon: -88.238922
  name:  'Prosperity Gardens'
- ap: 4411
  img:  'http://lh5.ggpht.com/n8MFM2pb-tE5i9EziJdygPPUK8VqEZ4BHGQaywz4lwe3WjwdgO0ohBCPZmiMoL00r3mVPmYnbCunJDeFbyk'
  lat: 40.118593
  level: 5
  lon: -88.240416
  name:  'Champaign Rail Water Tower'
- ap: 3848
  img:  'http://lh3.ggpht.com/WWhYcmz7SmE72z0SL44DRgW7htbIekUCuGiMB3k2U4oqOpii2n2vl1T7LX91Izu4VR89_uvBjK0HYR2KBM8'
  lat: 40.100276
  level: 2
  lon: -88.223103
  name:  'Taft House'
- ap: 3661
  img:  'http://lh6.ggpht.com/WVVbmiu2GGTnPTszcnYYILHKlkZDoxB-QY6Yv7YPoUfdVn92jYnKjpVKNkfWdFrPjq-BaFeKGJWLZlE-bbA'
  lat: 40.120467
  level: 5
  lon: -88.2577
  name:  'Salvation Army Church'
- ap: 3661
  img:  'http://lh4.ggpht.com/dzQSyJummIX5lEBsPg0bjVUKgWuducW6OgwYfPUATs_OtoqhXsCvhVFuC98ULi8Gvi0ywyeTUACotvmS32A'
  lat: 40.130306
  level: 5
  lon: -88.253037
  name:  'Fagen Truck Accessories'
- ap: 3661
  img:  'http://lh3.ggpht.com/oeDUEBp28WaIrVgu56so0RHsevHI3kTdSUH4Yb2ebHIaYzHM0Fry6NYUrqGq0t5Uz4s308QfhhKbiIBfIjDn'
  lat: 40.119588
  level: 5
  lon: -88.238445
  name:  'Allen a Rivers Memorial Plaque'
- ap: 3661
  img:  'http://lh3.ggpht.com/RPwmqKgDoVBfLknuC-LM6Vvni6av9IgVxpZapS8lQSDH-fHokPS_j6pH-R9dax4sKqOB5naETVESobfZWDrC'
  lat: 40.102705
  level: 2
  lon: -88.225051
  name:  'ACES Library Information and Alumni Center'
- ap: 3661
  img:  'http://lh6.ggpht.com/CFr5FDgsztNbeSQUq6x63c17MTKeKxsaUoY7uq6eft3-_1XjCjDOPcpjtaA8iqU-gi7m9txMeWkfG0UuT6mv'
  lat: 40.099069
  level: 4
  lon: -88.225654
  name:  'Frank Kern Robeson Memorial'
- ap: 3474
  img: http://i.imgur.com/5j1qaiT.png
  lat: 41.717132
  level: '?'
  lon: -89.923897
  name:  '2ba17a5e950e4863929d91cf67f68873.12'
- ap: 3474
  img: http://i.imgur.com/5j1qaiT.png
  lat: 41.546105
  level: '?'
  lon: -89.123601
  name:  '3cd1f98b928c41e5beb0e666b4686fc7.16'
- ap: 3474
  img: http://i.imgur.com/5j1qaiT.png
  lat: 41.54743
  level: '?'
  lon: -89.126762
  name:  '4501f776f08d45a084cb064a242ab1e7.16'
- ap: 3474
  img:  'http://lh3.ggpht.com/7sJlWdBFFcLCXWnnfB6SVTzCCDM0Q7KyV5jALfrWG3ICtkw7HXrjzaRrnzSiv19wIswpZoTxKYudzYiZnT9Shg'
  lat: 40.112536
  level: 4
  lon: -88.256779
  name:  'Framer''s Market'
- ap: 3474
  img:  'http://lh5.ggpht.com/fDRifvVcFT_dKhPuNBN4rR9lNHL0Q6NvbMnGr2-ZdiirR2rJrBcWRi4vyM3-DYNHymUs7bWchaWRaUtBpg'
  lat: 40.098541
  level: 8
  lon: -88.250389
  name:  'Dennis Robert Costello Memorial'
- ap: 3474
  img:  'http://lh4.ggpht.com/B2vdd-GNe0spcXIaZEpymMOiuYG2F1pR2kZ0-STAGZ2swwtYgJqAcuxlK21aFy2lLA_L2Kibx6SRVzfzm_al'
  lat: 40.117216
  level: 5
  lon: -88.23895
  name:  'Champaign''s Lincoln'
- ap: 3474
  img:  'http://lh6.ggpht.com/Qfyp6BK43B93Oo5kazv7b-62q_5cx5GKxXPyw6Juss-A6AgPx81B0lyWhzW7Ava9ztLzedt07gEh3ia2PPFDwQ'
  lat: 40.113636
  level: 5
  lon: -88.208146
  name:  'Jolly Roger'
- ap: 3474
  img:  'http://lh6.ggpht.com/FsUBggh0M3sjncoth6JaamkCglQtDsuiR89k30B2sMp7srgh0Hz6trgv7BhNRSJA6qI7OvipV8B3XEhzHmaNxA'
  lat: 40.113513
  level: 5
  lon: -88.207559
  name:  'Black Dog Smoke & Ale House'
- ap: 3474
  img:  'http://lh3.ggpht.com/OCKiEBzmQ9VMmiVZuW498_1iUjQHiKo7krCcba5dOYnEpjzNQkGhJZr8d7jJuSxUSdkvKjjzN-gV47-buFSO'
  lat: 40.114488
  level: 5
  lon: -88.209395
  name:  'Boneyard Whales Sculpture'
- ap: 3285
  img:  'http://lh5.ggpht.com/k_9eqZVvGcr3ZNyeeSNDM1-Y7od35KmnQQptB9usrdpTdpGW2c_5-12rYy9hGazdx7qhlYrEXxaJ_ZIVFywlcA'
  lat: 40.106706
  level: 5
  lon: -88.232116
  name:  'Illini Tower'
- ap: 2724
  img:  'http://lh3.ggpht.com/jW-2Ce-dZ1Q0ljxUo3Cv-jckhBnpc4tF_LgZS1keMALkHV6RdWqDFJ2IDEj9bbeUrZbHubk7zNmzoHoLXmA'
  lat: 40.121037
  level: 5
  lon: -88.21093
  name:  'A Fountain in the Forest'
- ap: 2724
  img:  'http://lh3.ggpht.com/tXDyz6XRrR2AKSg9Rrj1z6jBG4dz7uR9qFmSUO1bWljMEw67ncNiq-2Hx3O9Fs029iRtvCV1gdlGN7pG69L0'
  lat: 40.114104
  level: 7
  lon: -88.237694
  name:  'Lo Park Fountain'
- ap: 2724
  img:  'http://lh3.googleusercontent.com/XQb7KWjSJlhbfrYsW2727_AeRoEQ5BbG0fRTTY5js_4zRdArbiRhCRkXunVa81rQpk9yX4RB6x1dV97DnYN7'
  lat: 40.104722
  level: 3
  lon: -88.223683
  name:  'Louise Freer Hall'
- ap: 2537
  img:  'http://lh3.ggpht.com/-mMz5f80ITpPoby5jxbF9QtmyShskFPdt3J1DYxUUOJnPDobi-B33A_7DJQ8N-kfYBjPJR09_PYzGhzSHm0'
  lat: 40.064501
  level: 5
  lon: -88.293621
  name:  'Curtis Orchard Harvest Indian Statue'
- ap: 2537
  img: http://i.imgur.com/5j1qaiT.png
  lat: 40.04101
  level: '?'
  lon: -88.384378
  name:  'St Boniface Cemetary'
- ap: 2537
  img:  'http://lh3.ggpht.com/VHM1Luv_wfb6I2I5Rmj3ANpW04rOGs8TfXmMtfsNpZRNr8ziLm9Pmxfv4q49ppFC6v0BFNEzJEQkgx5TJxgD7g'
  lat: 40.127626
  level: 5
  lon: -88.282223
  name:  'Greenbelt Bikeway'
- ap: 2537
  img:  'http://lh6.ggpht.com/fhMd686ql-IYC_DqSfUdbHHl3jAaBKjkykuSJ_Lx5nPI46OaE-pA_penftiqIC_r-xDmrFhRZU5vmcweUncZ'
  lat: 40.127665
  level: 5
  lon: -88.284336
  name:  'Dodds Park'
- ap: 2537
  img:  'http://lh4.ggpht.com/ryDcZUJK2aQ_fI0-hY850_t4ZmG2hNmtCx7cxbX83w3cnUWdI-ywpTuQrUVQNxGl3_DcxxNr6bupfDTsagRa'
  lat: 40.117107
  level: 6
  lon: -88.242467
  name:  'Radio Maria'
- ap: 2537
  img:  'http://lh3.googleusercontent.com/oYQaQpOQ2HICancOs0DcaCqX1KiTJEoAeKp6EUWBs5u-TjTKqJlzTSzA0QMldAg6HLWb3rX4m4_cwKwGCtpV'
  lat: 40.118684
  level: 4
  lon: -88.244894
  name:  'Farren''s Pub and Eatery'
- ap: 2537
  img:  'http://lh5.ggpht.com/EoSf8hHJu8u_sZNBmm3S1GHAWAxUzBsmXEWMMBkHb0fpzxtjz5RHwnclV42-DDwyDr2BION1zqJ4sLIkaiw'
  lat: 40.121818
  level: 2
  lon: -88.222608
  name:  'King Park Tennis Courts'
- ap: 2537
  img:  'http://lh6.ggpht.com/C7ThuP5fwrDTu5cMDpoeGmRjotNh6eUnPf3ksvSsUj5NkHZ0yKbIUnF8cSikhX-I_7O42CTwqjhLq9z3jkIL'
  lat: 40.111844
  level: 7
  lon: -88.228609
  name:  'Talbot Labs '
- ap: 2537
  img:  'http://lh6.ggpht.com/IaC06rT1aNxUg_4UOc0RHOio2PUjl5w1cZcGYE56zHNZN9ZeRuAGzoAPG4XB6eJURfP8M5v7bDcq_AdB1E5A'
  lat: 40.119861
  level: 5
  lon: -88.238491
  name:  'Skelton Park'
- ap: 2537
  img:  'http://lh4.ggpht.com/ETgOsKlMmsv5wRT-aM33VVVEgFvp3ZoMxqXmYKxROpFAYnfPqjWhltqYBG7ajEuM8XKf3mVeSaF7r9grm2t8'
  lat: 40.113448
  level: 7
  lon: -88.237188
  name:  'Boneyard Creek Second Street  Basin'
- ap: 2537
  img:  'http://lh5.ggpht.com/2zEYZdL0tuQhUP5HHcOYFsPQfjx-nNDHhi8DMJEzzkjbEA9hODz2iDCcmj4S9NEGBsHW4nYYR010lA_6kyhk'
  lat: 40.10038
  level: 3
  lon: -88.225191
  name:  'Eleanor Hammers Boner'
- ap: 2537
  img:  'http://lh3.googleusercontent.com/ryRMzj5c3ls-s5Gocd2-IM_oonInNzjPIbCGJVps6JmZxYcG165NabHKNZW7wAepNc8rtLf3A3E0U1mbq-I'
  lat: 40.109923
  level: 1
  lon: -88.239141
  name:  'Circle K 59 E. Green'
- ap: 2537
  img:  'http://lh6.ggpht.com/0WV0zgKIo2AbnMTwJXYSM-C6nik92XvxsPKcZps2SdFzIWJ2bY4k2dHAqdImb1hTCK910NMvQYoKlwWprt6c'
  lat: 40.12034
  level: 4
  lon: -88.211743
  name:  'Alice Mimi Muller Dedication Plaque'
- ap: 2537
  img:  'http://lh4.ggpht.com/QGRtYb5gsWsiyn9EznIJ0ApB7yWv-SWBAH6CKgO9JRg3PCgn-s8yQMtXPkMDht8dNjPchkCRleUIBT-DnYXh'
  lat: 40.112928
  level: 5
  lon: -88.209039
  name:  'Courier Cafe'
- ap: 2537
  img:  'http://lh6.ggpht.com/orpM1lF6sc24rL0AGIiGqg18zTkIPXvZoM2xcA-mKGbaHOESuKbO_RQrwjxW9NTZjG0QqCRU9j2goZUvangFDQ'
  lat: 40.112894
  level: 5
  lon: -88.208433
  name:  'Boulangerie Mural'
- ap: 2537
  img:  'http://lh4.ggpht.com/u_MtizNv_keIXM4ITgtjqC8nr5JvB8UpDBg_5_08uQDTsQr44mwr6ZlkhTp0iKbvcV9xCJqXDeN66xYWaI0'
  lat: 40.116227
  level: 6
  lon: -88.233833
  name:  'Haley-Walker-Ginza Building'
