- ap: 12655
  img:  'http://lh6.ggpht.com/t9_eydZD2uZIBwEmrNcPR2FWXjyVKK06CTbNoZQ682AuvHAsWKBewlbzTqH7yqOjuPMBBkqOGwETeqt6hoU'
  lat: 40.194618
  level: 5
  lon: -88.401509
  name:  'Mahomet Area Community Center'
- ap: 10783
  img: http://i.imgur.com/5j1qaiT.png
  lat: 40.040518
  level: '?'
  lon: -88.384748
  name:  'St Boniface Catholic Church'
- ap: 8346
  img: http://i.imgur.com/5j1qaiT.png
  lat: 41.046842
  level: '?'
  lon: -87.450616
  name:  'a07d49b4d91f4effbdaaad18db32e32e.16'
- ap: 8346
  img:  'http://lh5.ggpht.com/PnX0W4nb5AYgeh3aSV1f6L1M6SXT5EDNNj-HZLlIrqeFoeMlVOlqnsY-fMyXYgvKn-Ac3RDPKf_iJCtYRmek'
  lat: 40.194805
  level: 5
  lon: -88.401996
  name:  'Leland Dollahan Memorial'
- ap: 7596
  img:  'http://lh5.ggpht.com/dRrlHXlT2nMNgZNHiYo52ha9L-Xay9DyOJR2Cpqs74hgAJ09abn9OTAtMzRVedt1_R9ObZllLO98vRhNMfgTgVsJCk1S-HJwX_XgiGpG4lz3a328'
  lat: 40.11671
  level: 7
  lon: -88.24263
  name:  'Cafe Kopi'
- ap: 7409
  img: http://i.imgur.com/5j1qaiT.png
  lat: 40.113259
  level: '?'
  lon: -88.369764
  name:  'Bondville United Methodist Church'
- ap: 6846
  img:  'http://lh3.ggpht.com/XaZzWDP5U-vtL8yEkxaNwCrU_q6qIysJDlNoqZkR09RTjO2B2mFufW-372cRUjNpbXhYkuz7AfTbsVHnxUIT'
  lat: 40.189527
  level: 5
  lon: -88.396209
  name:  'Barber Park'
- ap: 6846
  img:  'http://lh6.ggpht.com/SCYK-XeMmOyfRrTt1-aQNoDA-2Sib4m5Ch26mTwo6XNdVeVnfi7W74Ik6IRLAPSoKzSS97pgwt50Jl9oSgGfP029USxZzQWKNJo3rbs-6YHBPBif'
  lat: 40.116792
  level: 6
  lon: -88.241752
  name:  'WEFT 90.1 FM Community Radio'
- ap: 6659
  img:  'http://lh6.ggpht.com/pRR6eCp2PyD3vDZlmHjKOeq8OKg0KhFPVnuWAP-pB7RR36eKA3TlQwYX5pwYfBjPyVyB4oPXXOomdbqpVcY'
  lat: 40.116065
  level: 4
  lon: -88.313206
  name:  'Alan Green Memorial'
- ap: 6285
  img: http://i.imgur.com/5j1qaiT.png
  lat: 40.011563
  level: '?'
  lon: -89.278425
  name:  '93ee049f33d544d78fc4ce1dc2b491fc.12'
- ap: 5722
  img:  'http://lh6.ggpht.com/EpDmgl9Bi8qdvvRTrGPo2oNcd7kOJPiS2S30s9QEI-CzsTS1vWcWU1xds42YMD4AxCuLpDoKvGSeGtvjDNu-'
  lat: 40.189224
  level: 5
  lon: -88.397522
  name:  'Lions Pavilion at Barber Park'
- ap: 5535
  img:  'http://lh6.ggpht.com/jzcknzJD--LvlqQqPBMjG5p5MOsy0bVOqavN3G5IS_o5-rYQyZDSv-dIiYpewV2Odmjeq9dpcCnS9xfpo4aRxQ'
  lat: 40.194684
  level: 5
  lon: -88.401764
  name:  'Mahomet Community Pavillion'
- ap: 5348
  img: http://i.imgur.com/5j1qaiT.png
  lat: 39.598648
  level: '?'
  lon: -88.605735
  name:  '023c790db2d64df3af5c99e448cfb8bf.16'
- ap: 5348
  img: http://i.imgur.com/5j1qaiT.png
  lat: 41.455334
  level: '?'
  lon: -88.260988
  name:  'fc7b1e08b34b4527b06a12b54be8bf59.16'
- ap: 4598
  img: http://i.imgur.com/5j1qaiT.png
  lat: 40.195867
  level: '?'
  lon: -88.404791
  name:  'US Post Office, E Main St'
- ap: 4598
  img:  'http://lh5.ggpht.com/KYppjeOoIlb4lbowRrrC5qRdYW7_KU8rzjtDMpvhh-Q_c6VZOTtVmOqmmxChJA2hjlpS5dJ1JnhUQcKUAXDWHA'
  lat: 40.117976
  level: 5
  lon: -88.242642
  name:  'Stevick Building'
- ap: 4411
  img: http://i.imgur.com/5j1qaiT.png
  lat: 40.04101
  level: '?'
  lon: -88.384378
  name:  'St Boniface Cemetary'
- ap: 4411
  img: http://i.imgur.com/5j1qaiT.png
  lat: 41.455264
  level: '?'
  lon: -88.260588
  name:  '755ebc4299404bf5999fff2d61851997.16'
- ap: 4411
  img: http://i.imgur.com/5j1qaiT.png
  lat: 41.455324
  level: '?'
  lon: -88.26133
  name:  '4e5fedf634554278a6ebd2872554ab3f.16'
- ap: 4411
  img: http://i.imgur.com/5j1qaiT.png
  lat: 41.455051
  level: '?'
  lon: -88.260952
  name:  '150384d361c44f009f915faedca5ad39.16'
- ap: 4411
  img: http://i.imgur.com/5j1qaiT.png
  lat: 39.5992
  level: '?'
  lon: -88.606616
  name:  '5e2d98cf8d184a658162cb8ee31f7fc6.12'
- ap: 4411
  img:  'http://lh4.ggpht.com/_jAAuDi8SO5uupi8JlB3HZaFG40S15izNv_3vqOt7ro2rRHuXrfdEKfEFvRESdAjCEz3RVDpyrxJGSIrju5d'
  lat: 40.117916
  level: 5
  lon: -88.243087
  name:  'Sholem Building'
- ap: 4411
  img:  'http://lh5.ggpht.com/BUGNnLReyCBJJj9_zpqgwv5_CAyiW8fWBpyVs0ip1hT5NEE6YKCYzlc8ahldKzk_xv-4uckNJNb6NrJd6r33qg'
  lat: 40.116989
  level: 7
  lon: -88.242255
  name:  'Blind Pig'
- ap: 4411
  img:  'http://lh4.ggpht.com/ryDcZUJK2aQ_fI0-hY850_t4ZmG2hNmtCx7cxbX83w3cnUWdI-ywpTuQrUVQNxGl3_DcxxNr6bupfDTsagRa'
  lat: 40.117107
  level: 7
  lon: -88.242467
  name:  'Radio Maria'
- ap: 4411
  img: http://i.imgur.com/5j1qaiT.png
  lat: 40.202619
  level: '?'
  lon: -88.415392
  name:  'Our Lady of the Lake'
- ap: 4222
  img:  'http://lh3.ggpht.com/AflEYleLSbb1ODQvIdBOrTrq1Zkk-rgHU4WaHjaZ6Md2zDSaqq8cERAJWcwG1QFkrzGf6gp3oC-DZuLOCDb4'
  lat: 40.112779
  level: 4
  lon: -88.239045
  name:  'Layalina Mediterranean Grill'
- ap: 3848
  img:  'http://lh6.ggpht.com/0IsQORyEW-bPA7sEbGspygtoI7ixEshm_2fUw5oeh9AeXg6JN5w0ypYIshpuKm-C0nG4Vm2XmpLvtWTZzWzd'
  lat: 40.111607
  level: 5
  lon: -88.233753
  name:  'Chabad Menorah'
- ap: 3848
  img:  'http://lh4.ggpht.com/2tHD_AHYQu0kWuwLX2HMYWBG4txVkuWsBEfzWLL39npWp8kMSHiUKxSJM1E7yhimuMVUJ-RIlSSKsgjETvtr'
  lat: 40.110524
  level: 7
  lon: -88.228706
  name:  'Leo Roy Tehon Memorial'
- ap: 3661
  img:  'http://lh3.googleusercontent.com/ryRMzj5c3ls-s5Gocd2-IM_oonInNzjPIbCGJVps6JmZxYcG165NabHKNZW7wAepNc8rtLf3A3E0U1mbq-I'
  lat: 40.113683
  level: 5
  lon: -88.315289
  name:  'Circle K 4202 W. Springfield'
- ap: 3661
  img:  'http://lh5.ggpht.com/KadNuhjGK6FUXezGHW1W1kfPOQV5l7gJP594EQm5nPZFLTgcTsjl4ixa-j7XitgtyJyou3q0pTfMr4i2E_avIA'
  lat: 40.118013
  level: 5
  lon: -88.243445
  name:  'Clock at Neil and Main'
- ap: 3474
  img: http://i.imgur.com/5j1qaiT.png
  lat: 39.711942
  level: '?'
  lon: -88.805794
  name:  '78259f7b58ef47539918f6c927da7f13.16'
- ap: 3474
  img: http://i.imgur.com/5j1qaiT.png
  lat: 41.456387
  level: '?'
  lon: -88.261923
  name:  '8598f7621c404b288659b0d061ff85ab.16'
- ap: 3474
  img: http://i.imgur.com/5j1qaiT.png
  lat: 41.455127
  level: '?'
  lon: -88.260424
  name:  'dbd2fe4b2b8b42efa61fbe07b20900d5.16'
- ap: 3474
  img: http://i.imgur.com/5j1qaiT.png
  lat: 39.599445
  level: '?'
  lon: -88.606928
  name:  'Little Theater on the Square'
- ap: 3474
  img: http://i.imgur.com/5j1qaiT.png
  lat: 41.45501
  level: '?'
  lon: -88.261232
  name:  'cb2f0669a6424408a0fa4407baa44d9f.16'
- ap: 3474
  img: http://i.imgur.com/5j1qaiT.png
  lat: 39.711225
  level: '?'
  lon: -88.806932
  name:  'a3021fa89e034e82bd13306f5db63dee.16'
- ap: 3474
  img:  'http://lh4.ggpht.com/tLO2wjyCgyune3KDOlQMV_oiDRxVsHqO1gAG_0xs9TvKOiuWRVmJcO29WI7jELxoxncaXpy91kMa89Uj65JVNw'
  lat: 40.11784
  level: 4
  lon: -88.24286
  name:  'Kaufman Memorial'
- ap: 3399
  img:  'http://lh4.ggpht.com/MvwoDsxwfyNLHzfGkFJl-4VFeX7OvqB0hsMCrZ2D9Olh8GSghAJDfFfDh7a7cOtMIGwEDMyesZoKvKCXAGj4'
  lat: 40.116553
  level: 4
  lon: -88.242268
  name:  'Esquire Lounge'
- ap: 3474
  img:  'http://lh4.ggpht.com/W2chhQwPqSJEkl57NVoIL-OE4KFvJfp7Bsrrxza1apCYltcT3npz95LJxqHxvT9ZZu7wxF2gQy-5bpKal2p2'
  lat: 40.115838
  level: 5
  lon: -88.241338
  name:  'Illinois Terminal'
- ap: 2724
  img:  'http://lh6.ggpht.com/BY965mN-IwRRa-jZ2gbLPDtjHyKpATG3VbP3LyHuDo6pU0R8wDi5gANnRox6DEA_ZgB0Xqi-p6k0SYPnSIs'
  lat: 40.115883
  level: 3
  lon: -88.232238
  name:  'Artwork at Fifth'
- ap: 2537
  img: http://i.imgur.com/5j1qaiT.png
  lat: 41.457876
  level: '?'
  lon: -88.264303
  name:  '96c89b390557456892a31efb524455f4.16'
- ap: 2537
  img: http://i.imgur.com/5j1qaiT.png
  lat: 40.273821
  level: '?'
  lon: -88.676394
  name:  'Blue Star Highway Memorial'
- ap: 2537
  img: http://i.imgur.com/5j1qaiT.png
  lat: 40.455387
  level: '?'
  lon: -88.91468
  name:  '1dfae8d1a29544e3a7068db76f6d9b88.16'
- ap: 2537
  img: http://i.imgur.com/5j1qaiT.png
  lat: 41.431428
  level: '?'
  lon: -88.345007
  name:  'e5729b394f784af7b533789a1237123b.16'
- ap: 2537
  img: http://i.imgur.com/5j1qaiT.png
  lat: 41.019197
  level: '?'
  lon: -89.408941
  name:  'a2c1e5e27f88479195e1c7b4cb7a439e.16'
- ap: 2537
  img:  'http://lh3.googleusercontent.com/GDPeCcTdJQAFt7LgbquPo-YOAp7bq5HCFbElMBeXztI4hraTGO-j1GcNOwKaaSRRLcEHG13Gu-VDboEG4a7-'
  lat: 40.149097
  level: 1
  lon: -88.276148
  name:  'Illinois Heartland Library System'
- ap: 2537
  img:  'http://lh3.ggpht.com/eFFdc4ogWkS9n6Texp4aw9BhK-M6FRxwvMRH-YkXj7JP7qSRQdo7E0-0O4P7NawgvduxpxgjnbGHbN1BjW2_'
  lat: 40.114585
  level: 4
  lon: -88.311371
  name:  'Joe''s Park'
- ap: 2237
  img:  'http://lh5.ggpht.com/AX1hc0zh7ZtN2MoSsNXTKwRtGJWb8EgeHffmjJfZvCLL7wvvjMZ8d0BwESKKrdNM--UUKA09PrLQ9qmTrMw'
  lat: 40.117186
  level: 3
  lon: -88.241556
  name:  'Champaign Limestone Sidewalk'
- ap: 2537
  img:  'http://lh5.ggpht.com/ftmAzbnKocZkda7k1ZC-3gMqr3UiOKXsS9qFSxN8V4C6_DEZr79lkSpPL00EmiZn50-ZPzTQZZlBLlOdL4Rd'
  lat: 40.116219
  level: 3
  lon: -88.23253
  name:  'Skyward Railway'
- ap: 2537
  img:  'http://lh3.googleusercontent.com/vJ_iyOb44eFzOJUNpRouOPDI8rKgOESn7TWw9U9BR3OcWsb6Oak-SSfVH4iPPmtXJdk30rqet1D0KxVohiBC'
  lat: 40.114712
  level: 6
  lon: -88.238392
  name:  'Mexico Mural'
- ap: 2537
  img:  'http://lh4.ggpht.com/l4w3T1e27S5zPAMN3Mr-LqJ51cbm26ThR-ubvfUFHpl28dkeRb_CQThuhJ_HSNhdYt_dX9NTAN9hKFsDeWJQ'
  lat: 40.108295
  level: 2
  lon: -88.224083
  name:  'The Landing'
- ap: 2537
  img:  'http://lh3.googleusercontent.com/EwXPPCiuVPRkECPKlJtyqReSySoJKEdwrx1MkNVUy6EM9xWU_fet1Z-sLfx_P2_c54DeJcApxdl-hKg9vGVEtw'
  lat: 40.108224
  level: 3
  lon: -88.223549
  name:  'Colwell Playhouse'
- ap: 2537
  img:  'http://lh5.ggpht.com/3RfiPeOzF67ubNX-vkwUJ6-EYld6BKuoBernq0_9kOjlIsSPr3saR9FIQzN7uiw7ouF0CpNflOnL0mUj9zbqdQ'
  lat: 40.109452
  level: 5
  lon: -88.229031
  name:  'Illini Hall'
- ap: 2537
  img:  'http://lh3.ggpht.com/HX3mWBGofQk08Qdp7A6KMK1AnSXlLEPJR-n6oeX69Efiiss29GHsLiDsHhRS5K8DrXh-QXP1T0AMaOsJmx_w'
  lat: 40.106921
  level: 4
  lon: -88.230145
  name:  'University Lutheran Church'
- ap: 2537
  img:  'http://lh5.ggpht.com/k_9eqZVvGcr3ZNyeeSNDM1-Y7od35KmnQQptB9usrdpTdpGW2c_5-12rYy9hGazdx7qhlYrEXxaJ_ZIVFywlcA'
  lat: 40.106706
  level: 4
  lon: -88.232116
  name:  'Illini Tower'
- ap: 2537
  img:  'http://lh3.ggpht.com/0HyRE6hI-Dp8OIZWrGjSBLw06g4xLl3H3SxdYDO-wm20QdpGQtvQ1-GBpxfAE5WNcC0D_aY-oOfGM1Wj1--EvQ'
  lat: 40.106092
  level: 1
  lon: -88.223135
  name:  'String Project Plaque'
- ap: 2312
  img:  'http://lh3.ggpht.com/whmQSPmix2tEoKcWwrVrV0H0JzNf1tzyuohI3ykSa-Qx4rUcLTf4686WcnJjygsMY2QPUWhvVVzlmMMHof94'
  lat: 40.105907
  level: 3
  lon: -88.22564
  name:  'Andrew De Grado Memorial'
- ap: 2537
  img:  'http://lh4.ggpht.com/hJDi8J7CZU-933hT0Culp2nhslv6p8rDRPdTFz6FwNaAjB5CmfkaQzj9sM--E-QBvI8yvIJn1F2jxy7ZKWlh'
  lat: 40.10816
  level: 5
  lon: -88.234245
  name:  'Stratford House'
- ap: 2537
  img:  'http://lh4.ggpht.com/OFVPvdgB3GVpaQknHdnt2okgP3xcQksAH3wvOGYVuP85MMlxo3bQ2SRpBb0hzNfjQoC_5LlRqaE6jLB-h9Gr'
  lat: 40.108092
  level: 5
  lon: -88.234589
  name:  'Koinonia Plaque'
