- ap: 14344
  img:  'http://lh6.ggpht.com/BKeORacgeVrG8XzxTuXmpq5UxomWpK-I2n7Xy0PVbdSciNx9MJl869TcibnFIiV5PJHGv5R3QOpX6ZgLUwU'
  lat: 40.099706
  level: 8
  lon: -88.250065
  name:  'Lois Barham Memorial Tree'
- ap: 11533
  img:  'http://lh3.ggpht.com/lzCSS0_tjwUV7JQ2fgLI0e05IrzPxlVUs-6aEPOwUv67IanQJSTi71gkw0SGm8asmoE_r3Xoh048Fd9xRpE'
  lat: 40.099169
  level: 8
  lon: -88.251419
  name:  'Lyman Larson Memorial'
- ap: 9846
  img:  'http://lh3.ggpht.com/GXyi2ghi2DR3h7uIHNYiEZPYixRhDo7LO0WHQ0PyEzb-150r7ar7JGeVjUoPuObC-GFWf22UWqnYCMtED0M-'
  lat: 40.100341
  level: 8
  lon: -88.249937
  name:  'Alice Marie Weber Plaque'
- ap: 9657
  img:  'http://lh5.ggpht.com/tfAfnmo6mSMc6U0P533NMFJRGwn6lasmx-MLR2JJg1QOizMKkghFU8E7hb2zgYgdQEbgnCJUlvZIMdrrJe4'
  lat: 40.100822
  level: 8
  lon: -88.25193
  name:  'Seeds of Kindness Bench'
- ap: 9096
  img:  'http://lh3.ggpht.com/rUgM7jkTqL0VHxvsSW0yWuNJF5UrU62ITflghfn4PfKjn6L4WGz0ALkv98fc_q9dmK9SSpU1PXIawGvcRwE'
  lat: 40.098246
  level: 8
  lon: -88.251974
  name:  'Hessel Park'
- ap: 8344
  img:  'http://lh3.googleusercontent.com/W5PjcRhelt3420IFjpSdOXtmIiv0M99Qv9Xupe6lckHDJDW4zHE9GyACkz8wXBF0_OIO2Jex9d7S8UQ4FJLa'
  lat: 40.118361
  level: 7
  lon: -88.244573
  name:  'Art Theater'
- ap: 8159
  img:  'http://lh5.ggpht.com/aeGh3iXJqJ7skg-2JHEpngMSfcp1qDIEPoLMxzQNqbS5Y7HcxN7oE789bXiVFoFIcdCn7-3AhLPtxT_WE2E'
  lat: 40.0985
  level: 8
  lon: -88.248681
  name:  'Siti Sculpture'
- ap: 8157
  img:  'http://lh3.ggpht.com/NfRR7PyM2-UNoQGKgRsf6sUZdUTMp0sWqha9caVs49hYb0AnT9OznQX0dQGxKJNP6KiHWJ0WRUMSQh1m4-rwvg'
  lat: 40.117976
  level: 8
  lon: -88.245082
  name:  'Robeson Building '
- ap: 7972
  img:  'http://lh3.googleusercontent.com/Tixp17uCaP682s77UzvCwWCOE6vg7iB2qEFLjACq7xtVJdHE0K3yKYsl3_SwKbiUfQWwgTQRbvfka3U0NvNc'
  lat: 40.098819
  level: 8
  lon: -88.249214
  name:  'Bette McKown Honorary'
- ap: 7972
  img:  'http://lh6.ggpht.com/YdeB0EKlsopL39a9YXWj4JBZgXNNLWHgfe4PQzdpWCNWc0fR1YTj8WjARDHnmrusvKWTqKLcGg8U9frhtsw'
  lat: 40.09821
  level: 8
  lon: -88.249879
  name:  'Hessel Park'
- ap: 7972
  img:  'http://lh5.ggpht.com/fDRifvVcFT_dKhPuNBN4rR9lNHL0Q6NvbMnGr2-ZdiirR2rJrBcWRi4vyM3-DYNHymUs7bWchaWRaUtBpg'
  lat: 40.098541
  level: 8
  lon: -88.250389
  name:  'Dennis Robert Costello Memorial'
- ap: 7972
  img:  'http://lh5.ggpht.com/4DJAFPeZ_w65Km7VDnsbOqouQaeBuPuxA0KHPQToT_B6o1hBxzdu3kn89UhHgv22Ygj52Fx9QqcbzOytuw'
  lat: 40.100078
  level: 8
  lon: -88.250683
  name:  'Brian Clark Memorial Plaque'
- ap: 7972
  img:  'http://lh5.ggpht.com/C6wRSaEWO1NYGY5luyYZKHG3Z3aib4aflaPdV7B9G6N6adE890g3QuPRSvCUhsdFHqjoVUjo27mfz9WsjXyuhQ'
  lat: 40.100521
  level: 8
  lon: -88.250864
  name:  'Gabriel Patrick Maxeiner Memorial'
- ap: 7972
  img:  'http://lh5.ggpht.com/q-mJ2EvrjGn2PfbBh3Pl3XIGUyzTqxGjZmTMhn3k9_2Qi0S2hs3k2ZvpKb4kvt60AXHiyQdxqft5ZecPcg7x'
  lat: 40.098959
  level: 8
  lon: -88.250141
  name:  'Bob and Wilma Tinkham'
- ap: 7972
  img:  'http://lh5.ggpht.com/HhVreJipNvxPRVFpmsh2BPo9PcpPO2Q2l3jCpDjIKgfKGycoTNPXR4DKiYccBXW4X-4dJf_vV0ESsWAWHcChsg'
  lat: 40.100936
  level: 8
  lon: -88.250855
  name:  'Donald F. Bresnan Memorial'
- ap: 7972
  img:  'http://lh3.googleusercontent.com/awNe0JGlWWAtHv9iiLcqQjVyppWY-io4ybTL_ir2ZKsMLJgkZcW4rdUAuDjOFdWQvIcp5jlTWiROgHANh1Y1'
  lat: 40.087822
  level: 7
  lon: -88.253161
  name:  '"Ice" at Mattis Park'
- ap: 7785
  img:  'http://lh3.ggpht.com/VrbXGwlUosNLEkVdshWUFoVa3KtlJQoEU4yLYygvftYbPCmxo644Uvar_v8Kb9RS53hB0tXgvV44GotrxZyu'
  lat: 40.098592
  level: 8
  lon: -88.251676
  name:  'Ruth and Fred Steigmann Plaque'
- ap: 7785
  img:  'http://lh4.ggpht.com/4LxsGZZMk3DnpJXUvqzrL54CHSP5TDXjUnDJyHmCCTtCJIjGEI7kxT9g4uxfSPh0X6yGLgQo1jfqbu7B8VEr'
  lat: 40.099084
  level: 8
  lon: -88.251826
  name:  'Irina P. Stewart Memorial Plaque'
- ap: 7781
  img:  'http://lh3.ggpht.com/07XrBN-er6Ecleor0n9RJ4DfGO6B2yn-ZxjI-Uy8Ba46Jtb6cXNVmATPiPiGyk-1jZ4wxa7-EeIWbWUqArCG'
  lat: 40.142554
  level: 7
  lon: -88.243468
  name:  'Dog Heart'
- ap: 7409
  img:  'http://lh5.ggpht.com/WgDPQ47lNn2nlvNDPgwM_c-1MpVvxdVZtjZmFtixtr3rIi91xqYhgtSbyJGqRFnSXCUHy_RjABgEj2LSzOs'
  lat: 40.113343
  level: 6
  lon: -88.290525
  name:  'Fish Chimes at Kaufman Lake'
- ap: 7409
  img:  'http://lh4.ggpht.com/vKgqIecJshMQxrhO-ZhMjcIyARuJdyU63wKfzAG0wouZex6LVzO46Qi5zM1N3Jx8xyantDFk9sQGsSEBhb-y'
  lat: 40.101327
  level: 8
  lon: -88.251412
  name:  'Zeus Memorial'
- ap: 7222
  img:  'http://lh5.ggpht.com/PI7unWl258r16aSzGzVzmXA-tipsw3vs3MDDXFtwzlkmMfJBhVSwfeOHQxAZLTvdPTJSP8gNbAdJGdslEdkZXg'
  lat: 40.119636
  level: 7
  lon: -88.243213
  name:  'Sunder Planet'
- ap: 7222
  img:  'http://lh6.ggpht.com/3o0ObAARFV_8mBVCC_QD0iLOPVzNkakXybhLnSVEuXIJfDLKMxeYj-EkWIw9NPoZIVRf5Dkrid2yf_NEQ-iE'
  lat: 40.100347
  level: 8
  lon: -88.249385
  name:  'Travis Marmion Memorial'
- ap: 7222
  img:  'http://lh4.ggpht.com/vxjetUOC6_S8Ru3Q1ivzG4NE4bAAWg7_opiMwStExCoUHiRaIab8NyXLypEOAo7KBtsRQRzJX-TimhsOlBu3'
  lat: 40.087121
  level: 7
  lon: -88.251406
  name:  'Amdocs Shelter'
- ap: 7222
  img:  'http://lh5.ggpht.com/orl0d4FNIpZ7xsdZmVyH_732dMd4uGM01fQ-P5V82KufzWBOMbpankzTgjeS3frZhS7apS3qCrS2o4jtw7pAkg'
  lat: 40.105605
  level: 4
  lon: -88.227414
  name:  'Charlene E. Haight Bench'
- ap: 7035
  img:  'http://lh5.ggpht.com/3t7XZHqwxLZ8Lc9YomR8FInm74U2PAA-DBk8kmdxXIrcXbKa1CoBDTlgdDJeO-_yVT3qNKRnNLzbdil1eH41iA'
  lat: 40.09935
  level: 7
  lon: -88.249766
  name:  'Jim Bickel Honorary Plaque'
- ap: 7035
  img:  'http://lh3.ggpht.com/G1CvGhpethi5UmprDWxZN9rTblHa3anSsQz1UPgJtkREkfN7lDFoxFObst0609Cg5mofuZxJKr0ddNKhY4VL'
  lat: 40.098464
  level: 8
  lon: -88.251426
  name:  'Ruth Haasis Memorial'
- ap: 7035
  img:  'http://lh4.ggpht.com/PHV-1ZpFzCAl_ViCKwBY_x2pIDbVyaT7wJH1sTvFJCxrSdRrO1x7NaXq9OdRGwz_Mls4iwk6wuGHMBArfV54'
  lat: 40.098688
  level: 8
  lon: -88.25063
  name:  '"New Holland Yellow Dinosaurs" at Hessel Park'
- ap: 7035
  img:  'http://lh3.ggpht.com/8FqlniFErK7cq59awiT84u8KyV4FIRd5krZzfYa58zJToFps7whdBnriPqvO_kFKeLUE3SWbJhCOPuvUQzaGFA'
  lat: 40.100691
  level: 8
  lon: -88.251337
  name:  'In Loving Memory of Zeus'
- ap: 7035
  img:  'http://lh6.ggpht.com/yjfa0jJLjsfLRf9Zn9iafMp3MuIhgCi0WiOCF8GqTGiGvzEnsPGrFa0H1n-uzWhVehLbt44ShthsA32VzHd5iQ'
  lat: 40.099737
  level: 8
  lon: -88.251157
  name:  'Tyler Van Atkins Memorial'
- ap: 7035
  img:  'http://lh5.ggpht.com/ENeQgqydWbi9-Oyf7vizunoRqJdsZV4o0RA_956wjGI8hqpTCHBPyWMpbTrrkwYpj5tgzDRvevGmvH4eFRU'
  lat: 40.099593
  level: 8
  lon: -88.251724
  name:  'Blessings from Devon Elaine Cattell'
- ap: 7035
  img:  'http://lh6.ggpht.com/qSCp5fQMlyCQ-GOAgiSFy5gaHJei705Pa3eOlJiYO5wGjZTYtjA8q7QWWfAWcLKjxZSaFiMfXOPR8SO7rWU'
  lat: 40.099353
  level: 8
  lon: -88.251876
  name:  'Raymond B. Cattell Memorial'
- ap: 7035
  img:  'http://lh3.ggpht.com/sisvfsphxy7AK_2qrrqb7lNJk3_7ciHSVJyodINYITBc-UqugyNOooCxKupgJKEg5m_x95eZwouSO2WCmN60ew'
  lat: 40.098579
  level: 8
  lon: -88.249603
  name:  'Chef Ra Memorial Plaque'
- ap: 7035
  img:  'http://lh5.ggpht.com/-UWK84I78Sftf7yg-E2pg6xEAWTvyiThgJBJlxbqOZPYKNmzQ8uGgEEMetzplrG1HpXG5kQqNItUeXKxOHDsGA'
  lat: 40.100286
  level: 8
  lon: -88.251747
  name:  'Tennis Anyone'
- ap: 7035
  img:  'http://lh5.ggpht.com/X-Tq3QbQ3JvCApWIGFxRwDJId7aLa8hY_ka0eU3QySTcZBgXcbPC4UXEQ9VVMsA-dYRxGqAdCotw-q7dby8f'
  lat: 40.088412
  level: 7
  lon: -88.251667
  name:  'French L. Fraker Memorial'
- ap: 7035
  img:  'http://lh3.ggpht.com/rlm0tE7Js-ApRSIfi0JxzxMVzrls50Gpr-Dbml7uBn7o0sCMtpiVa81HJc88eD0VlJiuzy9UTBFPebVcw-GK'
  lat: 40.087494
  level: 7
  lon: -88.253476
  name:  'Rotary Club Meditation Garden'
- ap: 7035
  img:  'http://lh5.ggpht.com/EaT0PxhOud4vjm0kHYMit1zq4b2aTjV4M2olWNI-rM0oUVFeEI4kgeWGcrbk_EvcGBz6hwrN_wYLDLK3CUBi'
  lat: 40.088861
  level: 7
  lon: -88.251811
  name:  'A Flagstone Garden in Mattis Park'
- ap: 7033
  img:  'http://lh5.ggpht.com/9XV46K2cUd84oc6HPyqlj53LKJS8lVs0f0gPHSCBkkTwiHaxivu36dlAj5M38EzK-2U4xhvZJ7AiVvGM5yk'
  lat: 40.118175
  level: 7
  lon: -88.244562
  name:  'The Russell Building'
- ap: 6846
  img:  'http://lh5.ggpht.com/THzk1iE4eBFdHkEgW_OGBWS54BbJw46faUZQS1Ad_IROHGgmVaXrphXJuL1O8N9k4G8_jaDT4P9tmLxMNi0W'
  lat: 40.131713
  level: 5
  lon: -88.29276
  name:  'Campus Solar System - Sun'
- ap: 6846
  img:  'http://lh3.ggpht.com/lSr_gDGX9o1BHZX9FUPCKAO2VVQjZ_NwTBaSNhNgjVyJ2p6BnLDByC_vIkhu637-W5nKMW2SShi0gXOlXNqY7A'
  lat: 40.097979
  level: 8
  lon: -88.247785
  name:  'Jarling''s Custard Cup'
- ap: 6659
  img:  'http://lh5.ggpht.com/7MD3uqic9NvHKG2s5NBkAL6kdsBT10BzFJ6jTSaOfZS8mbyTlRDRYtizrxfH8ZvyqpRWXJHgmC5bk9imHqQf'
  lat: 40.114042
  level: 5
  lon: -88.289889
  name:  'Optimist Club Dedication 1991'
- ap: 6659
  img:  'http://lh3.ggpht.com/swF7asGHDD1L9hslewSBg2z-tocpd_HXkIYuOmz739SWxCj8KBqf-kcOPOFPoE8pLXKDxR6Z8jAJ8Kx7Fbnc'
  lat: 40.089334
  level: 7
  lon: -88.253652
  name:  'Mattis Park'
- ap: 6472
  img:  'http://lh5.ggpht.com/BkbaZlRlq44d6DiMOVuIlrel2Hsi_RzzHhhdmJH6BLzJk5RKxAcvh2mMd93BFhKgTKLk-yZsNLTaJiTbZsk'
  lat: 40.086686
  level: 7
  lon: -88.252282
  name:  'Elsie Mattis Springer Memorial'
- ap: 6472
  img:  'http://lh5.ggpht.com/_gJqtOHLZ9UHsmd_iLjxMsPw5eF5YzqE63qEAzURvSp_3OL9ZrPjM-usiUeYx95b7zTdNodab42cQiyiRRja'
  lat: 40.087835
  level: 7
  lon: -88.251299
  name:  'Amdocs Shelter'
- ap: 6285
  img:  'http://lh6.ggpht.com/6pMlM7pPsp-5PTNYZ8AJgo5ODURCPJO-_LigeHL2TMhjfK9MS17iEcpQqc89n5gyUdEO8seZrlThTGbKEqg'
  lat: 40.132999
  level: 5
  lon: -88.292808
  name:  'Campus Solar System - Mars'
- ap: 6060
  img:  'http://lh3.ggpht.com/M4bKZ-CKQxZ9kYbwoDe79j6v5hIrWVwAcRzAUm9hg6fREm0ubCBwul695BAa_BhnyxOXdXIub7UvBaqxHnk'
  lat: 40.098803
  level: 4
  lon: -88.283425
  name:  'Taylor Memorial'
- ap: 6285
  img:  'http://lh6.ggpht.com/5CDidk0pqfUtSW_Yqouuf3diX8drdMu9DoT728QpSz8q6A-WxNhT0yLcgM_7gGpyIAeXrHiTkIzzaVJFgnN9WA'
  lat: 40.099852
  level: 8
  lon: -88.251947
  name:  'Our Friend Tim Palmer'
- ap: 6285
  img:  'http://lh4.ggpht.com/aQomBYYXuWBUbnpgDH92zk4VBmLMOuf5n6WXkMHGTzf1DUlyXL-u4a9ulFUrqE5AO82s_LFM126E-B0HqONp'
  lat: 40.088127
  level: 7
  lon: -88.253036
  name:  'Peggy and Robert White Garden'
- ap: 6098
  img:  'http://lh6.ggpht.com/S7Utf4_59vQkAP5JhC3mdbzVLKBTt-0zoJ2UjfxUnN10VBbixO-_VwvssWd1LbFSx_yafaijd_U0wTGo870'
  lat: 40.100941
  level: 8
  lon: -88.251314
  name:  'Gabriel Patrick Maxeiner Memorial Plaque'
- ap: 6098
  img:  'http://lh6.ggpht.com/YVbqGVTjJuDMDdj71CP2mWvnUIdgO25PgoDdJwEGnEE_M9I1aDgKyjSr9JOZVU6UQTZQtfUo9RAWyz92n3jtCQ'
  lat: 40.098475
  level: 8
  lon: -88.249208
  name:  'In Fond Memory of William Moore Jr'
- ap: 6098
  img:  'http://lh5.ggpht.com/6MHa8mHyPoZr8QcAXRVJp6cTJ-Besa5bB801GzhlToXL5ff4Zg6U6VtnrbMINQ441jCzYNZDWNxHIBtf7VXvVw'
  lat: 40.087719
  level: 7
  lon: -88.253446
  name:  'Milla Gross Memorial'
- ap: 5909
  img:  'http://lh4.ggpht.com/yi9OPnLGsLTvtOMNuOUfed6edO9tB6h0QmSHJaKKaiMyEXC8Aj2hz9hIvgh8C2DY76mVgNHw4S0gsYpkPpkt'
  lat: 40.148692
  level: 7
  lon: -88.248724
  name:  'Fountain Town Center'
- ap: 5909
  img: http://i.imgur.com/5j1qaiT.png
  lat: 40.152192
  level: '?'
  lon: -88.252279
  name:  'Toalson Park South Entrance'
- ap: 5722
  img:  'http://lh4.ggpht.com/TlG5EEvh_SZmKrAszUcimO4IIRD2zNw36GKbS6g-pdtCXlPZTjyA4q0KavljRDq1KMCcHgxs_OfHWjVYUvc'
  lat: 40.118705
  level: 4
  lon: -88.286198
  name:  'Weighted'
- ap: 5722
  img:  'http://lh6.ggpht.com/yoGdHEqpRRqOE5pA5wHdi_ismU_TrB-kTiqVV63EO630KsU608TIfjLijcqJ38At7MyyrE2urWFMPY1Sops'
  lat: 40.118121
  level: 8
  lon: -88.258039
  name:  'Mini Park V'
- ap: 5722
  img:  'http://lh5.ggpht.com/QNdE7Z3gNcz1M-mzDms1aMrHPZpKr43FIfnMxwfwdp6kP1N6fPKwUzIx5qrt3k_KBeBFRmcD-PXCWq7V2Ygo'
  lat: 40.119969
  level: 7
  lon: -88.243775
  name:  'Mural at Bentley''s'
- ap: 5722
  img:  'http://lh4.ggpht.com/Mr8XeGiDafWk47NSkxDW3WManlpDnqzQWOT1VE2j0f0jFdh3tCvvntj45n1BJEnHylldZRnpPEOJ8OLeFZI'
  lat: 40.114405
  level: 5
  lon: -88.224198
  name:  'Siebel Center for Computer Science'
- ap: 5722
  img:  'http://www.panoramio.com/photos/small/52867363.jpg'
  lat: 40.101676
  level: 7
  lon: -88.231098
  name:  'Sculpture, Krannert Art Museum'
- ap: 5535
  img:  'http://lh6.ggpht.com/TtWbekdbsTWA9hOrt2dc1ID1DnRuGoRbAle9mL9aZvc_aJygqJ9jAMjqrWtVr87WnELkFrSVIpO_4VVZQ67P'
  lat: 40.113103
  level: 6
  lon: -88.290672
  name:  'Kaufman Lake'
- ap: 5535
  img:  'http://lh3.ggpht.com/rgh_2qJQUPC1OrARUkiQqPKoNReiqZYOimm5Nszb77pDh72OszuyiJBKn-vDxHUuyjO2XTeKU9GBHc3oHIYr'
  lat: 40.115283
  level: 5
  lon: -88.287899
  name:  'Greenbelt Bikeway'
- ap: 5535
  img:  'http://lh6.ggpht.com/WA_L9RXB_ZwCyxpgQ7Lyjp1-4xTl5O-BQohOBQcoEMnP7-wKp--MGUdnY_DPuCGZ78-x0LtEWc8FT2n9QMPS'
  lat: 40.148879
  level: 7
  lon: -88.258423
  name:  'War Veteran Memorial'
- ap: 5535
  img:  'http://lh6.ggpht.com/XsUl74M1oxj6ptAvGEBOMH2wivRhxBNns62UJSGcPiQkuJIgPrmUYxMpSZZUfXRMMjrwoxlFK_DbAM78UrOh'
  lat: 40.113499
  level: 8
  lon: -88.244374
  name:  'Shatterglass Studios Mural'
- ap: 5535
  img:  'http://lh5.ggpht.com/wX6-mbTE7nT00T6ildapKbI5ZrnhPIt4l91DhMseyo3GYFrgQIuqbjh8ntZY6NxGZ-qa6fKWlyoBOPdIdNIt'
  lat: 40.114653
  level: 7
  lon: -88.243729
  name:  'The Phoenix'
- ap: 5535
  img:  'http://lh4.ggpht.com/aFcisvUEjvw8cW_JZB2JIOpPXr_cWq9tGzjT65AMZfaR6Dwevg8S6dfNMTVswut9cKOr9-SCQdSqoOnQ4c1Q'
  lat: 40.087914
  level: 7
  lon: -88.253489
  name:  'In Loving Memory of Robert and Elizabeth Grubb'
- ap: 5535
  img:  'http://lh5.ggpht.com/FeahTnHcc-Tb0sWOd6cQiYz5QrczzT5-Behz0KlyeiGyzYhvAlNlhPI72BVkREal1tU_4g4r2UklF7lcQgKr'
  lat: 40.087292
  level: 7
  lon: -88.253528
  name:  'Agnes Sweikar Memorial'
- ap: 5535
  img:  'http://lh3.ggpht.com/ugJXpaIWZ-wI1vpderJmQjM8r0T5_Li2j4hvvsu4fRM9k3MeBpETqj2LFNd1pEkcfH0I9bgZh--5g1AEJKkq'
  lat: 40.092745
  level: 6
  lon: -88.251235
  name:  'William C Fox Honorary Plaque'
- ap: 5535
  img:  'http://lh4.ggpht.com/Zom5xkViTBf5wGkPFjYta7PfPZDicQD2VL2bQItgdzMxvQ1x7zqM3Zgynd7a6XBMT6qMAMKagxWMdpMlPcveaw'
  lat: 40.105849
  level: 4
  lon: -88.227679
  name:  'Lincoln Scholarship Plaque'
- ap: 5535
  img:  'http://lh4.ggpht.com/fsiB6WgZi3nqrUsbGpwpdNX2HKV1YsNECGrmvuGGjZk2CSsA5AHYM6iJLYo6O0yYgQUMQRdm_LZJCL8KI98Isw'
  lat: 40.104617
  level: 2
  lon: -88.228156
  name:  'Creation of Research Library Plaque'
- ap: 5535
  img:  'http://lh4.ggpht.com/IZUCSooIdo5qUAG278Al-JEKCRv842M0uDMusE78yaL4p-QCYu2A4UXE6X2jTFemr_w8ZfD6g_lQqjwbdg'
  lat: 40.109702
  level: 4
  lon: -88.227571
  name:  'The Ray Bulinski Room'
- ap: 5348
  img:  'http://lh6.ggpht.com/hMOV7ym8XEIsqpMDPaoQ0zfvtxYc8wi6ViH7YTtHB2OBpFGMOEpqjeIs-_7tfCzioA-1WvQwRKfYcGvUqgM'
  lat: 40.098948
  level: 5
  lon: -88.283274
  name:  'Austin Cloyd Memorial Plaque'
- ap: 5348
  img:  'http://lh5.ggpht.com/7iVmAcVyJIn8L3igZXGYGwViTb9r4HAzVxhWliawC7ufMhOhxXGx2_JlRghvetTHkNn8Wisk718zIFRlEDquGA'
  lat: 40.099194
  level: 3
  lon: -88.283703
  name:  'Children''s Prairie Farm'
- ap: 5348
  img:  'http://lh5.ggpht.com/Sgu5qG2Ltp9axQc8nEr3fJ_qvNo6-gwd5TuKMrk2LM9d5P7DDy0oCoWiGnr6Ybp84FGMh9DQYLnFtBTZtBIm'
  lat: 40.113606
  level: 8
  lon: -88.243766
  name:  'Mural on South Neil St.'
- ap: 5048
  img:  'http://lh4.ggpht.com/wbrbzDCo3C4qFJyHTWOST5o8B7kwZSWePUWOboIlYrdvxjrhWLqVQ1MqUF5-Hy4nt26x_oHQq9f8EbfdEjVK'
  lat: 40.117382
  level: 3
  lon: -88.243748
  name:  'Days of Venus'
- ap: 5348
  img:  'http://lh5.ggpht.com/yEiiHAgbSW12_Cpdb0_ksVrjWt6yb6BFtEwm3wjzPJN68wl0QhkI_oaTXxM__Dud8x9jZitaHmpZHZNxDHrD'
  lat: 40.099056
  level: 8
  lon: -88.249136
  name:  '"Cricket" and Bob Barger Memorial'
- ap: 5348
  img:  'http://lh3.ggpht.com/VLipBehsKPCp8ewQnBV1ZCz7uE75zcY46iGDyFfFHgX1o55t3DONb3wcBcL5RMYSqABRK0TgIW3DluNy8y6WaA'
  lat: 40.101131
  level: 8
  lon: -88.250539
  name:  'Hessel Park'
- ap: 5348
  img:  'http://lh5.ggpht.com/8zq5tMevCiipZK8N9-8SZw3vdsA2HwH0E02ormQshGxHVZrB2WPK7OPC8zt6pjLlgpXVuEYHVA_08_Q8fPw-'
  lat: 40.099647
  level: 8
  lon: -88.249648
  name:  'Max Overmyer Memorial Playground'
- ap: 5348
  img:  'http://lh6.ggpht.com/PrKWQe_StHjP7QQeyxlKiMSxAelIQlmbHzFMejewhMdVT0J-uvMpZCUGvQy_dZfrqfDnkmrIZYWkZORSGrnp'
  lat: 40.088449
  level: 7
  lon: -88.251396
  name:  'Boots''s Garden'
- ap: 5348
  img:  'http://lh5.ggpht.com/AsiP7X99phJsAWWLusxVx9jztxrqq-wjSe7AQS2KrK6muMt4sB3UIjlshPNUA13BR-o8cX70DxvhbxODvrY'
  lat: 40.087526
  level: 7
  lon: -88.253714
  name:  'Plotner Memorial'
- ap: 5346
  img:  'http://lh6.ggpht.com/NH1CnJnblS1bpZxZJ0VxAHy0tYw7BiYdVK5V9KnTw0N1KMf8OFR6FZP01shVet9ha4cEfSYufO9a1bv8Sqyd'
  lat: 40.12142
  level: 7
  lon: -88.243105
  name:  'US Post Office, N Neil St, Champaign'
- ap: 5346
  img:  'http://lh3.ggpht.com/A87H2Ev-nSq_HCpnUCxDLdRG04MKhj9Uap_0Ii4kdUx_db5SwcKhAAOey5ls43XiDLYaw7uYymdNMcsAXfNo'
  lat: 40.106182
  level: 6
  lon: -88.235521
  name:  'Evans Scholars'
- ap: 5346
  img:  'http://lh4.ggpht.com/pTt4-DDT1cwTbzZEeKmOdZaGiy-eSWxNd6UttqXGqJNsFXd38QwCsiHKDTcWeMDbhCt8ddLDZsyBcpNW6aGnLA'
  lat: 40.078858
  level: 6
  lon: -88.200763
  name:  'Prairie Overlook'
- ap: 5161
  img:  'http://lh4.ggpht.com/B_I1b0Jy3vW41RX8jjCNPP68AULplU0Pf8ddolyKmpEWCfBVShQkmjF1HfTPzDjmBBQGgOs0jHW-rUR0mv8BkA'
  lat: 40.098789
  level: 8
  lon: -88.251685
  name:  'Curtis William McKinney Memorial'
- ap: 5159
  img:  'http://lh6.ggpht.com/NMgUdPOdhvhvKZh7ugwXgybshZBZ2mkaEWMNKYdFPX6cfIYENSCqE9YpAXSNVuq_9VVWXJB-ShCBAPfF2Yvs'
  lat: 40.102513
  level: 8
  lon: -88.243679
  name:  'Robert Hosier Memorial Garden'
- ap: 4785
  img:  'http://lh5.ggpht.com/_Tp5JJFIIlt0iHHyC_A_gnEm1sxUEKDHmQr0oby74HL0rnFZ5JrnuvOTPk6_vulsU_GJue_7RAAX2Y7I2Wxw4A'
  lat: 40.132354
  level: 5
  lon: -88.292578
  name:  'Campus Solar System - Venus'
- ap: 4785
  img:  'http://lh4.ggpht.com/2JNDO54Hu2KzjIaEeCIFVgD7gEa5VXNBsIemFYp6cgiTUbsSpOwLTc-HqZb__uut24jHpVnQVokRVtL00ozu'
  lat: 40.132056
  level: 5
  lon: -88.292671
  name:  'Campus Solar System - Mercury'
- ap: 4785
  img:  'http://lh6.ggpht.com/5R8z1wwducaGMkvLFryu9HzC91eX02E3KDY04s9Il7Qrdw8efQiRGZ_vbgqW0Fuvp4-I_d9ugFC6lPc7lxia'
  lat: 40.113465
  level: 6
  lon: -88.291684
  name:  'Anna Jean Russell Memorial Tree'
- ap: 4785
  img:  'http://lh6.ggpht.com/v2m1E6vVK4ZRaRPhGli7jCsG7xZQZ7I3vV_5AogdEpPU_A1vz9WEkH0vZ-vau2IAdmydYJcXrOA6SMr7vUfT'
  lat: 40.128726
  level: 5
  lon: -88.290287
  name:  'McMillen Ehler Homestead'
- ap: 4785
  img:  'http://lh6.ggpht.com/8_R0pnNTQT-uPiI9xeaPyYDmeMcnxaXImr4VqMnz2F_aNrFJ7wlemeLAXHdvRZ4XyYZnScYGhpFFs_XS9dJ1'
  lat: 40.11727
  level: 5
  lon: -88.286997
  name:  'Kaufman Lake'
- ap: 4785
  img:  'http://lh5.ggpht.com/oCw3ZC6UKF3aiK6dkbz72dhzUsJNhOmfVjVsXJET_YP5e1p53pLTa8Dep24gLqeY9FghWE0kaAB64vvn7nq0'
  lat: 40.105008
  level: 8
  lon: -88.243265
  name:  'McCollum Park Peacock'
- ap: 4785
  img:  'http://lh3.ggpht.com/NuEE1yevEulYAFm9UHYKLrX8fVNrXyLgFXbQ8kTjAKuT9w-Fkj18Pop2B2wikf21LHDU24uSUkIvXbfKyvy2'
  lat: 40.11738
  level: 7
  lon: -88.250259
  name:  'Heath & Vaughn Funeral Home'
- ap: 4785
  img: http://i.imgur.com/5j1qaiT.png
  lat: 40.152792
  level: '?'
  lon: -88.253532
  name:  'Toalson Park'
- ap: 4785
  img:  'http://lh5.ggpht.com/_9uqsDQROIwqIhKx_URY4DdZAapoZBEWK6Eaclt5mM5vPsjwQAD-v8Bv-4b-Smq2F8X4zOgzLx2KwySkFWc'
  lat: 40.118448
  level: 7
  lon: -88.25211
  name:  'First Church of Christ, Scientist'
- ap: 4785
  img:  'http://lh5.ggpht.com/T0WLAJf0s4nu2Phxax31eu6pO6zNoA4JpvHMLyfMKttzJALEWB8EAWOziQwgjdWE3YjBbG1XjGYsgihqCSX9'
  lat: 40.100414
  level: 8
  lon: -88.249061
  name:  'Randy William Auteberry Memorial'
- ap: 4785
  img:  'http://lh5.ggpht.com/WtLGJ5PPeFPGSKegRKCurNiGVHvfV53LdGHbVkCfDXxVvUpneEqngOPUTZJgZL4RdA1_YVGUXlpWs0ZDr6OH'
  lat: 40.086378
  level: 7
  lon: -88.251308
  name:  'Life Lessons from Kimberly Kueffler'
- ap: 4785
  img:  'http://lh6.ggpht.com/Pnd8JOVl_Lm-LFi5TL9dblCUNbrwX2rh4_oKgOC5Ynga-E_Y207oGsL4Uz931FTapBrs35H98qxJU4Cm_Gk'
  lat: 40.113024
  level: 4
  lon: -88.229095
  name:  'University Place Christian Church'
- ap: 4785
  img:  'http://lh4.ggpht.com/6WTMH3liIIuH6pEvRGZOkUNNR84nR8frjFch6yn_4mbGIokY-MajBCG6jZHWU37a8TBI97rYTBlX-ks8m5XJTw'
  lat: 40.112843
  level: 4
  lon: -88.227657
  name:  'Class of 1904 Flagpole'
- ap: 4785
  img:  'http://lh4.ggpht.com/efOG849cf8EKwVLL2BfNKzwBdkrAuNsMeYOZfeR8FYnK3axQJJON0VH191MLBwjJaQ1EeQC9Pt8LMtNI2LEa'
  lat: 40.07718
  level: 5
  lon: -88.203511
  name:  'Denise and Ernest Walker Grove'
- ap: 4783
  img:  'http://lh6.ggpht.com/duOeXcOSQLWosdD0JJXg3pWWQp4t5sL0x9qDHoTIBFNOzEW0t53Lt2cnwgV2E_Su0l1ajIQxPtVbbK_sDRaS'
  lat: 40.141775
  level: 5
  lon: -88.242671
  name:  'Marketplace Mall Fountain'
- ap: 4598
  img: http://i.imgur.com/5j1qaiT.png
  lat: 40.312242
  level: '?'
  lon: -88.201368
  name:  '2012 Employee Dedication Bench'
- ap: 4598
  img:  'http://lh4.ggpht.com/iF9ok9WK8tu0rwNJsbJggC_OqQxiqKIF9QRpGOgIrlZa4Dr4JYrLxWeFDe43Js9WGFiKCOlMNMZapd_SBQ5T'
  lat: 40.111945
  level: 6
  lon: -88.282707
  name:  'Champaign Cycle'
- ap: 4598
  img:  'http://lh5.ggpht.com/IgNzl1mq8OGLo32nCph_TZvtqlPh79vEYYvHZb2F6YXW1jx9_ESV5dv13U9k7CRftyKHGoW2RtSSUFzPKbU'
  lat: 40.113072
  level: 6
  lon: -88.289765
  name:  'Kaufman Park'
- ap: 4598
  img:  'http://lh3.googleusercontent.com/hJZWoErzM-MuXulq4FlhlZwMbJX1Isd81GBUBVKayd57jVIVxUle3itd-1DRKo2VaNXznWr1X639fa44Etk'
  lat: 40.141919
  level: 7
  lon: -88.244611
  name:  'Marketplace Mall Carousel'
- ap: 4598
  img:  'http://lh6.ggpht.com/sASzuKZleVbY8UGdZnFzs0GXiOHosiNDf-GldJNSs-w2k410HzHcqBrjuvNoklKZ0G4mwuhXmvFPOMlrFXRZ'
  lat: 40.085468
  level: 6
  lon: -88.251369
  name:  'Mattis Park'
- ap: 4598
  img:  'http://lh6.ggpht.com/GaAoBP2UmKP7ebBRXoSDc24iiGVvOTmkk1PeUqbM4vopOYVj3WT6q6p4Th6u8ozL3LD7XpkE3eXtAzcuIb_0'
  lat: 40.101124
  level: 6
  lon: -88.231336
  name:  'College of Law'
- ap: 4598
  img:  'http://lh5.ggpht.com/AEDNEBV89C8eZnLPzK5JIchcLMwZ3Ya2btWhSUFX2GmTXPf3AyqQBs9FYNVMDe-dGi4xbfJNjr2XMQaMo03_'
  lat: 40.079618
  level: 5
  lon: -88.185131
  name:  'South Ridge Park'
- ap: 4598
  img:  'http://lh5.ggpht.com/ogCPXpztEJz9g9SqYcx7GPN1hAW6SSyzm2kS3ozjtVr0ZHGQtyGclfFRGF_5tPmngEnHH93xWdFcDL13cD72'
  lat: 40.083312
  level: 6
  lon: -88.200103
  name:  'Meadowbrook Park Trail Map'
- ap: 4411
  img: http://i.imgur.com/5j1qaiT.png
  lat: 40.463893
  level: '?'
  lon: -88.365929
  name:  'ffb4879e7e5a443aa5ec0b49bc840acd.12'
- ap: 4336
  img:  'http://lh4.ggpht.com/9DnoYT_JY708wIL0x7FKNkI3c8KcW18NuRJWw-NfB_6u49hTVpPc4hLkDVjLOTAvkOyTz0DjnHWp6RFjlvc7Sw'
  lat: 40.0986
  level: 5
  lon: -88.283262
  name:  'Diaz Memorial'
- ap: 4036
  img:  'http://lh5.ggpht.com/kDVKmp7jSlZ1o-7qOsCnRovJeghgXHZ8aCDs-HOlcHhrSbcYXNYN2IOODVgKVnUMF_i6KDi2h96TMWnnUlUl'
  lat: 40.117287
  level: 2
  lon: -88.242984
  name:  'Dandelion Mural'
- ap: 4411
  img:  'http://lh4.ggpht.com/PfcTU4XsA06ThtmCWydIWhTsN3gR4jrqnrKxu0O5lhyibhRdKMEaf3jM8VNhViF8qLf13b01E71wr_ajxn0'
  lat: 40.118465
  level: 7
  lon: -88.245077
  name:  'Mural at Nitaya'
- ap: 4411
  img:  'http://lh5.ggpht.com/qXsP4-THlaQ8DmIiopsvR0dY2hqwPjIHoy1A1b_CUmqmADgED0FAkXDjkBzS-PY4jNfThICrCaXGja5OH8bWF4ghh7lBwJz0FzKz_zOvaiwHohU_'
  lat: 40.11945
  level: 7
  lon: -88.243175
  name:  '"Stride", Downtown Champaign'
- ap: 4111
  img:  'http://lh5.ggpht.com/Jp7IxKww4URJW7CuBmWK-wgnCfMK0iUJrKL_UoRhWCyoVY0_cHasH1WH_nYzDpInelHY0uL_3K-u3czrBCY'
  lat: 40.11949
  level: 3
  lon: -88.242871
  name:  'Orpheum Children''s Science Museum'
- ap: 4411
  img:  'http://lh6.ggpht.com/n0f7lyo15OzZn5IJHsohIGAA58iioentPZGEY4zeMZCCoX4GjEEkqfaTCIbrx9OnezriThnbFV14kYcwKTgL1g'
  lat: 40.098444
  level: 8
  lon: -88.248167
  name:  'Healthcare Not War Mural'
- ap: 4411
  img:  'http://lh5.ggpht.com/CRkkFx_9jq2hCt1HtflqZDqCdmSG5MN88FV0rLXk1PZm7maZWzLTKZhjqlSKUx1Tg0tSB62l75w2VFsyUZI'
  lat: 40.09991
  level: 7
  lon: -88.249899
  name:  'Benjamin Biddle Memorial Plaque'
- ap: 4411
  img:  'http://lh5.ggpht.com/N1cFx79JwZqPlYPDW3HkNwRX8N4Auriii45qzYkAx9l-cKeK81qgZ6nuBpTBEIOyLzy4aIIhQKt2E7ZiysSjkg'
  lat: 40.10036
  level: 8
  lon: -88.250515
  name:  'Mark Foutch Pavilion'
- ap: 4111
  img:  'http://lh3.ggpht.com/J_h4tdb4wqy8bmmQfDuy5yqTR2IlkzKojfvsMOvlD-3tf1pKxbDlhA6W9Q8RX-JaSxhItMr4bmCxiUQXTLbz'
  lat: 40.10064
  level: 4
  lon: -88.24958
  name:  'Edward A. Cousins Plaque'
- ap: 4411
  img:  'http://lh3.ggpht.com/DpFBT6YsInBvoo-6DUZeryDpITUgNnrw3j-iMPdeg6S2h9pL4DSqJLbMzsMqmLRwgJKLHa-xMVjHKDoSqwE'
  lat: 40.089107
  level: 7
  lon: -88.251579
  name:  'Donald M. Decker Memorial'
- ap: 4411
  img:  'http://lh5.ggpht.com/xcqe13f85fuXohGUUBZkNrUU1PunkcZ6xMNmHpAp0GJBtydVqCCGj5MqP3Uax4M7Qq4JzDFGqICFrFb6PNEXRw'
  lat: 40.08932
  level: 7
  lon: -88.251883
  name:  'Boulware Trail'
- ap: 4411
  img:  'http://lh4.ggpht.com/Gyz7BDhWdUinBQfD8duByX5-aBgPmB9oSesH20dH8uGJnTiaIHkeRJARtH6YQUUD5A5X2IjPTlT989AfutNc'
  lat: 40.092773
  level: 5
  lon: -88.250951
  name:  'William C. Fox Waterway'
- ap: 4411
  img:  'http://lh4.ggpht.com/HEEvU2OlgWiV5huAu3cvNKaI-C8YKYTO3qB8WMTO7EbsjTO84KS6jLjbGCq7THZq6l63UiUKCSEqY2IADYns'
  lat: 40.091766
  level: 5
  lon: -88.250003
  name:  '"The Cranes" at Fox Corporate Center'
- ap: 4411
  img:  'http://lh3.ggpht.com/jnMeoF6SBZ0Iinf5GnB2N90IMGTEQdGggLITfjWcIY6d5yipHaBN52a1NPxmn-VFwc_G1cHiMmyEDGg5nkwo'
  lat: 40.101623
  level: 7
  lon: -88.231761
  name:  'Metal Spire'
- ap: 4411
  img:  'http://lh3.ggpht.com/mRCpYiTnH0rrWGXaOj5qrhYjnvlhpQ8iY4UG3vy_gu2HW2GChgp0aXQ0Uih6XRZcUOJVyzyPggWicFdh7sHrfA'
  lat: 40.106179
  level: 2
  lon: -88.227593
  name:  'Charles P. Wolff Memorial and Tree'
- ap: 4411
  img:  'http://lh3.googleusercontent.com/zmBaxEMhC7WvQDOei5LjXnSrM2p368YlSMZPtCtSY0t6bGsHjg5Bc91PGGsJ0oGn_hifKeBSMB_3BKH3hbwP'
  lat: 40.105567
  level: 5
  lon: -88.227662
  name:  'Freedom of the Press Plaque'
- ap: 4411
  img:  'http://lh5.ggpht.com/3RfiPeOzF67ubNX-vkwUJ6-EYld6BKuoBernq0_9kOjlIsSPr3saR9FIQzN7uiw7ouF0CpNflOnL0mUj9zbqdQ'
  lat: 40.109452
  level: 5
  lon: -88.229031
  name:  'Illini Hall'
- ap: 4035
  img:  'http://lh6.ggpht.com/WVVbmiu2GGTnPTszcnYYILHKlkZDoxB-QY6Yv7YPoUfdVn92jYnKjpVKNkfWdFrPjq-BaFeKGJWLZlE-bbA'
  lat: 40.120467
  level: 7
  lon: -88.2577
  name:  'Salvation Army Church'
- ap: 4035
  img:  'http://lh5.ggpht.com/kcTMx3CqTnXQqNvx00fF4K5HQ34eOunlWHiU7JEB4nKyl3U14EbEpsqxVT2opoz78bQFDtIZR0IKDuewhKCG'
  lat: 40.119409
  level: 6
  lon: -88.242244
  name:  'Vintage Orpheum Artwork'
- ap: 4035
  img:  'http://lh3.googleusercontent.com/DJEd6b3-MwXXA5oX_rKCuAtk2dlQ1yS2p9nG8oDmc86DmbzFvhKsP-KR9nKAzn84UUf_K5LjjTMgrt7AjCoU'
  lat: 40.110853
  level: 6
  lon: -88.238339
  name:  'Boneyard Greenway'
- ap: 4035
  img:  'http://lh6.ggpht.com/RR0i4QdfoY8NkTQtssdOtDLhAEaCR7e-R4ipk5NzdKe9lTGDq2nyKI_7sF2BCXrgCZAZ2zEEtIzS7vg6Pu0hzA'
  lat: 40.126458
  level: 6
  lon: -88.218544
  name:  'The Vineyard Church'
- ap: 4035
  img:  'http://lh4.ggpht.com/lQtf71rwzXt5zHafbKPm8Czz3n2KwBWlEaNUh3-2JKrXTDueZ_JerHOPeSecqLaxLBWC09dTlPizrDMTafpT'
  lat: 40.105618
  level: 7
  lon: -88.230986
  name:  'Alpha Phi Sorority'
- ap: 3848
  img:  'http://lh5.ggpht.com/S_72RqBcpwyaqDotOOM3zyRvzzZXNgZUSEfOLLDYY9tEvWcEksixMnIL7N-7FO1EpE-CXGydpsChqEkBjX_I'
  lat: 40.131279
  level: 6
  lon: -88.290872
  name:  'Stone Hand Sculptures'
- ap: 3848
  img:  'http://lh6.ggpht.com/wk0l8Qe7j_Ph_LhyPvdNO6g8nwrxpswodrbNuOzLa3K1QNBrIVidi9iztmDXu3HtCWo5TpqDDjPsEbSl2aWUKg'
  lat: 40.144554
  level: 7
  lon: -88.248689
  name:  'Town Center Park Champaign Park District'
- ap: 3848
  img:  'http://lh4.ggpht.com/vKkSwERLa3zQO2UUIiYl1AEruAx1QTPcP4jSmPt89PG4AviJ1WhlVVH8qmqJ0aY2gqJmHcqdZFcM2pQconc'
  lat: 40.139375
  level: 6
  lon: -88.272793
  name:  'Salt And Light Ministries'
- ap: 3848
  img:  'http://lh6.ggpht.com/DumXNsG-1ULiWogpcQw-VzQVxr3f1Rb57MKc3GWEGzCwoIfDc8ErqGSPeDPGDyg_6fYtNnLQpFMP0zbDGTE'
  lat: 40.141598
  level: 5
  lon: -88.238817
  name:  'Red Shield Center'
- ap: 3848
  img:  'http://lh5.ggpht.com/BiCieN-kLaA8XtzYGa1FowWTlW2QzWtnxSCf1y1ChY9WXw1kN0r1Co49FI5D_xcWRrgO-_wOvqfduWQ2o337'
  lat: 40.092411
  level: 8
  lon: -88.257688
  name:  'Champaign Fire Department'
- ap: 3848
  img:  'http://lh4.ggpht.com/W2chhQwPqSJEkl57NVoIL-OE4KFvJfp7Bsrrxza1apCYltcT3npz95LJxqHxvT9ZZu7wxF2gQy-5bpKal2p2'
  lat: 40.115838
  level: 6
  lon: -88.241338
  name:  'Illinois Terminal'
- ap: 3848
  img:  'http://lh4.ggpht.com/mrFIlt7StuloTop3ci5DRg10i06ivamSn69PgqYPZfkV23dOzf-DhDdDUjeOOzy1ILR9xOOdLX_NBsMOH9FO'
  lat: 40.124377
  level: 4
  lon: -88.25297
  name:  'Spalding Park'
- ap: 3848
  img:  'http://lh6.ggpht.com/2NvBiEF5E3wBXJ0JKc8NUUbuZm1PhUhLId32Sc_hNjaonDtojWnGWZRYwJgz-UJwMgucV2NHBfCK_51gIyU'
  lat: 40.084725
  level: 6
  lon: -88.251794
  name:  'Masonic Temple of Champaign'
- ap: 3848
  img:  'http://lh4.ggpht.com/XlTZ26_29c4-74t23p1lgghqNfLI7aS3_kradmcl7vVQzV9jJRu78D1HdzJf-sWibnak644kxCBJDnA594PVaw'
  lat: 40.092849
  level: 6
  lon: -88.251586
  name:  'Boulware Trail'
- ap: 3848
  img:  'http://lh5.ggpht.com/SBfXBUHhVCYeWAJfYerukWz8LsUK23PjqJjy2Ju0vy7BSdHawWeWl-wiy8KIVhqKGDeNGwFdmyUA0JVsHV6tDg'
  lat: 40.129436
  level: 6
  lon: -88.219316
  name:  'The Hope Center'
- ap: 3848
  img:  'http://lh3.ggpht.com/V-oTVbkji_q7V9k0WGhQyDum7PEtruXdbp6e-PzZq3sFNxGWdA79FLEv8uGaZrcSwWE15UhTtBB0ZMW0Ig3j'
  lat: 40.127466
  level: 5
  lon: -88.216274
  name:  'Lincoln Bindery'
- ap: 3848
  img:  'http://lh3.ggpht.com/aHqOXq4BX_XXhSNRFJn0768z_1bjWEniMumNJ4FMy9Nv5j3AefPsZDiAGCehCguZ1HFOBMBXxRI4mOXd077e'
  lat: 40.112957
  level: 5
  lon: -88.227127
  name:  'Early Computers Plaque'
- ap: 3848
  img:  'http://lh3.ggpht.com/KxQsev6i7POmNh1IadCWwWQSMdCuLIYpPwIdenSlVtzum523D1R-1kfeTbuOGTkt_jDwn4jswCu1edkumm2-'
  lat: 40.110037
  level: 5
  lon: -88.23549
  name:  'Red Lion'
- ap: 3848
  img:  'http://lh6.ggpht.com/jhMQ5IGo-EB8MiVSEIUKmHbHwagHnJzv5RKZvsbHLes_88gz9Kesj98eZWV29mufV0LSUVjs53V5hMFQOG2Q'
  lat: 40.11067
  level: 4
  lon: -88.220974
  name:  'Astronomy Building'
- ap: 3661
  img:  'http://lh4.ggpht.com/0UzQDuaKLiiPhEgEmKghfkzvXj6lROhxPIDJuI4nWLJFvdxJwGNcJZ1va0K_9cy4L2u0Zyeqv_qlIAwch5o'
  lat: 40.133475
  level: 5
  lon: -88.293988
  name:  'Parkhill Applied Technology Center'
- ap: 3661
  img:  'http://lh4.ggpht.com/GcCZ7JTzkEHTZnUWfpUgibDh2Wa4nzGM9-k13AG4I2RwFiPa6exz1vCzj7Hwvf_oPwJvYJt0xoRE6GZXmCMX'
  lat: 40.132625
  level: 5
  lon: -88.292636
  name:  'Campus Solar System - Earth'
- ap: 3661
  img:  'http://lh3.ggpht.com/2iQCqFSkI6vQaVf1ADFUP89q8eAUWoZah6JiJ1sA75sp6rK8jpFvWFNaW5E1QXBZnrpD8MIZotWwavGGm5iG'
  lat: 40.118598
  level: 4
  lon: -88.286666
  name:  'Kaufman Park Underpass'
- ap: 3661
  img:  'http://lh5.ggpht.com/uym8nSsevMrrg8UM6iXqTAyUjRlW1TdnBVLbaPVy4PxonceIo1yyp71x4TChEETc7UVpRVdg6-Gy0WfbV2c7'
  lat: 40.128024
  level: 7
  lon: -88.290239
  name:  'In Memory Of Craig Kieffer'
- ap: 3661
  img:  'http://lh5.ggpht.com/QruW49d2dc1uhQlK1BaZIeo6ruDNkqQfmvZz83eQ-1aC9ytGUcpFaHnKRTnXRc70F2EZ0-pVKGr9Slo0_9RfxA'
  lat: 40.139749
  level: 7
  lon: -88.273955
  name:  'Northside Church of Christ'
- ap: 3661
  img:  'http://lh5.ggpht.com/pSVHjk6puyYdv3ztHlpJGnbkZyGsGsirMnxkDhlt8UMko4AhtTQbrzwInBCu5lK4Ttf7furE5pNW2AZh8HuSZQ'
  lat: 40.138109
  level: 7
  lon: -88.270158
  name:  'Glory Center International Church'
- ap: 3661
  img:  'http://lh4.ggpht.com/dzQSyJummIX5lEBsPg0bjVUKgWuducW6OgwYfPUATs_OtoqhXsCvhVFuC98ULi8Gvi0ywyeTUACotvmS32A'
  lat: 40.130306
  level: 5
  lon: -88.253037
  name:  'Fagen Truck Accessories'
- ap: 3661
  img:  'http://lh6.ggpht.com/vqiOPPON1phvYOdOmbFDrxhN6cbYjeLHVgH42EV0XsJjVNd81EM1DKY_aRVM-rwJ9Il5tLc3QsL_gOS4qAkF'
  lat: 40.139891
  level: 7
  lon: -88.257367
  name:  'Market View Baby Fountain'
- ap: 3661
  img:  'http://lh3.ggpht.com/F_QKFluz0Gh6sC9FPGcL_wT-n-zRGyp0qQ9mnghB2L5Aer_c6Qm1q7KeGoCaGwDoJax_R_sK1atr3F0hP4Ap3w'
  lat: 40.136807
  level: 7
  lon: -88.257174
  name:  'Champaign Fire Department Mural'
- ap: 3661
  img:  'http://lh5.ggpht.com/i4vhf0keizfRaw4w5qKu8YUc1txf5iLQ150hy6mMCfWoAnogMM1zvuNMLHWlmD71OFWisN1QR3VA7VWviCpm'
  lat: 40.130238
  level: 7
  lon: -88.253835
  name:  'American Legion Post 24'
- ap: 3661
  img:  'http://lh4.ggpht.com/EbBkWl7u8IzfuSOKbXTBKdMileYrjubgGK5MOwxzEGIDtOO8oYloK2Mh-oe6t3SLxiC4Dul0W7en-SG0hw4'
  lat: 40.124346
  level: 6
  lon: -88.243367
  name:  'Bannon Mini Park'
- ap: 3661
  img:  'http://lh4.ggpht.com/9dqmZPc9OI1ON-iEnfXAxSAMX2M07pEgKUsb47vLrTrW2BW61siFLquk1fXbldWXGPg69XGdSG4wKPGS5rI'
  lat: 40.113521
  level: 8
  lon: -88.244122
  name:  'Artistic Graffiti at MCS'
- ap: 3586
  img:  'http://lh4.ggpht.com/xS51--rXA9M_IHpXWgFQxKZU-YbD-1zk-nug6k7RyKl8rYeam_YFwMmLNWRRHHzI-rOTGyhTJQQ314WudSQJ'
  lat: 40.117132
  level: 4
  lon: -88.243009
  name:  'Fountain in the Alley'
- ap: 3661
  img:  'http://lh6.ggpht.com/ea6HxAw7m0OhhPqJJkZR9u60pR1sab_JdxaOyEltqmQd-63FFJzPY72jEnu08g9Gcjjj5cf3jyyS_M1E7OIbfg'
  lat: 40.11616
  level: 6
  lon: -88.241422
  name:  'It''s A Mistree'
- ap: 3661
  img:  'http://lh3.ggpht.com/PKHUaHtGQlwpb8q3mUpPJtjb51_am_ieb_9X0u8g1PI_eg7NxFQU2fqeV8XjnIIDy0rCMtqsfMJLerOBo8M'
  lat: 40.118579
  level: 6
  lon: -88.244588
  name:  'Mural on Art Theatre'
- ap: 3661
  img:  'http://lh5.ggpht.com/Q32BPmFRIQYqXI5gLOV9ifHvFlGdyD_yws2172-sHnSZ-StunhCM0Abqd9rBWSaKBWN7RPpa1h-nok4Mc23i'
  lat: 40.101062
  level: 5
  lon: -88.249275
  name:  'Narayan & Shanti Achanta Memorial Plaque'
- ap: 3661
  img:  'http://lh5.ggpht.com/NUOCD82iNRGW1NGqEC4FKet1u5_cm4WRNc2c9_YABAjGf6-OSCLz7HgYkP1ZuVAbpMl6Qi10HRW16Oc9jNM2'
  lat: 40.106401
  level: 5
  lon: -88.236182
  name:  'Washington Park'
- ap: 3661
  img:  'http://lh5.ggpht.com/39qvivJbsTr57F8HWz9_3WhqwtI6kCbL9qeIckApwB7s51qHqm4RS4qZLPkY2GUv6A2wi2wrlNxhnIN6xGKS'
  lat: 40.113427
  level: 5
  lon: -88.229089
  name:  'Lee Williamson Memorial'
- ap: 3661
  img:  'http://lh6.ggpht.com/y10QgRCNt0Bsefqp3olKgJp98whQkS0-vWqPskj3421hcSq96BG-b_KROqsO1mBEcNiYtAKhXuXG0EV0eaUW'
  lat: 40.107152
  level: 6
  lon: -88.235244
  name:  'Bromley Hall'
- ap: 3661
  img:  'http://lh5.ggpht.com/k_9eqZVvGcr3ZNyeeSNDM1-Y7od35KmnQQptB9usrdpTdpGW2c_5-12rYy9hGazdx7qhlYrEXxaJ_ZIVFywlcA'
  lat: 40.106706
  level: 6
  lon: -88.232116
  name:  'Illini Tower'
- ap: 3586
  img:  'http://lh5.ggpht.com/OF0rdXnVnZe6syFsa4G9CE6iyvhfoYQN3QH9RESyB78MTKDC2NXYJuVd0TAnACMccmsKXhNcBH6qzWy9DPQ'
  lat: 40.105073
  level: 5
  lon: -88.231952
  name:  'University of Illinois Armory'
- ap: 3661
  img:  'http://lh3.ggpht.com/5OA9gBD9HJe7pZRJ6DjHOGIbC9paid10T5gOLcZS91YP3V0eTMGqvFmPtvp6UtWzb1w2sOV5dbYmxDUFnQ0x'
  lat: 40.101862
  level: 6
  lon: -88.231737
  name:  'Krannert Art Museum'
- ap: 3661
  img:  'http://lh4.ggpht.com/j8nn4oxG37YIXPvQKVP6CBbVkveyhoHNg8O8QFxZKgbKVegaP5OdjJl8L8HTjzdBoVKPJIFHmwN26NfE9n4'
  lat: 40.111897
  level: 5
  lon: -88.222485
  name:  'Engineering Student Project Laboratory'
- ap: 3661
  img:  'http://lh6.ggpht.com/68dvh0QMefXWoOEuzYL9ly2rpD9TpVh9F2kj89k41eGqxXdpLX0ldTrsAsaenN5iOWGwkJ0HA3gYAVWoOqQ'
  lat: 40.102036
  level: 6
  lon: -88.226601
  name:  'Agricultural Engineering Sciences Sculpture'
- ap: 3661
  img:  'http://lh5.ggpht.com/r5KiToG6Qjyw5c6bAl_0F5cRgpub6HC8MAhqSj_urbSr7jfyMNIuQJaMQykBPvk8mATAla1R16wMHTDoU456'
  lat: 40.102817
  level: 6
  lon: -88.227222
  name:  'McFarland Memorial Bell Tower'
- ap: 3661
  img:  'http://lh6.ggpht.com/pYay9oPZwUNKfLdWJ1JMI5tA9-Gd0vsBddLTz7fXN6wUW7F23hLMWRwFZNnXyomRkc2f9sqCGMxNWuYHPFZx'
  lat: 40.109142
  level: 7
  lon: -88.228748
  name:  'Kappa Alpha Psi Plaque'
- ap: 3661
  img:  'http://lh4.ggpht.com/bt261V8sct8HMdZl4ckTcRY_H_hIF2eSIbeM-IkO-Tfx3NrbIUqQeoZs5tlk3Gzb5tXZ1toPUA3-iWayISuOdQ'
  lat: 40.075588
  level: 5
  lon: -88.191486
  name:  'First Baptist Church'
- ap: 3661
  img:  'http://lh6.ggpht.com/ZSVCsC7hXcoC2GI20Sq8deYNu_RXKDePVyLUpFRUSNdceVY9OBExZbgX-tuJK4pHEVYXT9YbN7DF9kicgt25'
  lat: 40.088197
  level: 5
  lon: -88.190413
  name:  'St Matthew Lutheran Church'
- ap: 3661
  img:  'http://lh3.ggpht.com/SGh5Xw4MO1dVvrMemAzgB9RDDBXEv4yPJSQnS537XIPlaVnoge7FriTE0zXjRXDxMtFiaTHXXihwZpbush_dbg'
  lat: 40.077367
  level: 6
  lon: -88.203354
  name:  'Meadowbrook Trail Map'
- ap: 3661
  img:  'http://lh4.ggpht.com/ojeB36C4pFrkpUOLeRf1wlevsVasnc0hxMgCCqBw0bmWLkPKciRkj06rLhJaSpLFbnUhIn2WqKdmVVVYGBw'
  lat: 40.077334
  level: 6
  lon: -88.202929
  name:  '"Marker" at Meadowbrook Park'
- ap: 3474
  img: http://i.imgur.com/5j1qaiT.png
  lat: 40.470135
  level: '?'
  lon: -88.366192
  name:  'b2be45c432384a99bb7726a2f0a8b6b3.16'
- ap: 3474
  img: http://i.imgur.com/5j1qaiT.png
  lat: 40.457257
  level: '?'
  lon: -88.372597
  name:  'ebaa4a5573f7449399263066d9248473.16'
- ap: 3474
  img:  'http://lh3.googleusercontent.com/9QA69H7Pr4YSLDo8gKmXgbDNGmrnheNC-3AgVL1eiVhh8ZUtZ9IaPMQtiOWlxjY2OSbHxN03GWTETFj-wzM'
  lat: 40.098416
  level: 6
  lon: -88.283763
  name:  'Centennial Park'
- ap: 3474
  img:  'http://lh3.ggpht.com/UoqoA4-SqK1X44o_0alM-QL57jhssYrhXZdeS1Ph9C5k_PjEXhPB_rJsbzTZ2hWbGDdartAlnZnfw3vb7DAG'
  lat: 40.099177
  level: 5
  lon: -88.283099
  name:  'Bradley D Riden Memorial'
- ap: 3474
  img:  'http://lh4.ggpht.com/GH0L77ajJqdeWLVc2Mn_FFhT4HGW8EMC3C1us7H_4f8LxWfQRnYQL6J8MDPNvomSwZP9gl8yMqo0qmwuOphB'
  lat: 40.098826
  level: 5
  lon: -88.284599
  name:  'Bocci Ball Court'
- ap: 3474
  img:  'http://lh5.ggpht.com/nWEtxuKQdy0teBBue1DYmG7P3SF5-3A6zlB7GwVHBWlolAZYGq6Br78lWcF9ltFy-KeSlozXie2RmU6JfCUX'
  lat: 40.142673
  level: 6
  lon: -88.244603
  name:  'Italian Statue'
- ap: 3474
  img: http://i.imgur.com/5j1qaiT.png
  lat: 40.152342
  level: '?'
  lon: -88.252345
  name:  'Toalson Park Basketball Hoop'
- ap: 3474
  img:  'http://lh4.ggpht.com/ik1uVZ-KWyRH4dh51LJI7gFmnM7bmfSZ-1YqfELbVQEvuo-gEx2QpG6jQpFPeAlFPi2rVPAuzRmXMD0Whsm2HA'
  lat: 40.122038
  level: 6
  lon: -88.245318
  name:  'The Old Residential Block'
- ap: 3474
  img:  'http://lh3.ggpht.com/LunaMtSKD9yiLQClolDY-Iqh0ENm9AgJdL4D1QxGs0j6TXPgqxDZea35x5ilAfeI5_0TGh5x1q1EqRsJsLFi'
  lat: 40.114111
  level: 7
  lon: -88.243697
  name:  'Champaign Surplus'
- ap: 3474
  img:  'http://lh4.ggpht.com/eiIi_ozTDxkb4MdOndoTytdxfIB-1IAlz7B6mPPsVwLsPSvNxgR3f1ynOCQiAHPJAfWvPR6x6kWP0shmEfu5Mw'
  lat: 40.1198
  level: 7
  lon: -88.243467
  name:  'Incursion'
- ap: 3324
  img:  'http://lh4.ggpht.com/H1kV6JSczzSbcCblAHg5ZOgITW1mBAz0_oLbqbzxBlijGTBn7TP6KwA6UI0AAGrCN4VF0DAF79Vcj6_2R4dsB8LRTq6tud6v'
  lat: 40.116164
  level: 5
  lon: -88.241661
  name:  'Zipcar-45 E. University Avenue'
- ap: 3474
  img:  'http://lh4.ggpht.com/4_MOw_NKr2wZ2lzAzG2FlLtA3tfOfWqBZpNVP43LfN6ilD6qHRfZ-_wA1Xk8BnCqHKqKdqodC70X09pqtNXXqmNtK-uqo-fC9SZyOjT6ERfJorzg'
  lat: 40.118388
  level: 7
  lon: -88.245358
  name:  'Springer Cultural Center'
- ap: 3474
  img:  'http://lh3.ggpht.com/kvJpDVeizd9sYgE0gsuLMptNV4trFwsY2y5QVAP_9RwWmIAb_1GOXGlJf0qViO7mywZQg7-Ky5pjxSPu22U'
  lat: 40.123653
  level: 5
  lon: -88.252479
  name:  'Spalding Park Playground Dedication'
- ap: 3474
  img:  'http://lh4.ggpht.com/mnyMwxXghZOmxdJw2eJk5U9A5sfO_QLi0eKc2knF3RS3bJhiIa0N7N75KIzjEehKD3ChMFgaOHVRltiOVAw'
  lat: 40.125074
  level: 5
  lon: -88.251776
  name:  'Spalding Recreation Center'
- ap: 3474
  img:  'http://lh6.ggpht.com/_rfJReDlJdrYezXwl9C7a4r7ZMCEE2RZ9dek5gQwKkC4sFtmFVfYF7S04SQXmjcksfbCvLWlOEuqOjxWnX4'
  lat: 40.12284
  level: 7
  lon: -88.246749
  name:  'Queen Smith Memorial Garden'
- ap: 3474
  img:  'http://lh4.ggpht.com/maBwz4G9LJZ5aVuX_WF1Z73xSbqoFsm3l6oyrNQ16LkJMvaEbFa-amdfCpKDVDe7NzjReNu8IGnn7BAI8yef'
  lat: 40.103534
  level: 8
  lon: -88.243478
  name:  'McCollum Park'
- ap: 3474
  img:  'http://lh4.ggpht.com/aXG2XQNJXyPDBz0o8tyfv07VIfskZuFMOWW2ylZpZKkWMnFjoiBmBiWg2VedsjdIorpfX5mtUGnwVLFb7Ga6'
  lat: 40.091438
  level: 5
  lon: -88.25077
  name:  'Fox Development Corporation'
- ap: 3474
  img:  'http://lh3.ggpht.com/EqT8PpYZfyYpjrOonC6OgSbMthKj9PfC3jXKy4ysa6OndXcs321ztHfqYAZFkHQSpLVYxN4sNsjJe2C8nZw-'
  lat: 40.101112
  level: 6
  lon: -88.230702
  name:  'College of Law Fountain'
- ap: 3474
  img:  'http://lh5.ggpht.com/sNSUXW7rqg-Qb6dc2gyeAXcXM3VjBpmyYlgK8btL73fYOjsS67hh6b6LfmCRE6_ItufIvb_4YKG10bc3E1am'
  lat: 40.110969
  level: 4
  lon: -88.221953
  name:  'Arthur Hill Daniels Memorial'
- ap: 3174
  img:  'http://lh4.ggpht.com/19VZtu1hVcvRULCxi68PgA-pzTXEiobtDO60r-8r1MaFnboaw386YrrJphD8xHfbAGiu0SGHZ6nuzuhvh59x'
  lat: 40.102559
  level: 3
  lon: -88.226208
  name:  'Agricultural Engineering Sciences Sculpture'
- ap: 3474
  img:  'http://lh6.ggpht.com/RW34ntixvJkg7fD71TPYo_4KIsBzA0-a-6yXO0jKPbpGxX5gIGC7kBI-pXEF9OHhuolcAGW2fxyK3Pt42Iev'
  lat: 40.110489
  level: 6
  lon: -88.227412
  name:  'Bus Stop - Illini Union, Westbound'
- ap: 3474
  img:  'http://lh5.ggpht.com/-OqC4qsxJReOCIM0nMbVjvfydYq6x9bfLc7fmyI-u3x_ygkr5RCE-Ct-uYn-wvhkpdLRjIXEkiODbTkV1iufX14GyE_Qzy1Vkz2mpimaCx26Bo8'
  lat: 40.109364
  level: 5
  lon: -88.227697
  name:  'The Diana Fountain'
- ap: 3474
  img:  'http://lh3.googleusercontent.com/vw4Js8jf11Ok889K1stO5ujNjIO9Ah9DEbsg1xBTrVbaeyBetcG75B8YS8CkQA0KVC8NA5Z02n220SI1UzdB'
  lat: 40.10985
  level: 6
  lon: -88.227236
  name:  'Illini Union'
- ap: 3474
  img:  'http://lh6.ggpht.com/6yxAmr2FjIBpCnPpjbRv2_ffdjnZXpB2FX2OgDLnFT0Oay8HbNuXBErpWWje-HkjfKlf0OugYI9CAtbUcgPsA0B7aD9He4jy7otGJ1mBkF_9NwAA'
  lat: 40.111099
  level: 4
  lon: -88.209036
  name:  'Ibidem Statue'
- ap: 3474
  img:  'http://lh4.ggpht.com/g8tAznMB64NxNMd4eYtF27DhNprtAqnBEt_llGcKp1qpKQeUvyHBi8p5QuGURqAGieaeJscmQPi6Wosmutg'
  lat: 40.111328
  level: 6
  lon: -88.209207
  name:  'Urbana Free Library'
- ap: 3474
  img:  'http://lh5.ggpht.com/gzRmKQixkcp4cu1yDSKAOq_7_ipKvFWUCHT7BfpjE6VSSAq7Q08JJGg_jt4FCMWU3ie65fwweNlj4n6dg1aQIA'
  lat: 40.111419
  level: 6
  lon: -88.209885
  name:  'Megan''s Garden'
- ap: 3285
  img:  'http://lh4.ggpht.com/EsyXMnqVMX7wQ4YmoCFRiNljaJqaXrQvzyzzooqx2fPxCSkJMkdEssTbf618D8Qp9hh3E4Ud3hL1M3v-TsbO'
  lat: 40.104688
  level: 6
  lon: -88.230676
  name:  'Sousa Archives Center-Amer Music'
- ap: 3098
  img:  'http://lh6.ggpht.com/0IsQORyEW-bPA7sEbGspygtoI7ixEshm_2fUw5oeh9AeXg6JN5w0ypYIshpuKm-C0nG4Vm2XmpLvtWTZzWzd'
  lat: 40.111607
  level: 6
  lon: -88.233753
  name:  'Chabad Menorah'
- ap: 3098
  img:  'http://lh6.ggpht.com/tenpgw5pr4OCsrdIgmmHP_sx4RHH2ywHdbNxw556d5JpHC4u64HFYqCdRSeAJgfTN_7BcUv11v8NtBdlaUV8'
  lat: 40.100717
  level: 8
  lon: -88.243989
  name:  'Rainbow Garden'
- ap: 3098
  img:  'http://lh4.ggpht.com/A0lGmZOBcx4fo0sruij79v-UHVQw5Lq_LdkJ1tVUj-67C2L49ESiGUgmTfI6YDdyECeAmwS3WtyQ4igJ0dOfM6kLg1LhQXZk2Ns1tJdXzMXpE3w0'
  lat: 40.082631
  level: 6
  lon: -88.200245
  name:  'From Night Daddy''s Book of Dream'
- ap: 2911
  img:  'http://lh3.ggpht.com/xAJIzhGMpnqEYisIgB5-btiULPi6cL4uLys9fqf8_smF-6qAXP9rUsCbWIgPVIIHfGINQNF2Ypx58YvDo1hh'
  lat: 40.127093
  level: 7
  lon: -88.23927
  name:  'Bridgewater Park'
- ap: 2911
  img:  'http://lh4.ggpht.com/zZ2YpVpDiI1KdIQ9iI7mGJD_VtwFztJ4ZF1vRehD9OSnQ2K3433SIg22svwcqDJVfeO2fjE3fdT4eHAJWGpi'
  lat: 40.104339
  level: 6
  lon: -88.234788
  name:  'Pi Kappa Phi Fraternity'
- ap: 2911
  img:  'http://lh6.ggpht.com/uJ6kk4uQVfzQ22nbmRS5caadkRcM8fSpAlbvgM8KacYRDBYZtQTBKIHX7ju9ejvrdRG_oIr5QDELOwvb7L0'
  lat: 40.121759
  level: 7
  lon: -88.24366
  name:  'King''s Assembly Church'
- ap: 2911
  img:  'http://lh4.ggpht.com/ETgOsKlMmsv5wRT-aM33VVVEgFvp3ZoMxqXmYKxROpFAYnfPqjWhltqYBG7ajEuM8XKf3mVeSaF7r9grm2t8'
  lat: 40.113448
  level: 6
  lon: -88.237188
  name:  'Boneyard Creek Second Street  Basin'
- ap: 2911
  img:  'http://lh3.ggpht.com/X30u-Y3JoCurNlH3pvt-DlJeV7obUlOeBDbH-tkN6QcPEHvknjSz3nYF8EGtXWani_tyNgcyl2naDFhje8E'
  lat: 40.083706
  level: 7
  lon: -88.251419
  name:  'Harlan E. Moore Park'
- ap: 2911
  img:  'http://lh3.googleusercontent.com/EwXPPCiuVPRkECPKlJtyqReSySoJKEdwrx1MkNVUy6EM9xWU_fet1Z-sLfx_P2_c54DeJcApxdl-hKg9vGVEtw'
  lat: 40.108224
  level: 6
  lon: -88.223549
  name:  'Colwell Playhouse'
- ap: 2911
  img:  'http://lh6.ggpht.com/q48Oqk2mm3dXQ2ppK-aYGXKjIiTAOEZfrFkiLK9LXRz2uN9hSKihKeCwfg33q1Z2zMTIMjqJRjPA1U_V3pbR6Q'
  lat: 40.104417
  level: 6
  lon: -88.231962
  name:  '1926 Sigil'
- ap: 2724
  img: http://i.imgur.com/5j1qaiT.png
  lat: 40.334333
  level: '?'
  lon: -88.766527
  name:  'e080a514718246ae91d93e990746b2a9.16'
- ap: 2724
  img:  'http://lh5.ggpht.com/TwKxvDv1ImbH5RTs7GHqqK_rPohVtqtgToH7YuDkkwa5BRFiMEcY1vWcFrJLkhaXW6cd2YVL0_Vro2JaA3K1'
  lat: 40.131575
  level: 2
  lon: -88.314062
  name:  'Mark L. Rambow Memorial'
- ap: 2724
  img:  'http://lh3.ggpht.com/PijfKs7HCJf1vVcIxcTF1HPOYaa5iS4ZECXZUQ2dDDSn9ZCXSd8FGHThRUiEIC-oMNmClt0seIzn8FsaGPER'
  lat: 40.112752
  level: 5
  lon: -88.289696
  name:  'El Toro Fountain'
- ap: 2724
  img:  'http://lh4.ggpht.com/Iw1zFYmvkp5-xEIthuGSfIqcCRd0lVw_uGS4y_I5DIg6xQ0CUp4_S4GL3JOWv7XFZLFqFH9O572bGCNhB78IMQ'
  lat: 40.102126
  level: 5
  lon: -88.283224
  name:  'Leonhard Recreation Center'
- ap: 2724
  img:  'http://lh4.ggpht.com/9Rg84EpxbL2Yg5gK7imF1lg4LpVcRz8fS4QGQe_hQfaeN-crjjc8p1MnWvQtnHIJ9c2N-tOiI2lgFMkIfP-V'
  lat: 40.127139
  level: 6
  lon: -88.23398
  name:  'Church of the Living God'
- ap: 2724
  img:  'http://lh3.ggpht.com/QXNgz_dPkVpVuz9Qr0CZkUJDftEdF2Hs8m3XkLjsM8Q3YkwkWpxt0rmtqJ-fFylVNnP4_r193_ZhBl2kSfg'
  lat: 40.129216
  level: 4
  lon: -88.219323
  name:  'Angel Statue'
- ap: 2724
  img:  'http://lh3.ggpht.com/tXDyz6XRrR2AKSg9Rrj1z6jBG4dz7uR9qFmSUO1bWljMEw67ncNiq-2Hx3O9Fs029iRtvCV1gdlGN7pG69L0'
  lat: 40.114104
  level: 6
  lon: -88.237694
  name:  'Lo Park Fountain'
- ap: 2724
  img:  'http://lh4.ggpht.com/uAYfykn0e2h2UqP-anbYfkJNa38P0L1WY8FpF-CwRCPklg5wL1xYFkpGOCMt7SJ37qO8PGVE42nYX9Ba_-jG'
  lat: 40.105025
  level: 7
  lon: -88.243919
  name:  'Mural on Good Fellas'
- ap: 2724
  img:  'http://lh3.ggpht.com/qkbAVT5J9ZNQHzzLNSiw9MN3XrDX3B8bj-xJzu8jKrFdykdTZdsEIlzOKXKVfJ5dZNrhJmG8VHZNeF5pR1G6'
  lat: 40.119977
  level: 7
  lon: -88.242247
  name:  'Seed House Historic'
- ap: 2724
  img:  'http://lh6.ggpht.com/uyv64Hvc1y5cxlCwT2wsWkD3sPpcam6VXjBGrZ5qOpqIyyynSqXKCeBXqdW39vyyoAaOpvm-gIHYaE_bit8'
  lat: 40.120632
  level: 7
  lon: -88.243669
  name:  'Colonel Sidney Gauntlett Cornerstone'
- ap: 2724
  img:  'http://lh3.ggpht.com/F-cwL1kpN8KTxTiRAdaaAFictKYDbMRhPltdDuO0_6jhG8_6fxg1_yHzy1kBs1WXPRZ8UQDrxqY1fCdmHXFU'
  lat: 40.108042
  level: 1
  lon: -88.22808
  name:  'Earl W Porter Memorial Tree'
- ap: 2724
  img:  'http://lh6.ggpht.com/odcfQItYKliXhc8F3FWOrLnmg-zhEAu2r9ziX_Nrdoo6xlkKh8Bx5AwWN3MVh3JU9eo46dBMe1QuXGs6Yl-2'
  lat: 40.107087
  level: 1
  lon: -88.227801
  name:  'Class of 1912 Pillar'
- ap: 2724
  img:  'http://lh5.ggpht.com/jQxBvX2jWXZCQP5ap9HmKaDDgG40pdH5nPpBNcYppZdxce6GWdxMRTYyqKrLxnk_TsmMAd7G6gRwJ6YI7S-v'
  lat: 40.107574
  level: 1
  lon: -88.227843
  name:  'Iconic Pillars'
- ap: 2724
  img:  'http://lh5.ggpht.com/nP1l1H87xpugqoPpX-3ucCRm1xAlBUs4o60-_eF2Dtfs1LN8QkFCcspxdr1GgsdbBBtDKs1vDK-D0_xwG_2L4iZTySxDRpL2uSD65s5_OvTN8HnU'
  lat: 40.082307
  level: 6
  lon: -88.200089
  name:  'Folk Art at Meadowbrook Park'
- ap: 2724
  img:  'http://lh3.ggpht.com/xEgJrsYzA7NN_7_-gz58wAtq82PJpylsKMOKP_AAyghUVm5dGsY07eDHCPC3B_cfRUiaqmA7-DNrIDWPtLw'
  lat: 40.09657
  level: 5
  lon: -88.194695
  name:  'Crestview Park'
- ap: 2724
  img:  'http://lh3.ggpht.com/ZrkQ9I09rQynLgNHgTWMc8sm29XEvwj5QcSQhhgTtN7hDh1pSZHSTI63mz6wWj1jkhlz1qYkKyHD0SJWPNMY'
  lat: 40.094863
  level: 6
  lon: -88.190535
  name:  'Splintering Continuity'
- ap: 2537
  img: http://i.imgur.com/5j1qaiT.png
  lat: 40.779768
  level: '?'
  lon: -89.966261
  name:  'dc0e76699607445baa5a7c901c85292b.11'
- ap: 2537
  img: http://i.imgur.com/5j1qaiT.png
  lat: 40.812283
  level: '?'
  lon: -91.105591
  name:  '406cc5b4ffd24213b38a489ad85b31c1.16'
- ap: 2537
  img: http://i.imgur.com/5j1qaiT.png
  lat: 40.869487
  level: '?'
  lon: -88.63217
  name:  '7a9cff40ba86472884d8f4c7126009fd.16'
- ap: 2537
  img: http://i.imgur.com/5j1qaiT.png
  lat: 41.470045
  level: '?'
  lon: -88.874563
  name:  '48365abb2a8341c098ff3aa9f2310418.16'
- ap: 2537
  img: http://i.imgur.com/5j1qaiT.png
  lat: 42.349946
  level: '?'
  lon: -90.005269
  name:  '30e6a07e98d840419e9251f5c5087678.16'
- ap: 2537
  img: http://i.imgur.com/5j1qaiT.png
  lat: 41.903642
  level: '?'
  lon: -89.541496
  name:  'f25f227ef17f42ad9f756fa783ef2f53.12'
- ap: 2537
  img: http://i.imgur.com/5j1qaiT.png
  lat: 40.311696
  level: '?'
  lon: -89.169242
  name:  '74a2abe956ec428e8662daadb4b010f1.16'
- ap: 2537
  img: http://i.imgur.com/5j1qaiT.png
  lat: 40.359306
  level: '?'
  lon: -89.10966
  name:  '476b5703ef574927bfaa350d68684773.16'
- ap: 2537
  img: http://i.imgur.com/5j1qaiT.png
  lat: 40.026865
  level: '?'
  lon: -88.535309
  name:  '978bef9392354bf895fe9c00c1cf2a7f.16'
- ap: 2537
  img: http://i.imgur.com/5j1qaiT.png
  lat: 39.714759
  level: '?'
  lon: -88.473589
  name:  '3210233e62ce4931a16fbb519cdac05a.16'
- ap: 2537
  img:  'http://lh3.ggpht.com/g1H1SJintXK5Zb7ng6DN7wix1q5otnzMK5JCJDnecwuIiohJmhXLJs1XzItxaTSYEuPPOqd4x-dGqd0WK5YU'
  lat: 40.13349
  level: 2
  lon: -88.313072
  name:  'Sunset Skate Park'
- ap: 2537
  img:  'http://lh4.ggpht.com/A15Qc2ImqJFORKlDItFStr3pkJ1pX5dRyG8VO6RoziKIqMOMMTQdJa-fUInsxL4o7Yxg1XNHfexBZuNAyLG0yw'
  lat: 40.132021
  level: 1
  lon: -88.31285
  name:  'Sunset Ridge Park Dedication'
- ap: 2537
  img:  'http://lh5.ggpht.com/auV57ljlnFqueFTLTeFUjp6iIJxsNFs7P_alBDZ2FNvEvUPvRMBhZCrgQOVfMPf7RIyYAHZLElyAiVoJXCFYkw'
  lat: 40.135716
  level: 5
  lon: -88.291946
  name:  'Campus Solar System - Jupiter'
- ap: 2537
  img:  'http://lh4.ggpht.com/gduQJyd_w8B-OfSBc3f2WHXTDEQS6LrCw1u2Q4UN45Hy4u63pJbPd7WDChrtwQg-YY3ghtec_Gy78xppTAfo3w'
  lat: 40.111153
  level: 4
  lon: -88.28617
  name:  'O''Malley''s Alley '
- ap: 2537
  img:  'http://lh3.ggpht.com/XdibKdkdUGtpg5U33uGSqLW5PByta7qa3MVpc7BLiGlNhAaT7yt7-m02TlcBpzSiNFD6rPNiEGFv_wx0gcvgJA'
  lat: 40.069447
  level: 4
  lon: -88.289932
  name:  'Curtis Road Church of God'
- ap: 2537
  img:  'http://lh4.ggpht.com/N6E1iW7R1Dt6SCyd1q4Ym_HeSnFZ2mHHlXE-jkX1_YLy9BgSRPcDZK8ri2PWx6-sV1IEsClFGgMgpdI2Bgg'
  lat: 40.069187
  level: 4
  lon: -88.295335
  name:  'Friendship Lutheran Church of Joy'
- ap: 2537
  img:  'http://lh4.ggpht.com/j5qEdm6GsRybxCSX4X-mcXnDS-HO6__skWjWfYJD7KoQdhnmPT8tJH1t28UW1k-1PYH5J6mpdiX9mkOzvM0'
  lat: 40.077923
  level: 3
  lon: -88.288859
  name:  'Joyce A Millage Memorial'
- ap: 2537
  img:  'http://lh5.ggpht.com/0UmOEvpBIgW2PQGXcdi5IwCRj20o_XAvbFid1HDfkNsc-7eI6YTWM43QdZtBrA0b2Ln6mMEF-hF14BQiYfI'
  lat: 40.07833
  level: 3
  lon: -88.290166
  name:  'Millage Park'
- ap: 2537
  img:  'http://lh4.ggpht.com/0pYkppjw5D-G0gCZ1pULK83NAqN9qsyzbBnG8K8YMyMekJwqUrZQDRpTqgqB3rrRD6zJezplE_wlFOTPLovb'
  lat: 40.127745
  level: 5
  lon: -88.287039
  name:  'Parkland College'
- ap: 2537
  img:  'http://lh4.ggpht.com/nxDeNwbXxYuo1VyX_qnfxvSql7bfLS5wokO9KwPy6x9CPdTsbILpEr9jM-sXHDsic6WPJnbvWci9eDEcNOWo'
  lat: 40.129554
  level: 4
  lon: -88.286025
  name:  'Dodds Park Soccer Fields'
- ap: 2537
  img:  'http://lh5.ggpht.com/_quRYtw1nQsDlSn7VjdJ72LlgiwnF7tlWU9s2H40vdM6ILPMiOgmzt_fUXz7ocFI5MT7YWs-smZ9a6H7XR0'
  lat: 40.101822
  level: 5
  lon: -88.282612
  name:  'Winifred Nielubowski Memorial Plaque'
- ap: 2537
  img:  'http://lh5.ggpht.com/9VuH5-qaoobAtdEZFkn2uoAcJS5Luq9QLXRevRpv9WAzkjoAB_9hftbELGCCm8M4rxAJ5xTfJWd6E6kb0Or7'
  lat: 40.102016
  level: 5
  lon: -88.281983
  name:  'Centennial Park'
- ap: 2537
  img:  'http://lh5.ggpht.com/93SMm7gYjGLu_6bFOqGL5MXKxKF_NsnHuxiDyywI_Jrhz-LaQoNlm0yw7lG0I9rhp5vnHkATk01A_CNYmYf-'
  lat: 40.128358
  level: 7
  lon: -88.243471
  name:  'Champaign Church of the Bretheren'
- ap: 2537
  img:  'http://lh6.ggpht.com/Ga3KqqKjCVdJ61URIBqkyBWPxV3xirqZoKzANDZmHeorlcqipmRLJFOy4-GmWU_2_783_KDPu3hkA0PNh5s'
  lat: 40.124082
  level: 6
  lon: -88.243434
  name:  'Theb Sculpture'
- ap: 2537
  img:  'http://lh3.ggpht.com/my_h4qixFMd6jwP9asxucVH5iZ3ZW1oV4DbCKeys_8MAAp1-KYNV0YFzZtZTEd9L0ZaMl1OqucHJTPdwROI'
  lat: 40.127447
  level: 5
  lon: -88.244069
  name:  'Hazel Park Playground Dedication Plaque'
- ap: 2537
  img:  'http://lh6.ggpht.com/ZpJuVeWuDsVo9oPzh9mGzFjeTz2FQluKlriJijNL29HFEEWmMBqok5fCxVis8MpHqJYCBQUhRLNU9yuE7luP'
  lat: 40.129233
  level: 7
  lon: -88.238696
  name:  'Bristol Park'
- ap: 2387
  img:  'http://lh3.ggpht.com/tWkX3XHLpAuapetLdnd8UYjpBeSYbR89poy4fpll1Rfdn2Tp-7KMqHHkFtvKl8rlcd3bngVxc9wc3K0Cnlvd'
  lat: 40.136033
  level: 3
  lon: -88.238373
  name:  'John "Skip" Pickering Dedication'
- ap: 2537
  img:  'http://lh6.ggpht.com/cZVUlNaHjfsB6Lu5hnj8JjUk4lvsgOV7DFz4Nl47-RaQObW1VPRpos6hTDD6WgYrNxCh9UKfn5DFU-K7lRe9pQ'
  lat: 40.1164
  level: 7
  lon: -88.242747
  name:  'Sidewalk Art'
- ap: 2237
  img:  'http://lh5.ggpht.com/arF148UpHKIzlt5NezBSpFkItJk3gWq__xkPolNCeVTwHNpQNm1rzIwSdA2oAJBPtaLhpTHcVdAFFdHAXm8k'
  lat: 40.118383
  level: 3
  lon: -88.247003
  name:  'T E Berger Memorial Plaque'
- ap: 2237
  img:  'http://lh3.ggpht.com/0IkSOblVdAgYOJ2Bk2QqvqWjdstWNQgp7g9oSz1Sq70jG6cLusjwYW76irF9h-c7cafatMcyGsjw85xwYgPQyw'
  lat: 40.118353
  level: 3
  lon: -88.246658
  name:  'First United Methodist Church'
- ap: 2537
  img:  'http://lh6.ggpht.com/71G0y8a-Y6DpLW3DWoGynP_3lfH8iG-Kjdw01gq-YTrrmx0T3udFLdjNDk9k0yQHDgdvvkWUHdZ6xo0EKLarCg'
  lat: 40.118593
  level: 5
  lon: -88.240416
  name:  'Champaign Rail Water Tower'
- ap: 2537
  img:  'http://lh5.ggpht.com/KuDVZqnpBQnne0a_UqpN4wpsQFlw3nVXAWtRKP_AdZ3CjQ0MHUBgU_2hE8hb71h31FTQbduYmB6DNuVKA0s'
  lat: 40.116822
  level: 7
  lon: -88.243445
  name:  'Remembering Horeb'
- ap: 2537
  img:  'http://lh3.googleusercontent.com/oYQaQpOQ2HICancOs0DcaCqX1KiTJEoAeKp6EUWBs5u-TjTKqJlzTSzA0QMldAg6HLWb3rX4m4_cwKwGCtpV'
  lat: 40.118684
  level: 6
  lon: -88.244894
  name:  'Farren''s Pub and Eatery'
- ap: 2537
  img:  'http://lh3.ggpht.com/_K7sIxE489M-QkUoRrgaLB_XBi9BcOI563VzvhOcmhjwHsLO51ORrhkiWZkqThKNBlPAYzclT_qdR_sGe8g'
  lat: 40.114277
  level: 6
  lon: -88.238879
  name:  'Prow 2'
- ap: 2537
  img:  'http://lh3.ggpht.com/wkPcdDupubV3THJo6r2OpMtshziiIkqBISPTCPe8boa-8nH33u83Mznkr1yYWNR_l60RCy8HO_obqrdNGUI'
  lat: 40.093633
  level: 5
  lon: -88.246611
  name:  'Fountain at Illini Plaza'
- ap: 2537
  img:  'http://lh3.ggpht.com/xN5qaZ1d4qIQE8TID35MPTmzahhM09EYDVLbu2aeCpRJz9XntEf7R0XswEdQDOmdMpZxIEyNyqsC5qll3vfv'
  lat: 40.082343
  level: 7
  lon: -88.247404
  name:  'Larry Kanfer Gallery'
- ap: 2537
  img:  'http://lh4.ggpht.com/vUhKhmK0pteJi8_0n25xIa4EpgpVSS432OxXv1UQBDLjju5SEGcm_2WWl99OUPtDyNLlXirJu--KDbCoYjM'
  lat: 40.08956
  level: 5
  lon: -88.257733
  name:  'Good Shepherd Lutheran Church'
- ap: 2537
  img:  'http://lh4.ggpht.com/eoFw5gx9tcBj51FvuWLBsaFZ7TdxW0i1ez8HiVWtHsPE262Fcf5-fE7MAIzvgDr2tLCZzG79np6cdQDZzWou'
  lat: 40.112029
  level: 6
  lon: -88.23655
  name:  'Scott Park Bridge'
- ap: 2537
  img:  'http://lh3.ggpht.com/ei2Kly4PJYB7wpv5MtMVvHz793oQIWOLbz-mjq2ICitv-6BTGVsfA0kPQXiwg3O2Mi__LvZvuashS63u2rwa'
  lat: 40.117638
  level: 6
  lon: -88.227214
  name:  'Under the Sea Mural at Presence Covenant'
- ap: 2537
  img:  'http://lh3.ggpht.com/gmbd8dsk--9MGBF9b8_huzNpPbjrzDw5R9UjqSiA05cRHUIOQRcR-dODKZ9oGUjBnMfufSVzvCekV_YsoOM_'
  lat: 40.118013
  level: 6
  lon: -88.227532
  name:  'Presence Medical Center Triplet Mural'
- ap: 2312
  img:  'http://lh3.ggpht.com/4TX-OEwuLxvx2Vui24H6VdUHCHc4CmobRO9JEWLQnC3-82I4EoBRDmh9bG5_2wHrFiMb34z9Bv0SkdFGpuZ4'
  lat: 40.108
  level: 3
  lon: -88.2219
  name:  'Foellinger Great Hall'
- ap: 2537
  img:  'http://lh4.ggpht.com/3_LELG2r-A5s2d-x2dWyz6h7HzfjVR_KZn9AG0vhih9EalQIG43iL6LdKqKNpnGdGwguP9ZfnGF0KMq_KDE'
  lat: 40.105799
  level: 6
  lon: -88.230188
  name:  'Color Glass Windows at the Newman Center'
- ap: 2537
  img:  'http://lh4.ggpht.com/S734i_6SihPtJW8WdegLb3gEuKeNx8e1qDm6CXjREzYHohw7XqL82m4EF2K5nS2TixHweLn3EuJ4YoQnrsw'
  lat: 40.107751
  level: 6
  lon: -88.231532
  name:  'Graduate School of Library and Information Science'
- ap: 2537
  img:  'http://lh6.ggpht.com/BzDhCANV_iNTHhKFBGLuaUqOvChRZtPWnJ2Xk4h7NsKJHmTGgCWtFHWv2PpDA2fCsHHKSCRTrUNK8AKrLRnS'
  lat: 40.108066
  level: 7
  lon: -88.230687
  name:  'Community United Church of Christ'
- ap: 2312
  img:  'http://lh6.ggpht.com/hPutcAvS7zQN-tagfEY-fvkvdlgj7j5sZwUSLY883Twc7tHyslIAp7lzWYciJmCytDfsbFQtavAlzqGwCgFZkw'
  lat: 40.105562
  level: 4
  lon: -88.234991
  name:  'Acacia House'
- ap: 2537
  img:  'http://lh3.ggpht.com/-p1CR-MEw_nnGMNLqcKVLoq-lgaxNYTd37J_sxs5ORcWO0Rjnk88yp4BLGDPGeMvqIfxxcOQsFbxvS_PbqWynQ'
  lat: 40.101215
  level: 5
  lon: -88.229077
  name:  'Illinois State Geological Survey'
- ap: 2537
  img:  'http://lh3.googleusercontent.com/hvoLMUc9UoNVVPttxWTc8PzOWdu5MBmPETnBexH7Alyl20WGCrNa0G_j7DwvD3qbhqpTaeThFhGDV2rCtp8'
  lat: 40.107629
  level: 6
  lon: -88.224484
  name:  'Bucky Balls'
- ap: 2537
  img:  'http://lh3.ggpht.com/2wN9MWxEFPbMzRPAzNmaAiCOQJj_EFr94Y1YkQP_wMlyajkajmcw00gqW-EluMvpQmvnGgcQ-WdPxjcYTmr2'
  lat: 40.106519
  level: 7
  lon: -88.223748
  name:  'Thunderbird Theatre Mosaic'
- ap: 2537
  img:  'http://lh4.ggpht.com/d3UqrcK5M1wuOe19dIaBUOkrXF4C9IxhOWfxqzM4zIHkGsUIRb1mckNapOMRkkCtVIe0rzJumb1OVDVc1_Y'
  lat: 40.108055
  level: 7
  lon: -88.233688
  name:  'University Baptist Church'
- ap: 2162
  img:  'http://lh4.ggpht.com/tLX-6Ub72fZQHiUgdDlTCFdgJMzvyICnd3BUZ2CkMd1kPhODSr7FDW_rVkZTBZ11U6gjZULvMZGnHcm4p1wo'
  lat: 40.10309
  level: 2
  lon: -88.23142
  name:  'Gelvin Garden'
- ap: 2237
  img:  'http://lh4.ggpht.com/lHmHpXRMH_OkQ_ZaCBKOe_1H4uKjbGtrlIrp1IWJE3ziHuH5jCVNEfDGTtuhBxGehg_MsT9WcAUXhpI692Y6_Q'
  lat: 40.103269
  level: 2
  lon: -88.231487
  name:  'Culture on the Prairie'
- ap: 2537
  img:  'http://lh5.ggpht.com/Tn5ARN-X6VTc2q6atZ2WYq3c2g3gbSGXu6_vXf1MDwHfLpdTtnQ-CilBAVGvL6R-SHhq3fJ4WZI-yiJKmIId'
  lat: 40.110398
  level: 6
  lon: -88.235143
  name:  'US Post Office, E Green St, Champaign'
- ap: 2537
  img:  'http://lh4.ggpht.com/mHAXKPtOyg_DWRs5A_0yhGeDsfU4f4o3xJvzziri7o3ksPPKtMAHUkUBOb0JJ78gArdP5Q6O-UiXNDG3RHaIYQ'
  lat: 40.109339
  level: 6
  lon: -88.234149
  name:  'Alpha Delta Phi Fraternity House'
- ap: 2162
  img:  'http://lh4.ggpht.com/0j8eeTKJgjnYhHpf4qH_70CZHLbujC5v-XP_ndcqh1xIR-5V2K_CGdjIe1ZfMbwvSyISxxYKoZynw1DaQcj8'
  lat: 40.105874
  level: 2
  lon: -88.230562
  name:  'St. John''s Rectory'
- ap: 2537
  img:  'http://lh3.ggpht.com/HX3mWBGofQk08Qdp7A6KMK1AnSXlLEPJR-n6oeX69Efiiss29GHsLiDsHhRS5K8DrXh-QXP1T0AMaOsJmx_w'
  lat: 40.106921
  level: 6
  lon: -88.230145
  name:  'University Lutheran Church'
- ap: 2312
  img:  'http://lh6.ggpht.com/WtqWBwqpYTSw3g9ru5NwcFn5iK5STxWgy2kv4OUTWqwtzx76-9Msz0eqoiw0qpEYE1U4zdt9rzzNZMDNagNg'
  lat: 40.107943
  level: 1
  lon: -88.226751
  name:  'Class Of 1917 Plaque'
- ap: 2537
  img:  'http://lh4.ggpht.com/GCS0-CwKl9SLe2zfeL7FPDuKv5ZFDhlnX3hMXZSJLvK-u73RlgWbn_FgnOHZi-0wqMk52z_YLSAMReYTSaoP'
  lat: 40.10659
  level: 1
  lon: -88.227679
  name:  'Lincoln Hall'
- ap: 2537
  img:  'http://lh5.ggpht.com/GN_FYcjKjamCNlfD8yA995MpcEHa9gIZVV6FBYtdeiNr_XgtCIN6gnN6_dSKwt-DenNMN_ZiJaG12iLuY6wt'
  lat: 40.103588
  level: 5
  lon: -88.233095
  name:  'Huff Hall'
- ap: 2312
  img:  'http://lh4.ggpht.com/7U0YXCB_DIhnqPJyjyLpNn6kg4lU8HvKL87ddBKWq1sptvVLvCEiCuNEnghQtqDGSN2OBNcOUK9nZcYjY4Vr'
  lat: 40.107887
  level: 4
  lon: -88.225998
  name:  'Lifesaving Antibiotic Plaque'
- ap: 2537
  img:  'http://lh4.ggpht.com/YCJnxuMsSs6lLn7vcBFVH6H2GT4I6LBrYLND5MlgY0qXgcTqxN7kKceFSMO3J8URkRBQyXOMtgosb78QK3iA'
  lat: 40.104011
  level: 3
  lon: -88.223687
  name:  'ERML'
- ap: 2537
  img:  'http://lh3.ggpht.com/0-BDoSYQzYfR7AHH26pmRGbZ4VmB4kdhLKm3x_AV4WOsaSFFLgJwMVN-bWTz9oopIx6IJQMxGvtl5C3svl0C'
  lat: 40.104061
  level: 5
  lon: -88.222743
  name:  'Fire Station'
- ap: 2537
  img:  'http://lh4.ggpht.com/28G0r_p-w3q04AH2p4_fR4O-CYSuWHPoKP2-xgfex5AyW9dAdobtwfB9d3kYf2bIn_izORpEbJsHQn7ExHQ_xg'
  lat: 40.116647
  level: 6
  lon: -88.205155
  name:  'Unified Sculpture'
- ap: 2537
  img:  'http://lh4.ggpht.com/VZT9NM5dfGAaJAZj9cFhDmCgknQCF0UI4Hv3AwcaZedRlXhGb2wfVLTFOWjtoSJRG7MEsjv784wAB1XZgQqpBA'
  lat: 40.126642
  level: 7
  lon: -88.198163
  name:  'Armored Gopher Games'
- ap: 2537
  img:  'http://lh4.ggpht.com/BL7RVMX7ZBl59uh3qjTqPi1OQTCLnWHiY3GLhCR_f8oAL1PmddwJq3mnTe-UN1IYkQSOR5i2cgpaA6oNdny6'
  lat: 40.12807
  level: 6
  lon: -88.215897
  name:  'Busey Woods Trail Entrance'
- ap: 2537
  img:  'http://lh4.ggpht.com/iRPhpx4s3jizpgH-t4zcZOW-Jul7KHBgBpNjZj2ffC8EDKa0EJDxiqTbSEcxrxuIQhWHTeYD50_TZvj9YPv9'
  lat: 40.129438
  level: 5
  lon: -88.215343
  name:  'Woodlawn Cemetery'
- ap: 2537
  img:  'http://lh4.ggpht.com/Kq5hzq7sftozfR_8Nv4J5Kj_v6GRjAUYpOl5dY51VtoffI6BEICZDAVZx_fpVXOKjKsjz59uZjZRQ5jDaRhi'
  lat: 40.129687
  level: 4
  lon: -88.216152
  name:  'Stone Fountain at Woodlawn Cemetery'
- ap: 2162
  img:  'http://lh6.ggpht.com/jEub4RTtKqfEcjYNQDMtrj2tUL_R6e1kqZRi-xU7lZ00Gkn309unaXkzNzft6a67crWBUzDCb21a5HTTuCc'
  lat: 40.113065
  level: 2
  lon: -88.207546
  name:  'American Legion Post 71'
- ap: 2537
  img:  'http://lh6.ggpht.com/FsUBggh0M3sjncoth6JaamkCglQtDsuiR89k30B2sMp7srgh0Hz6trgv7BhNRSJA6qI7OvipV8B3XEhzHmaNxA'
  lat: 40.113513
  level: 7
  lon: -88.207559
  name:  'Black Dog Smoke & Ale House'
- ap: 2537
  img:  'http://lh5.ggpht.com/Nn1kM6sYdUcyplObjDuNOxFLN-NHspntEdET54AzrcZuO71RCmdq-UQeroMQ5JNEno_XDutkdBoVuAm7HQM'
  lat: 40.083054
  level: 6
  lon: -88.200475
  name:  'Loving Memory of All Our Babies'
- ap: 2537
  img:  'http://lh5.ggpht.com/prfJ78X11LQhmc4oqt5BIM1mvF3nq_ZyuHqdzh9Ab7lz5aRQqfjllde4UKCFCQguDMa0Nl63SsnEstu2uaw'
  lat: 40.083271
  level: 6
  lon: -88.200732
  name:  'Prairie Play'
- ap: 2537
  img:  'http://lh6.ggpht.com/k_7DcxCHlkFP0CTNHoTY5V3-yA-EKIuGisBB8E77m940i61vkhvgHMsmxpNBkUhVm6Oy2XzndXI9_HF9MNJt-bahjS2gelImbCJmBrpBHpGW9VvA'
  lat: 40.080794
  level: 6
  lon: -88.203294
  name:  '"Fluke" at Meadowbrook Park'
- ap: 2537
  img:  'http://lh6.ggpht.com/OeWiEqijQeAf256S5XDmv8VIj-SUQ0QHnet5J28ThcRwPEYY7-uk4CXixqualhlYxTcgKYe55FOcK_Ov7BE30jWvWzeBabSEra5jDLx3ZGj-XSs'
  lat: 40.08069
  level: 6
  lon: -88.20463
  name:  'Swift'
- ap: 2537
  img:  'http://lh6.ggpht.com/LJB7sU5C-p9Dsf4gZ7RkqrEbfZnlh-rR33SARIHJOOUld5Lhb6_CH4gN1rtHGaLP4sPAsl8gN6mFkpl7ZQ5_'
  lat: 40.081475
  level: 6
  lon: -88.20239
  name:  'Prairie Buoy'
- ap: 2537
  img:  'http://lh3.ggpht.com/3Zmkt--7llPgVt7DBvxcj4VWf2chqeJFGGK3MxoJQUsf4eyqv2iI35GHX8cDE1VJzJcS7rt1tLhm2NSszA4J'
  lat: 40.080946
  level: 6
  lon: -88.20312
  name:  'Jack and Marilyn Memorial Bench'
- ap: 2537
  img:  'http://lh6.ggpht.com/VUiJw2p9vjgP0F_q_V_AeIeL6ZgjRVgXYCi1RfATkyViyTqwz2d5-dFq5rtfxMMufqEfVcxf5WUjHbr6J20'
  lat: 40.096039
  level: 4
  lon: -88.194729
  name:  'Koishikawa Rotary Garden'
