- ap: 8533
  img:  'http://lh3.ggpht.com/qWqDj3Ws5ffRyIXG8XxFM41dBDTOBhjCkDgKebjiDFo-5Fyj_ssgLQ_wLM82uWwB2jVkNIYN4nc5U2E3wZoBNQ'
  lat: 40.111037
  level: 2
  lon: -88.245813
  name:  'Champaign Public Library'
- ap: 6657
  img:  'http://lh6.ggpht.com/j712bbvDknzGlAU87nZA1Bx45Ng-0MGA9Uvuv-3WzIKA3W51mXOZpJ-TzVSbuU3uE2AsJ5wcO7_B6WDpdRr0'
  lat: 40.110684
  level: 7
  lon: -88.226053
  name:  'BCS Superconductivity Theory Plaque'
- ap: 6096
  img:  'http://lh6.ggpht.com/ZQaguxPyiC-6DeFDFa2niVKJz3ySxwxYaFCv8PRdNuoMYUfP-Xtirg-8pXCTdBCyH1BruprOVmqf3D1kdp7o'
  lat: 40.115225
  level: 2
  lon: -88.248866
  name:  'Holy Cross Catholic Church'
- ap: 6096
  img:  'http://lh4.ggpht.com/IAi2A1ukQunZaoCY1OUJnvZC_MAEjnYzlg7vcsIuPQyLIB710_5ueVQ3El8Pok0aNvlB18-Tdo1euhYbaf0'
  lat: 40.115224
  level: 2
  lon: -88.24957
  name:  'Linda M. Wesolowski Memorial Sign'
- ap: 5722
  img:  'http://lh6.ggpht.com/XsUl74M1oxj6ptAvGEBOMH2wivRhxBNns62UJSGcPiQkuJIgPrmUYxMpSZZUfXRMMjrwoxlFK_DbAM78UrOh'
  lat: 40.113499
  level: 5
  lon: -88.244374
  name:  'Shatterglass Studios Mural'
- ap: 5535
  img:  'http://lh3.googleusercontent.com/ryRMzj5c3ls-s5Gocd2-IM_oonInNzjPIbCGJVps6JmZxYcG165NabHKNZW7wAepNc8rtLf3A3E0U1mbq-I'
  lat: 40.113683
  level: 6
  lon: -88.315289
  name:  'Circle K 4202 W. Springfield'
- ap: 5535
  img:  'http://lh4.ggpht.com/BEyFLhgqk0ySf2zElnARv5eyaQggj_zbHSagW3_DGt9BieScmU4jGPvJCjezTjbiCP-DOJPLPfJ3HhnYAiQLEQ'
  lat: 40.119288
  level: 5
  lon: -88.248086
  name:  'The Hartford'
- ap: 5535
  img:  'http://lh3.googleusercontent.com/vMuPZQrBjsuqibkb-FCbuVrZzyuUSOhjlXxxxRc9hq0Y7prkP-Fpk1Hh6o5Eq8BhT6s7GRP5S5z2KFUL7hJY'
  lat: 40.113606
  level: 5
  lon: -88.243766
  name:  'Mural on South Neil St.'
- ap: 5011
  img:  'http://lh4.ggpht.com/qj7RZgjywjmhALnf1YyB5hWBrpO3hxjXZJdOzfE7YYV0p_vq9KA8GrgL9SfBHf_Ry3MVzMy1iJ6pAOkYL_lT'
  lat: 40.119118
  level: 4
  lon: -88.24584
  name:  'Amvets Post 3'
- ap: 4786
  img:  'http://lh6.ggpht.com/5m_DdlbswQXPJueGjlDknXPY3RqwtwdrWAsNLBfbSNENcdAw3oafNYp_YTPk5KmZZpY5M4zwdxKoE9Tq5kDv'
  lat: 40.118985
  level: 2
  lon: -88.245285
  name:  'The Little Brick Memorial'
- ap: 5086
  img:  'http://lh4.ggpht.com/FAqopsayR2vfoblDs12USLGHxH0S1lfng6IlvgMPO2k4a1fKXYQnDWf0Lbf3zAqLfMU0aGaHpSZxycRqft9pmQ'
  lat: 40.119381
  level: 5
  lon: -88.24555
  name:  'The Lodge on Hill'
- ap: 5161
  img:  'http://lh6.ggpht.com/FsUBggh0M3sjncoth6JaamkCglQtDsuiR89k30B2sMp7srgh0Hz6trgv7BhNRSJA6qI7OvipV8B3XEhzHmaNxA'
  lat: 40.113513
  level: 7
  lon: -88.207559
  name:  'Black Dog Smoke & Ale House'
- ap: 5159
  img:  'http://lh4.ggpht.com/kZm6lbk07IpQebQBqqCODikSi-pOMHQhQ7-c0xNGM6vqUskWUftXV4L3ymEbT0T5IELGgfJ2vrxTZvmgP9D_'
  lat: 40.117118
  level: 3
  lon: -88.248618
  name:  'Lieut. E.G. Stillwell Memorial Tree'
- ap: 4785
  img:  'http://lh5.ggpht.com/bxjTJmHRd1_7x6zw7y1Eir0opWUqtbJOdAC4FxDOfOBVdUI1zEVV9wo5FiHzTxqR7hajj-4tQrnSyAe2b8Y'
  lat: 40.113974
  level: 4
  lon: -88.311234
  name:  'WBGL Radio Station Headquarters Plaque'
- ap: 4785
  img:  'http://lh3.ggpht.com/eFFdc4ogWkS9n6Texp4aw9BhK-M6FRxwvMRH-YkXj7JP7qSRQdo7E0-0O4P7NawgvduxpxgjnbGHbN1BjW2_'
  lat: 40.114585
  level: 6
  lon: -88.311371
  name:  'Joe''s Park'
- ap: 4785
  img:  'http://lh4.ggpht.com/9jXAzAxn0JZrLkU9VK9p-mNzjw3x_6QqwMAn4CAEBAHp_lo2iDZeV_y-hoUzP5CYwm8kOMyrTToZQOWJBRnw'
  lat: 40.115095
  level: 4
  lon: -88.249052
  name:  'Bayne & Schumacher Fountain'
- ap: 4411
  img:  'http://lh6.ggpht.com/Qfyp6BK43B93Oo5kazv7b-62q_5cx5GKxXPyw6Juss-A6AgPx81B0lyWhzW7Ava9ztLzedt07gEh3ia2PPFDwQ'
  lat: 40.113636
  level: 6
  lon: -88.208146
  name:  'Jolly Roger'
- ap: 4411
  img:  'http://lh4.ggpht.com/H1kV6JSczzSbcCblAHg5ZOgITW1mBAz0_oLbqbzxBlijGTBn7TP6KwA6UI0AAGrCN4VF0DAF79Vcj6_2R4dsB8LRTq6tud6v'
  lat: 40.112646
  level: 7
  lon: -88.20725
  name:  'Zipcar-102 N. Broadway Ave .'
- ap: 4411
  img:  'http://lh6.ggpht.com/jEub4RTtKqfEcjYNQDMtrj2tUL_R6e1kqZRi-xU7lZ00Gkn309unaXkzNzft6a67crWBUzDCb21a5HTTuCc'
  lat: 40.113065
  level: 7
  lon: -88.207546
  name:  'American Legion Post 71'
- ap: 4222
  img:  'http://lh6.ggpht.com/WVVbmiu2GGTnPTszcnYYILHKlkZDoxB-QY6Yv7YPoUfdVn92jYnKjpVKNkfWdFrPjq-BaFeKGJWLZlE-bbA'
  lat: 40.120467
  level: 8
  lon: -88.2577
  name:  'Salvation Army Church'
- ap: 4222
  img:  'http://lh4.ggpht.com/PmGpygZ2fBs43twk2Y44XZbgGcHWv0YimAq7Fp3vlIRRqUyLpSmDmFwcn1ucfmJarcQrAAXJjYAXAhNyxSrz'
  lat: 40.110049
  level: 7
  lon: -88.231968
  name:  'Potbelly Mural'
- ap: 3848
  img:  'http://lh6.ggpht.com/jhMQ5IGo-EB8MiVSEIUKmHbHwagHnJzv5RKZvsbHLes_88gz9Kesj98eZWV29mufV0LSUVjs53V5hMFQOG2Q'
  lat: 40.11067
  level: 7
  lon: -88.220974
  name:  'Astronomy Building'
- ap: 3661
  img:  'http://lh6.ggpht.com/pRR6eCp2PyD3vDZlmHjKOeq8OKg0KhFPVnuWAP-pB7RR36eKA3TlQwYX5pwYfBjPyVyB4oPXXOomdbqpVcY'
  lat: 40.116065
  level: 6
  lon: -88.313206
  name:  'Alan Green Memorial'
- ap: 3661
  img:  'http://lh6.ggpht.com/yoGdHEqpRRqOE5pA5wHdi_ismU_TrB-kTiqVV63EO630KsU608TIfjLijcqJ38At7MyyrE2urWFMPY1Sops'
  lat: 40.118121
  level: 8
  lon: -88.258039
  name:  'Mini Park V'
- ap: 3661
  img:  'http://lh6.ggpht.com/LxVyXEFJmvSZ271mlFfYmCwyb05Kz8cIRxzMt24ZVhRzsH09nxErJw4gKErktjKpCARWfVl4Mla70NoODK2bng'
  lat: 40.11187
  level: 5
  lon: -88.220692
  name:  'Atmospheric Sciences Building'
- ap: 3661
  img:  'http://lh6.ggpht.com/C7ThuP5fwrDTu5cMDpoeGmRjotNh6eUnPf3ksvSsUj5NkHZ0yKbIUnF8cSikhX-I_7O42CTwqjhLq9z3jkIL'
  lat: 40.111844
  level: 4
  lon: -88.228609
  name:  'Talbot Labs '
- ap: 3661
  img:  'http://lh5.ggpht.com/Z2EWM4D6YQHuqnLwtuPBawyQBZxTzVe9E17MKc8jOZkO0ZzkuD5zSQslY2iuXkkUnztPteUeOSHrSTz3voHC'
  lat: 40.111166
  level: 3
  lon: -88.228747
  name:  'Boneyard Creek Mural'
- ap: 3661
  img:  'http://lh3.googleusercontent.com/hvoLMUc9UoNVVPttxWTc8PzOWdu5MBmPETnBexH7Alyl20WGCrNa0G_j7DwvD3qbhqpTaeThFhGDV2rCtp8'
  lat: 40.107629
  level: 5
  lon: -88.224484
  name:  'Bucky Balls'
- ap: 3474
  img:  'http://lh3.ggpht.com/CraZJCGkYMojxUhZiRGhjSMt9Ggq_EWkUgzsVChRJRy806N-iFxcUt910vs-j4ap6ycfrLl-faXk8cbXM2n3'
  lat: 40.105644
  level: 4
  lon: -88.309106
  name:  'Turnberry Ridge Park'
- ap: 3474
  img:  'http://lh5.ggpht.com/UTu16bRRNKyJj2cFsU4mRCMkGJbH7YCAm0gQdiJKjnnZtB00kMEb_-Lhf6AnAXRia4MH6FBrWQGkBCrMUz8'
  lat: 40.120135
  level: 6
  lon: -88.253121
  name:  'Rain Garden'
- ap: 3474
  img:  'http://lh3.ggpht.com/LunaMtSKD9yiLQClolDY-Iqh0ENm9AgJdL4D1QxGs0j6TXPgqxDZea35x5ilAfeI5_0TGh5x1q1EqRsJsLFi'
  lat: 40.114111
  level: 4
  lon: -88.243697
  name:  'Champaign Surplus'
- ap: 3474
  img:  'http://lh3.googleusercontent.com/ZyXHLNlediISMVLqM9sUeZ0FEft3El4ni5P7GPOy5UF2YYBkTywnN5g1lkaer_lDNSvBUvg7bQ5yA_4Wd9qRWg'
  lat: 40.113521
  level: 5
  lon: -88.244122
  name:  'Artistic Graffiti at MCS'
- ap: 3474
  img:  'http://lh4.ggpht.com/d3UqrcK5M1wuOe19dIaBUOkrXF4C9IxhOWfxqzM4zIHkGsUIRb1mckNapOMRkkCtVIe0rzJumb1OVDVc1_Y'
  lat: 40.108055
  level: 4
  lon: -88.233688
  name:  'University Baptist Church'
- ap: 3474
  img:  'http://lh4.ggpht.com/hJDi8J7CZU-933hT0Culp2nhslv6p8rDRPdTFz6FwNaAjB5CmfkaQzj9sM--E-QBvI8yvIJn1F2jxy7ZKWlh'
  lat: 40.10816
  level: 4
  lon: -88.234245
  name:  'Stratford House'
- ap: 3474
  img:  'http://lh4.ggpht.com/OFVPvdgB3GVpaQknHdnt2okgP3xcQksAH3wvOGYVuP85MMlxo3bQ2SRpBb0hzNfjQoC_5LlRqaE6jLB-h9Gr'
  lat: 40.108092
  level: 4
  lon: -88.234589
  name:  'Koinonia Plaque'
- ap: 2911
  img:  'http://lh5.ggpht.com/arF148UpHKIzlt5NezBSpFkItJk3gWq__xkPolNCeVTwHNpQNm1rzIwSdA2oAJBPtaLhpTHcVdAFFdHAXm8k'
  lat: 40.118383
  level: 5
  lon: -88.247003
  name:  'T E Berger Memorial Plaque'
- ap: 2911
  img:  'http://lh4.ggpht.com/MvwoDsxwfyNLHzfGkFJl-4VFeX7OvqB0hsMCrZ2D9Olh8GSghAJDfFfDh7a7cOtMIGwEDMyesZoKvKCXAGj4'
  lat: 40.116553
  level: 3
  lon: -88.242268
  name:  'Esquire Lounge'
- ap: 2724
  img:  'http://lh5.ggpht.com/DebAit5dt4fRUaqvm-qbtIu1w1qep15Lpzb1kkMbiUT3_qT31rdXxCeIVQ_szOWqP16Es-q5irPAf-80kc6IAA'
  lat: 40.0986
  level: 4
  lon: -88.283262
  name:  'Diaz Memorial'
- ap: 2649
  img:  'http://lh3.ggpht.com/LI2lDP17lvIghR6Sltj6ECmzcCBHl8dTLBG7BVkPOqTkM9h8PGuXRp7mS8x3bxL-pbQzjV2HyP1y8XWbUzi4'
  lat: 40.100762
  level: 5
  lon: -88.282846
  name:  'Sholem Aquatic Center '
- ap: 2724
  img:  'http://lh5.ggpht.com/vYay8RKsCV_BP_MkeFm7se0VZoYthm-1pThiATAADleBlTsPowobgZyUoU7DUto6p5cpg9adpCcTgNR6iop0Jw'
  lat: 40.120121
  level: 6
  lon: -88.251967
  name:  'Sesquicentennial Neighborhood Sign'
- ap: 2724
  img:  'http://lh3.googleusercontent.com/4ZghmANMiPJhVcpWuH3M3D6jgFGSDn0QH-VAP5olDzQjucfxwHFo8-1DsCSQhVV-YaTWMvC1pVwqWdnjVs8'
  lat: 40.117215
  level: 7
  lon: -88.245551
  name:  'The Virginia Theater'
- ap: 2649
  img:  'http://lh5.ggpht.com/KadNuhjGK6FUXezGHW1W1kfPOQV5l7gJP594EQm5nPZFLTgcTsjl4ixa-j7XitgtyJyou3q0pTfMr4i2E_avIA'
  lat: 40.118013
  level: 6
  lon: -88.243445
  name:  'Clock at Neil and Main'
- ap: 2724
  img:  'http://lh3.ggpht.com/AflEYleLSbb1ODQvIdBOrTrq1Zkk-rgHU4WaHjaZ6Md2zDSaqq8cERAJWcwG1QFkrzGf6gp3oC-DZuLOCDb4'
  lat: 40.112779
  level: 7
  lon: -88.239045
  name:  'Layalina Mediterranean Grill'
- ap: 2724
  img:  'http://lh5.ggpht.com/ftmAzbnKocZkda7k1ZC-3gMqr3UiOKXsS9qFSxN8V4C6_DEZr79lkSpPL00EmiZn50-ZPzTQZZlBLlOdL4Rd'
  lat: 40.116219
  level: 3
  lon: -88.23253
  name:  'Skyward Railway'
- ap: 2724
  img:  'http://lh5.ggpht.com/39qvivJbsTr57F8HWz9_3WhqwtI6kCbL9qeIckApwB7s51qHqm4RS4qZLPkY2GUv6A2wi2wrlNxhnIN6xGKS'
  lat: 40.113427
  level: 4
  lon: -88.229089
  name:  'Lee Williamson Memorial'
- ap: 2724
  img:  'http://lh4.ggpht.com/JVNlRlxb-5k_pDpi5lUduOZu2NO-CKdaVaa4Jj_IHDLIxC31OEc6zpyO8qklRI58_wB2fH1m8LUHOJW_GME'
  lat: 40.125389
  level: 4
  lon: -88.209627
  name:  'Crystal Lake Tree House Club'
- ap: 2537
  img: http://i.imgur.com/5j1qaiT.png
  lat: 39.827342
  level: '?'
  lon: -89.627711
  name:  'ab8c821e0df6454e8a15dfb179ef690c.16'
- ap: 2537
  img: http://i.imgur.com/5j1qaiT.png
  lat: 40.145754
  level: '?'
  lon: -88.966203
  name:  '796a553c523f4f67905570d0bc7552ea.16'
- ap: 2537
  img: http://i.imgur.com/5j1qaiT.png
  lat: 40.037337
  level: '?'
  lon: -91.064599
  name:  'ba3bee96260a4fceb8db8899c5f24f51.16'
- ap: 2537
  img: http://i.imgur.com/5j1qaiT.png
  lat: 40.146383
  level: '?'
  lon: -89.362966
  name:  'c93c20e0546c42df83982de710d894cf.12'
- ap: 2537
  img: http://i.imgur.com/5j1qaiT.png
  lat: 39.799714
  level: '?'
  lon: -88.166977
  name:  '34824ef0cb1e4e68a4e511bc95860783.12'
- ap: 2537
  img: http://i.imgur.com/5j1qaiT.png
  lat: 40.00737
  level: '?'
  lon: -88.643258
  name:  'edb4899e3e4b4e2480be59f92e5f2c92.11'
- ap: 2537
  img:  'http://lh3.googleusercontent.com/ehDcIFPGimXzEpSpqydgEInzS_LCx7xdxdANoVH3o2WnEnCyvgjWqV1F-DbvHnpuMsAkbUqetYiu0sPiWwE'
  lat: 40.12025
  level: 5
  lon: -88.268125
  name:  'Gazebo At Washington Retention Park'
- ap: 2537
  img:  'http://lh4.ggpht.com/9Rg84EpxbL2Yg5gK7imF1lg4LpVcRz8fS4QGQe_hQfaeN-crjjc8p1MnWvQtnHIJ9c2N-tOiI2lgFMkIfP-V'
  lat: 40.127139
  level: 7
  lon: -88.23398
  name:  'Church of the Living God'
- ap: 2537
  img:  'http://lh3.ggpht.com/M4bKZ-CKQxZ9kYbwoDe79j6v5hIrWVwAcRzAUm9hg6fREm0ubCBwul695BAa_BhnyxOXdXIub7UvBaqxHnk'
  lat: 40.098803
  level: 5
  lon: -88.283425
  name:  'Taylor Memorial'
- ap: 2237
  img:  'http://lh4.ggpht.com/8Yhp3k9rCZps2AgalC_ip3F4DfS_sWuoDsILaXrP4RmZLhthvaiibjiEOn68zQ_QZyQu1Jyj8yb2lmNUNmrR'
  lat: 40.101186
  level: 3
  lon: -88.282524
  name:  'Rotary Shelter'
- ap: 2537
  img:  'http://lh4.ggpht.com/BB4y2ChVuPpmuGW8VPeiAPKr-vWwYdihWvrH0i_WALxPd8wX3j2no0JFEMNK8ndCvXwQzLLabPyRoAfsz5g'
  lat: 40.101584
  level: 5
  lon: -88.270546
  name:  'Mayfair Park '
- ap: 2537
  img:  'http://lh6.ggpht.com/lcnaor8q6SYRZYMm-tUZtz1sXP81Bdwoa9Pf8LC0Vfggxa8JP98UTcgToQqXfmu99JegLd6L3Pb3aG6XjSQH'
  lat: 40.106714
  level: 5
  lon: -88.267574
  name:  'St. Peter''s United Church of Christ '
- ap: 2537
  img:  'http://lh4.ggpht.com/53avgB1jGEftJ9eyV5l3nee16yHgYDAXkZoonzyXO3mwPLijOgz1uOtcxfKdCaRzaBqW-BQ4ft-Od3uZnja8'
  lat: 40.118436
  level: 5
  lon: -88.26383
  name:  'Davidson Park'
- ap: 2537
  img:  'http://lh5.ggpht.com/_9uqsDQROIwqIhKx_URY4DdZAapoZBEWK6Eaclt5mM5vPsjwQAD-v8Bv-4b-Smq2F8X4zOgzLx2KwySkFWc'
  lat: 40.118448
  level: 5
  lon: -88.25211
  name:  'First Church of Christ, Scientist'
- ap: 2537
  img:  'http://lh3.googleusercontent.com/vJ_iyOb44eFzOJUNpRouOPDI8rKgOESn7TWw9U9BR3OcWsb6Oak-SSfVH4iPPmtXJdk30rqet1D0KxVohiBC'
  lat: 40.114712
  level: 6
  lon: -88.238392
  name:  'Mexico Mural'
- ap: 2537
  img:  'http://lh4.ggpht.com/_jAAuDi8SO5uupi8JlB3HZaFG40S15izNv_3vqOt7ro2rRHuXrfdEKfEFvRESdAjCEz3RVDpyrxJGSIrju5d'
  lat: 40.117916
  level: 7
  lon: -88.243087
  name:  'Sholem Building'
- ap: 2537
  img:  'http://lh5.ggpht.com/fDRifvVcFT_dKhPuNBN4rR9lNHL0Q6NvbMnGr2-ZdiirR2rJrBcWRi4vyM3-DYNHymUs7bWchaWRaUtBpg'
  lat: 40.098541
  level: 7
  lon: -88.250389
  name:  'Dennis Robert Costello Memorial'
- ap: 2537
  img:  'http://lh6.ggpht.com/YdeB0EKlsopL39a9YXWj4JBZgXNNLWHgfe4PQzdpWCNWc0fR1YTj8WjARDHnmrusvKWTqKLcGg8U9frhtsw'
  lat: 40.09821
  level: 7
  lon: -88.249879
  name:  'Hessel Park'
- ap: 2312
  img:  'http://lh5.ggpht.com/AmsS7GEfFX-_Icem2DP6mjQahV1jeut1CGdeqLqfpyzx0m5SqhVY4eoAohizF0xsevPQufmLRMoVj2rW7Fe8'
  lat: 40.111689
  level: 4
  lon: -88.231193
  name:  'Koi Building Art'
- ap: 2537
  img:  'http://lh3.ggpht.com/0HyRE6hI-Dp8OIZWrGjSBLw06g4xLl3H3SxdYDO-wm20QdpGQtvQ1-GBpxfAE5WNcC0D_aY-oOfGM1Wj1--EvQ'
  lat: 40.106092
  level: 3
  lon: -88.223135
  name:  'String Project Plaque'
- ap: 2537
  img:  'http://lh3.ggpht.com/oSQ_YOHo2mfYjOa8bPK9ellznKK29UluW-SeXoGYra9VFg8dJp6YQRdHbHHaTExqXs1qUMBNmpI2hUPcC4GI'
  lat: 40.106789
  level: 5
  lon: -88.222992
  name:  'Beginnings of Computer Music Plaque'
- ap: 2537
  img:  'http://lh5.ggpht.com/dEeT4acpLu-WQFlZWd3psap5qAqqPTSVzm8Qt1QtpqtwZ0j1V9eKFcmpgN9K_x1PL4XVchuevw25rxHekz3tvQ'
  lat: 40.111968
  level: 5
  lon: -88.226793
  name:  'Bardeen Quad Structure'
- ap: 2537
  img:  'http://lh3.ggpht.com/1JgqaWx4DIU04ms-XmufSumQ5BDP07SB97-kBjzxDePlLQR9HagCTfqdviW9ErxCqpvXgynqeosQhERhCat6'
  lat: 40.108781
  level: 2
  lon: -88.226388
  name:  'Illinois State Water Survey Plaque'
- ap: 2537
  img:  'http://lh3.ggpht.com/KxQsev6i7POmNh1IadCWwWQSMdCuLIYpPwIdenSlVtzum523D1R-1kfeTbuOGTkt_jDwn4jswCu1edkumm2-'
  lat: 40.110037
  level: 6
  lon: -88.23549
  name:  'Red Lion'
- ap: 2537
  img:  'http://lh6.ggpht.com/BsXdEO7HLxNLSdztPo_4GNNcbxZCxswiDT4pmmcfDQ8YO2SFVW-VnwyEZBvkuhf1rxKAtoKNLvV4rDJ-YVCYUK1qiX-dId_R8P-JskyFYAK9ruM-'
  lat: 40.110234
  level: 3
  lon: -88.224055
  name:  'The Etc'
- ap: 2237
  img:  'http://lh5.ggpht.com/k_9eqZVvGcr3ZNyeeSNDM1-Y7od35KmnQQptB9usrdpTdpGW2c_5-12rYy9hGazdx7qhlYrEXxaJ_ZIVFywlcA'
  lat: 40.106706
  level: 2
  lon: -88.232116
  name:  'Illini Tower'
- ap: 2387
  img:  'http://lh4.ggpht.com/mHAXKPtOyg_DWRs5A_0yhGeDsfU4f4o3xJvzziri7o3ksPPKtMAHUkUBOb0JJ78gArdP5Q6O-UiXNDG3RHaIYQ'
  lat: 40.109339
  level: 3
  lon: -88.234149
  name:  'Alpha Delta Phi Fraternity House'
- ap: 2537
  img:  'http://lh6.ggpht.com/Pnd8JOVl_Lm-LFi5TL9dblCUNbrwX2rh4_oKgOC5Ynga-E_Y207oGsL4Uz931FTapBrs35H98qxJU4Cm_Gk'
  lat: 40.113024
  level: 3
  lon: -88.229095
  name:  'University Place Christian Church'
- ap: 2537
  img:  'http://lh4.ggpht.com/vdGNLZFnObxuCivCqYJZTZij0viFyuNB9iTlybZbb50b4Pqt_d-phv7dphv2G5JgU8Y7mc1RIokgw6SVPo-B'
  lat: 40.093415
  level: 7
  lon: -88.236748
  name:  '"Springville Portal" at Research Park'
- ap: 2312
  img:  'http://lh3.ggpht.com/y0AorXifGZDC_iY8fEpHU0L9ehL0jyxjOAWWnkYyba2FpprGdmigPcoayrthLbakZQQlURVaeJHoNB98IIve'
  lat: 40.094061
  level: 4
  lon: -88.236858
  name:  'Illinois Conference Center'
- ap: 2537
  img:  'http://lh5.ggpht.com/sF7lKjQa6S3nhaNE0eY9h2BozLXUrtnucsZvqAKKD_ZrLPFTVf8thR2l28H7-R4sxheNrwB3hEujhIk1_4E'
  lat: 40.126699
  level: 3
  lon: -88.209995
  name:  'Fly Fishing Sculpture'
- ap: 2537
  img:  'http://lh5.ggpht.com/n-WJVk4VFfgCVfLuyItrEjDCHgOd5YN1Z1ts6qT6-RmXvFyDeNKYarXwzwHKyd5B9tGmezRoEzKX4EFKmaY'
  lat: 40.124947
  level: 3
  lon: -88.210509
  name:  'Trail Marker in Busey Woods'
