- ap: 12657
  img:  'http://lh5.ggpht.com/HhVreJipNvxPRVFpmsh2BPo9PcpPO2Q2l3jCpDjIKgfKGycoTNPXR4DKiYccBXW4X-4dJf_vV0ESsWAWHcChsg'
  lat: 40.100936
  level: 8
  lon: -88.250855
  name:  'Donald F. Bresnan Memorial'
- ap: 11720
  img:  'http://lh5.ggpht.com/2jocF-ooKfacyT7HSwrwNcZTSN02yFkcmXBkPx777CYuD5O6sHPHwyUabblNOl_37YOxba1Gjid-TOwLVBlJ8g'
  lat: 40.116448
  level: 6
  lon: -88.248459
  name:  'Uppercutted Sculpture'
- ap: 10409
  img:  'http://lh3.ggpht.com/sisvfsphxy7AK_2qrrqb7lNJk3_7ciHSVJyodINYITBc-UqugyNOooCxKupgJKEg5m_x95eZwouSO2WCmN60ew'
  lat: 40.098579
  level: 8
  lon: -88.249603
  name:  'Chef Ra Memorial Plaque'
- ap: 10033
  img:  'http://lh4.ggpht.com/5E71LpfYxV2zsihdsTCShjy9NN6ksITFjXz6GSYwP8EKVJEuhrWOJKGGr6nfCT99QLgs4K6HHrqQn6ta1Vw'
  lat: 40.117349
  level: 5
  lon: -88.24917
  name:  'Ruth Whitney Memorial Plaque'
- ap: 9657
  img:  'http://lh3.ggpht.com/K-b9T4FjMxrtkS2Awkze3fELfwY2Va92gMQloHtHf4bfeKPPRzOUJxaSYYi6-OHHQbpDVY3ONWwPgIa78fBX'
  lat: 40.118332
  level: 6
  lon: -88.250276
  name:  'Mckinley Aquatics Center'
- ap: 9472
  img:  'http://lh3.ggpht.com/8FqlniFErK7cq59awiT84u8KyV4FIRd5krZzfYa58zJToFps7whdBnriPqvO_kFKeLUE3SWbJhCOPuvUQzaGFA'
  lat: 40.100691
  level: 7
  lon: -88.251337
  name:  'In Loving Memory of Zeus'
- ap: 8722
  img:  'http://lh6.ggpht.com/cnBQN3RYcZFSdxYB52bvMYRD2aTSlDG0_cqBQ8coo0ueKTtGxldE0xGjNPF6xlYJtnba8oUyEKwBeYbO8CY5'
  lat: 40.116631
  level: 5
  lon: -88.246951
  name:  'Lyle Blue Memorial'
- ap: 8533
  img:  'http://lh4.ggpht.com/Iz-O9-kJLlEdRO9osaqkCvLRsSNF24c95jHG0lhtE95b99-cC2bKuCEiznIs1-ytpoCITEwQ7s5VuyURgrpM'
  lat: 40.117288
  level: 6
  lon: -88.248506
  name:  'Prayer for Rain  Fountain'
- ap: 8159
  img:  'http://lh5.ggpht.com/tfAfnmo6mSMc6U0P533NMFJRGwn6lasmx-MLR2JJg1QOizMKkghFU8E7hb2zgYgdQEbgnCJUlvZIMdrrJe4'
  lat: 40.100822
  level: 7
  lon: -88.25193
  name:  'Seeds of Kindness Bench'
- ap: 7972
  img:  'http://lh4.ggpht.com/6iTxW6HC8WFx3nf6xEGhZryWVxW9NNijqTsEKvcBCBkmkmLZdUjaDHKReKT58cl8RUaCwDCL7pMFmBEyj3Fc'
  lat: 40.117602
  level: 5
  lon: -88.249943
  name:  'Megan Schneider Patel Honorary Plaque'
- ap: 7972
  img:  'http://lh6.ggpht.com/tEtHQ3gjXHp940OLn9txVBSOCdT8UfYUs3C29Cgx6HiCLrS3KBboU3Wms2rEVMQWEf7lf67xfK7MIUmimDw'
  lat: 40.116631
  level: 5
  lon: -88.247334
  name:  'Jack C. Richmond Lion''s Club Bench'
- ap: 7785
  img:  'http://lh4.ggpht.com/vKgqIecJshMQxrhO-ZhMjcIyARuJdyU63wKfzAG0wouZex6LVzO46Qi5zM1N3Jx8xyantDFk9sQGsSEBhb-y'
  lat: 40.101327
  level: 8
  lon: -88.251412
  name:  'Zeus Memorial'
- ap: 7783
  img:  'http://lh5.ggpht.com/c-upLAoA6V12_Enn5doC2Hqtp3W9dLMIb34VHt0aVni2lW2OF5Lddn2c-1XcxmmaN7um9eyxqOF5c3c0hs4'
  lat: 40.118139
  level: 5
  lon: -88.248407
  name:  'The Americans Creed'
- ap: 7708
  img:  'http://lh6.ggpht.com/rjO65LTfxlehqnFITx_AAA2JKpsmpj8hWVQifyHaji2E1suLvQntKGeHtT8TjDg7CZ94W3wDKW2MrfGY45k'
  lat: 40.11699
  level: 5
  lon: -88.247796
  name:  'Feathergill Honorary Plaque'
- ap: 7596
  img:  'http://lh5.ggpht.com/I3HJjY6jOYl6ivwUaejRmReBjka9NyCW1ufaILf7cfo4VGwjX6kNB9J6PlIZCBIuTfI1jb9arxjssMTa_hisxr2ObqDCJ55lCxXFccxme5erNEY2_g'
  lat: 40.116859
  level: 5
  lon: -88.249043
  name:  'Bilbrey Bandstand'
- ap: 7409
  img:  'http://lh6.ggpht.com/5NJ7qgqdGdq2TNgKDadFhTo4SudsgsHoSbhrgyc2axnUeV_4VOo4bzyr40gIwc1T_AvyH47lClwrz_V8Mtg'
  lat: 40.117008
  level: 6
  lon: -88.249287
  name:  'Terry R Bilbrey Memorial Bench'
- ap: 7409
  img:  'http://lh6.ggpht.com/9IW6Hm5bd65CbdAqPB8OgjAYQoF7CaPE37U44dbXIYzTWE7ulgSEzfxqVTOGVqCglU_0W2iHo9ZjRqRefq27'
  lat: 40.116904
  level: 6
  lon: -88.249558
  name:  'Gerald Guest Memorial Tree'
- ap: 7409
  img:  'http://lh4.ggpht.com/DXAAQEV-pW-laeGTPphalYn5MoUFYMOyKbjs7rL1bBgkOlCxtaEH7bLcuvNbiQTWzFZK1ZPcNbwuEjw20-od'
  lat: 40.116869
  level: 5
  lon: -88.249849
  name:  'Don and Ruth Dobbins Memorial'
- ap: 7222
  img:  'http://lh4.ggpht.com/4rZUtsKLzttseF-bliT_X7wEGP_joarKKLt8DNtp99fViYcqD4TAWTfZ_Ur6oEdBJdT-1JeZl4tnk_sTtgN0'
  lat: 40.116361
  level: 5
  lon: -88.247369
  name:  'Gerry Schriefer Plaque'
- ap: 7035
  img:  'http://lh6.ggpht.com/uAhsK1gCBrCPvIEZ8lZRhDGbO9Q75uu9su3qhSkktViExCuvIvXGCLwZXT-_riPd4rI3tTvsLqqn6XO3msF4'
  lat: 40.116558
  level: 5
  lon: -88.249136
  name:  'Babe and Gene Wilder Memorial Plaque'
- ap: 7035
  img:  'http://lh3.ggpht.com/5iH9kzVECg-dsKRPYTzLzAT5eoYnDhGrcJB1N-hLShal9eEun1_Ml0oFX2c42cGNjKj8-yvsEnUn2j4C_90'
  lat: 40.11792
  level: 5
  lon: -88.249845
  name:  'Thomas R. Sandrock'
- ap: 7035
  img:  'http://lh6.ggpht.com/5CDidk0pqfUtSW_Yqouuf3diX8drdMu9DoT728QpSz8q6A-WxNhT0yLcgM_7gGpyIAeXrHiTkIzzaVJFgnN9WA'
  lat: 40.099852
  level: 7
  lon: -88.251947
  name:  'Our Friend Tim Palmer'
- ap: 6960
  img:  'http://lh5.ggpht.com/q-mJ2EvrjGn2PfbBh3Pl3XIGUyzTqxGjZmTMhn3k9_2Qi0S2hs3k2ZvpKb4kvt60AXHiyQdxqft5ZecPcg7x'
  lat: 40.098959
  level: 7
  lon: -88.250141
  name:  'Bob and Wilma Tinkham'
- ap: 7033
  img:  'http://lh3.ggpht.com/psgrRGIt786cUSq8EV7SBSDsS-aptrUKjaCXWv864H7OaJL2K71qJpxU9Iw-acwFMi52ZN2qpEmicGmlmhJq'
  lat: 40.121061
  level: 5
  lon: -88.250227
  name:  'Curtis F. Columbia Legacy Plaque'
- ap: 7033
  img:  'http://lh4.ggpht.com/BEyFLhgqk0ySf2zElnARv5eyaQggj_zbHSagW3_DGt9BieScmU4jGPvJCjezTjbiCP-DOJPLPfJ3HhnYAiQLEQ'
  lat: 40.119288
  level: 6
  lon: -88.248086
  name:  'The Hartford'
- ap: 6846
  img:  'http://lh5.ggpht.com/UTu16bRRNKyJj2cFsU4mRCMkGJbH7YCAm0gQdiJKjnnZtB00kMEb_-Lhf6AnAXRia4MH6FBrWQGkBCrMUz8'
  lat: 40.120135
  level: 5
  lon: -88.253121
  name:  'Rain Garden'
- ap: 6659
  img:  'http://lh5.ggpht.com/BK5TjuMzuJgDVPz4C8HRjfZKeaoISnPJ-H7VaYeMNUYmxvvUY7RzIIlR13FjW9HHF_i5-znqs3O6nMxKPfcj'
  lat: 40.102188
  level: 5
  lon: -88.251507
  name:  'Little Free Library Charter 5753'
- ap: 6659
  img:  'http://lh5.ggpht.com/vYay8RKsCV_BP_MkeFm7se0VZoYthm-1pThiATAADleBlTsPowobgZyUoU7DUto6p5cpg9adpCcTgNR6iop0Jw'
  lat: 40.120121
  level: 4
  lon: -88.251967
  name:  'Sesquicentennial Neighborhood Sign'
- ap: 6359
  img:  'http://lh4.ggpht.com/7jfpHo9VtrONulGtzUfsP3lI3AsKBnUxCQaLU9xAMpVCQbWD24db4z9Otn0Sfz_OnEXSbdwKUGm3MZBV6QZrhQ'
  lat: 40.117194
  level: 2
  lon: -88.247472
  name:  'Rebecca Mabry Memorial Tree'
- ap: 6472
  img:  'http://lh5.ggpht.com/dRrlHXlT2nMNgZNHiYo52ha9L-Xay9DyOJR2Cpqs74hgAJ09abn9OTAtMzRVedt1_R9ObZllLO98vRhNMfgTgVsJCk1S-HJwX_XgiGpG4lz3a328'
  lat: 40.11671
  level: 2
  lon: -88.24263
  name:  'Cafe Kopi'
- ap: 6472
  img:  'http://lh3.ggpht.com/I2Up882o0nHzQof3uWaDFK7KQHkYOu1XgKoXUgQotITYJDh--80GzLnOSI8TxKF3RxsF32zcsYmRF8Fiugpt'
  lat: 40.116413
  level: 5
  lon: -88.249814
  name:  'West Side Park'
- ap: 6472
  img:  'http://lh3.ggpht.com/l6drxc16dn91XarTz8Tkkeerjhu28Hf3x7nh-pHe05BLyOA6fuV75A5gB8UdUNt3cRN_eXIHmTE8c5Ypvcw'
  lat: 40.117248
  level: 5
  lon: -88.249929
  name:  '"Tootsie" at West Side Park'
- ap: 6285
  img:  'http://lh5.ggpht.com/4DJAFPeZ_w65Km7VDnsbOqouQaeBuPuxA0KHPQToT_B6o1hBxzdu3kn89UhHgv22Ygj52Fx9QqcbzOytuw'
  lat: 40.100078
  level: 7
  lon: -88.250683
  name:  'Brian Clark Memorial Plaque'
- ap: 5910
  img:  'http://lh6.ggpht.com/NXptd9bdifQT6cVxz-SPGUsryPaznp8rV3omDk0J50MnN5Mmu6oiYNa0FXIgG8FnFreUVsSPzRvQNZXYcO6G'
  lat: 40.11817
  level: 2
  lon: -88.249381
  name:  'Bicentennial Tree'
- ap: 6285
  img:  'http://lh5.ggpht.com/ONr7OWgjlaWwJELaKTJEC1ZVpkIkuN-2c01D2AligYZC9Zbt8lH0SMkirhrWfHdjmVDmCtzhJWoVxoZM-NM'
  lat: 40.116766
  level: 5
  lon: -88.247614
  name:  'Mary Shaw Memorial Tree'
- ap: 6098
  img:  'http://lh4.ggpht.com/EN7YTfA2hkKHBgucyx2FudbTwod0dGUfuekb2VFLAjuj-emNpWEKKgAPi1SN_vsdkbJblYOm5aYiA7MF8CA13A'
  lat: 40.116655
  level: 5
  lon: -88.24954
  name:  'John Patrick Sherlock Memorial Plaque'
- ap: 6098
  img:  'http://lh6.ggpht.com/EiNXerTyRNFVC9pti48SExCtqR9p6t3-Xne_jw2YB90-VjUeJ3KGX8Se436SNVkFb5wOw0N7CKCz9brOeVg6WQ'
  lat: 40.117802
  level: 5
  lon: -88.249547
  name:  'Warren and Mary Filer Memorial'
- ap: 6098
  img:  'http://lh6.ggpht.com/yjfa0jJLjsfLRf9Zn9iafMp3MuIhgCi0WiOCF8GqTGiGvzEnsPGrFa0H1n-uzWhVehLbt44ShthsA32VzHd5iQ'
  lat: 40.099737
  level: 8
  lon: -88.251157
  name:  'Tyler Van Atkins Memorial'
- ap: 6098
  img:  'http://lh5.ggpht.com/8zq5tMevCiipZK8N9-8SZw3vdsA2HwH0E02ormQshGxHVZrB2WPK7OPC8zt6pjLlgpXVuEYHVA_08_Q8fPw-'
  lat: 40.099647
  level: 8
  lon: -88.249648
  name:  'Max Overmyer Memorial Playground'
- ap: 5909
  img:  'http://lh5.ggpht.com/1FFq1l5byXiUE1FTO1Ki4CnurAyDTSJ7tatUNPN2PTAm6auSif6bq49bEe3gkQdpk6ixuhsUd-6KYXSi9NV9'
  lat: 40.113425
  level: 6
  lon: -88.238014
  name:  'Champaign Waterfall'
- ap: 5909
  img:  'http://lh5.ggpht.com/0m1i3CJSj3bKhLj5BgXi8SFpgoihNsBoN6fpccgDU2tjtPcA5BqB1IxvR0yAX9FWkgt3_Q8gbAyGfdJDliGP'
  lat: 40.115142
  level: 5
  lon: -88.238658
  name:  'First Street Antiques'
- ap: 5722
  img:  'http://lh6.ggpht.com/D4r1KWBUGF8ZJDUXBHVcNVeP66FVliNQrEX0n-jZkYyFnWUfZ_vfBIAt4padKNgvgmextrkL2-kxkv6JbS3u'
  lat: 40.110394
  level: 5
  lon: -88.219509
  name:  'University Of Illinois'
- ap: 5497
  img:  'http://lh4.ggpht.com/ULEhKlvERD4aidwSKPhLFujl0N0mZWcHPxtcJ7hNJkyDjYek9yrB4UD_G8bU-O9-12L1LYpDkM068BiYmpm9weZeGJsz-K5whCvUYTfmDqaIp1Fp'
  lat: 40.117
  level: 2
  lon: -88.247111
  name:  'Wesley Robert Weedman Memorial'
- ap: 5535
  img:  'http://lh6.ggpht.com/nRwew4OU3JNWRI1-xCyuN1xwDabajLFDuSlOZ-_M8BwJELli4V8o30JI0UyF6Kpc4gfDGdh10kJ6mD6ggMo'
  lat: 40.108561
  level: 5
  lon: -88.250039
  name:  'Harris Park'
- ap: 5535
  img:  'http://lh5.ggpht.com/v26lJtVx6k_bS8UIv0cuwFV2H-bR_kPwjkydaZjqk7BOG1VyLpoQFvuFB7ZmKZpWB_uCHi70HLzZoI4xZgo1'
  lat: 40.116491
  level: 5
  lon: -88.246701
  name:  'Emmanuel Memorial Episcopal Church'
- ap: 5535
  img:  'http://lh3.googleusercontent.com/ryRMzj5c3ls-s5Gocd2-IM_oonInNzjPIbCGJVps6JmZxYcG165NabHKNZW7wAepNc8rtLf3A3E0U1mbq-I'
  lat: 40.110241
  level: 5
  lon: -88.218862
  name:  'Circle K 809 West Green St'
- ap: 5535
  img:  'http://lh5.ggpht.com/1yq3oFq9p_Yl5cUf5h7IEfZPAbae2MT7lA0DFo1DHwPWPZJJ-Ez-2AE2oTzHEHWsEJQVUcUwh3j_d3kOYgDS'
  lat: 40.110095
  level: 3
  lon: -88.22862
  name:  'Alma Mater Plaza'
- ap: 5535
  img:  'http://lh3.ggpht.com/NuEE1yevEulYAFm9UHYKLrX8fVNrXyLgFXbQ8kTjAKuT9w-Fkj18Pop2B2wikf21LHDU24uSUkIvXbfKyvy2'
  lat: 40.11738
  level: 5
  lon: -88.250259
  name:  'Heath & Vaughn Funeral Home'
- ap: 5535
  img:  'http://lh3.googleusercontent.com/ryRMzj5c3ls-s5Gocd2-IM_oonInNzjPIbCGJVps6JmZxYcG165NabHKNZW7wAepNc8rtLf3A3E0U1mbq-I'
  lat: 40.110835
  level: 5
  lon: -88.218923
  name:  'Circle K 810 W. Green'
- ap: 5348
  img:  'http://lh4.ggpht.com/GO8F5d9Gz5q0tize1_1NxJ51SfmjJESFilw1OhfyI3I0RcdLFN2uKHr8prPX1KAdmabYL8PNJNjyqlgn7r9o'
  lat: 40.117537
  level: 5
  lon: -88.249445
  name:  'Buerkett Family Memorial'
- ap: 5348
  img:  'http://lh6.ggpht.com/YdeB0EKlsopL39a9YXWj4JBZgXNNLWHgfe4PQzdpWCNWc0fR1YTj8WjARDHnmrusvKWTqKLcGg8U9frhtsw'
  lat: 40.09821
  level: 8
  lon: -88.249879
  name:  'Hessel Park'
- ap: 5048
  img:  'http://lh6.ggpht.com/YVbqGVTjJuDMDdj71CP2mWvnUIdgO25PgoDdJwEGnEE_M9I1aDgKyjSr9JOZVU6UQTZQtfUo9RAWyz92n3jtCQ'
  lat: 40.098475
  level: 4
  lon: -88.249208
  name:  'In Fond Memory of William Moore Jr'
- ap: 5348
  img:  'http://lh3.googleusercontent.com/E2FfrLzJb3mHfXBany5NUYpw8tvRpjHxGQ7W0BTKFPVcMupabCQ2fXgQfa0jajRZbLswWOYbEkCO3hUGbIGD'
  lat: 40.099056
  level: 8
  lon: -88.249136
  name:  '"Cricket" and Bob Barger Memorial'
- ap: 5161
  img:  'http://lh6.ggpht.com/S7Utf4_59vQkAP5JhC3mdbzVLKBTt-0zoJ2UjfxUnN10VBbixO-_VwvssWd1LbFSx_yafaijd_U0wTGo870'
  lat: 40.100941
  level: 8
  lon: -88.251314
  name:  'Gabriel Patrick Maxeiner Memorial Plaque'
- ap: 5161
  img:  'http://lh5.ggpht.com/-UWK84I78Sftf7yg-E2pg6xEAWTvyiThgJBJlxbqOZPYKNmzQ8uGgEEMetzplrG1HpXG5kQqNItUeXKxOHDsGA'
  lat: 40.100286
  level: 7
  lon: -88.251747
  name:  'Tennis Anyone'
- ap: 5161
  img:  'http://lh5.ggpht.com/C6wRSaEWO1NYGY5luyYZKHG3Z3aib4aflaPdV7B9G6N6adE890g3QuPRSvCUhsdFHqjoVUjo27mfz9WsjXyuhQ'
  lat: 40.100521
  level: 7
  lon: -88.250864
  name:  'Gabriel Patrick Maxeiner Memorial'
- ap: 5161
  img:  'http://lh5.ggpht.com/3t7XZHqwxLZ8Lc9YomR8FInm74U2PAA-DBk8kmdxXIrcXbKa1CoBDTlgdDJeO-_yVT3qNKRnNLzbdil1eH41iA'
  lat: 40.09935
  level: 8
  lon: -88.249766
  name:  'Jim Bickel Honorary Plaque'
- ap: 4785
  img:  'http://lh5.ggpht.com/BUGNnLReyCBJJj9_zpqgwv5_CAyiW8fWBpyVs0ip1hT5NEE6YKCYzlc8ahldKzk_xv-4uckNJNb6NrJd6r33qg'
  lat: 40.116989
  level: 4
  lon: -88.242255
  name:  'Blind Pig'
- ap: 4785
  img:  'http://lh4.ggpht.com/kZm6lbk07IpQebQBqqCODikSi-pOMHQhQ7-c0xNGM6vqUskWUftXV4L3ymEbT0T5IELGgfJ2vrxTZvmgP9D_'
  lat: 40.117118
  level: 5
  lon: -88.248618
  name:  'Lieut. E.G. Stillwell Memorial Tree'
- ap: 4598
  img:  'http://lh4.ggpht.com/MvwoDsxwfyNLHzfGkFJl-4VFeX7OvqB0hsMCrZ2D9Olh8GSghAJDfFfDh7a7cOtMIGwEDMyesZoKvKCXAGj4'
  lat: 40.116553
  level: 3
  lon: -88.242268
  name:  'Esquire Lounge'
- ap: 4598
  img:  'http://lh3.googleusercontent.com/0hydzoUNO41CcF2qZhlhMbaEgMVFjql3_RSDgrJLVIToqRsqh2aBcAoXsrxAlwXqgTcB1R71HZiHrjq1KdnXgA'
  lat: 40.11243
  level: 7
  lon: -88.235749
  name:  'Fountain at Scott Park'
- ap: 4598
  img:  'http://lh3.ggpht.com/HW1b8GEkWmutU8Hsv_zX2TXNh-iirGoXN5HmxCJd5nc3o1VeCkahkCZ_vbSxOB_ffrBlWW3M-LLMSo97tg-c'
  lat: 40.123709
  level: 6
  lon: -88.250518
  name:  'Spalding Skate Park'
- ap: 4523
  img:  'http://lh6.ggpht.com/o-Si4_DCq7Qwa_fFJhaTZ0-zCScbl7wDS4PHIFGMbnP9TuPVe9ZauXV3lAreyYvxN7B7n8mlrOR2SsPzXmU'
  lat: 40.115703
  level: 5
  lon: -88.239504
  name:  'Chester Street Bar'
- ap: 4598
  img:  'http://lh5.ggpht.com/77v6DfPMOKjAUzTfAuqZzYtMmpFMJV7lPr7FgQb_Fa46w1xmepHb0h-0CpG5WZy1b9vd5_DZ0uLxxZw9-DhJ'
  lat: 40.117163
  level: 5
  lon: -88.246602
  name:  'Garden for the Gardener Plaque'
- ap: 4411
  img:  'http://lh6.ggpht.com/2lDM_Uj6QcUJmWkmPhNWg-vfkJbBQAo6zb7eXC5qDTaJ5xAsoU7jPPqYmLo7zztC2Za1oH3QVrHQ78-XabqR'
  lat: 40.116398
  level: 4
  lon: -88.242485
  name:  'Champaign Servicemen and Women Memorial'
- ap: 4036
  img:  'http://lh4.ggpht.com/kikXgFanbehTzblqLlN2WzEcVgfnP2HD4JE7GI1GOKTu44g13lknkSsdu9prj71y0zKIBFJv_0RIkFW3vXY'
  lat: 40.117574
  level: 1
  lon: -88.247603
  name:  'Travis Marmion Memorial Tree'
- ap: 4036
  img:  'http://lh6.ggpht.com/ka79B_ahK9kHLiOCOnKsp3SooZlPGgMuIOO25OaqPU7eoUALOBzaa40ZCStdo4v6rCYW0VS_pNgW3PJyUDKxpXI-n55zohIxJwRJEq5gslJKwS5ykQ'
  lat: 40.11794
  level: 2
  lon: -88.248679
  name:  'Fonderia'
- ap: 4411
  img:  'http://lh3.ggpht.com/hBux3yLZOMWBK1dtc47OrhISfV3SPojGgtZOxqqf7-yoc82f280WMG1r2mi43iZQsqfwzmN53VJHHHEFVs0'
  lat: 40.116458
  level: 5
  lon: -88.247065
  name:  'West Side Park Entrance'
- ap: 4411
  img:  'http://lh3.googleusercontent.com/Tixp17uCaP682s77UzvCwWCOE6vg7iB2qEFLjACq7xtVJdHE0K3yKYsl3_SwKbiUfQWwgTQRbvfka3U0NvNc'
  lat: 40.098819
  level: 8
  lon: -88.249214
  name:  'Bette McKown Honorary'
- ap: 3848
  img:  'http://lh4.ggpht.com/IAi2A1ukQunZaoCY1OUJnvZC_MAEjnYzlg7vcsIuPQyLIB710_5ueVQ3El8Pok0aNvlB18-Tdo1euhYbaf0'
  lat: 40.115224
  level: 7
  lon: -88.24957
  name:  'Linda M. Wesolowski Memorial Sign'
- ap: 3698
  img:  'http://lh3.ggpht.com/0IkSOblVdAgYOJ2Bk2QqvqWjdstWNQgp7g9oSz1Sq70jG6cLusjwYW76irF9h-c7cafatMcyGsjw85xwYgPQyw'
  lat: 40.118353
  level: 4
  lon: -88.246658
  name:  'First United Methodist Church'
- ap: 3848
  img:  'http://lh5.ggpht.com/_9uqsDQROIwqIhKx_URY4DdZAapoZBEWK6Eaclt5mM5vPsjwQAD-v8Bv-4b-Smq2F8X4zOgzLx2KwySkFWc'
  lat: 40.118448
  level: 4
  lon: -88.25211
  name:  'First Church of Christ, Scientist'
- ap: 3848
  img:  'http://lh3.ggpht.com/WWhYcmz7SmE72z0SL44DRgW7htbIekUCuGiMB3k2U4oqOpii2n2vl1T7LX91Izu4VR89_uvBjK0HYR2KBM8'
  lat: 40.100276
  level: 2
  lon: -88.223103
  name:  'Taft House'
- ap: 3661
  img:  'http://lh4.ggpht.com/W2chhQwPqSJEkl57NVoIL-OE4KFvJfp7Bsrrxza1apCYltcT3npz95LJxqHxvT9ZZu7wxF2gQy-5bpKal2p2'
  lat: 40.115838
  level: 7
  lon: -88.241338
  name:  'Illinois Terminal'
- ap: 3511
  img:  'http://lh4.ggpht.com/MkhRfx0p0ll37O7C8IfCWHSNAQW5D8kba_E7Fu6frVIIFFf1fvRccq8wfjh6qu9yfggxSk0NSuf9oSvidos'
  lat: 40.116068
  level: 5
  lon: -88.237578
  name:  'Mural at Habitat for Humanity'
- ap: 3661
  img:  'http://lh6.ggpht.com/BCoBN1k9qdgU4oqqht_93bj9zxyhLJFkws-e6kAP1Zoz97AaCfbgSYLSVeMERRNl3hLBAVTbcCUn41RUxMmC'
  lat: 40.116203
  level: 6
  lon: -88.23781
  name:  'Habitat For Humanity'
- ap: 3661
  img:  'http://lh6.ggpht.com/CFr5FDgsztNbeSQUq6x63c17MTKeKxsaUoY7uq6eft3-_1XjCjDOPcpjtaA8iqU-gi7m9txMeWkfG0UuT6mv'
  lat: 40.099069
  level: 4
  lon: -88.225654
  name:  'Frank Kern Robeson Memorial'
- ap: 3474
  img: http://i.imgur.com/5j1qaiT.png
  lat: 41.717132
  level: '?'
  lon: -89.923897
  name:  '2ba17a5e950e4863929d91cf67f68873.12'
- ap: 3474
  img: http://i.imgur.com/5j1qaiT.png
  lat: 41.546105
  level: '?'
  lon: -89.123601
  name:  '3cd1f98b928c41e5beb0e666b4686fc7.16'
- ap: 3474
  img: http://i.imgur.com/5j1qaiT.png
  lat: 41.54743
  level: '?'
  lon: -89.126762
  name:  '4501f776f08d45a084cb064a242ab1e7.16'
- ap: 3474
  img:  'http://lh6.ggpht.com/cZVUlNaHjfsB6Lu5hnj8JjUk4lvsgOV7DFz4Nl47-RaQObW1VPRpos6hTDD6WgYrNxCh9UKfn5DFU-K7lRe9pQ'
  lat: 40.1164
  level: 5
  lon: -88.242747
  name:  'Sidewalk Art'
- ap: 3474
  img:  'http://lh4.ggpht.com/9jXAzAxn0JZrLkU9VK9p-mNzjw3x_6QqwMAn4CAEBAHp_lo2iDZeV_y-hoUzP5CYwm8kOMyrTToZQOWJBRnw'
  lat: 40.115095
  level: 6
  lon: -88.249052
  name:  'Bayne & Schumacher Fountain'
- ap: 3474
  img:  'http://lh6.ggpht.com/ZQaguxPyiC-6DeFDFa2niVKJz3ySxwxYaFCv8PRdNuoMYUfP-Xtirg-8pXCTdBCyH1BruprOVmqf3D1kdp7o'
  lat: 40.115225
  level: 6
  lon: -88.248866
  name:  'Holy Cross Catholic Church'
- ap: 3474
  img:  'http://lh4.ggpht.com/ryDcZUJK2aQ_fI0-hY850_t4ZmG2hNmtCx7cxbX83w3cnUWdI-ywpTuQrUVQNxGl3_DcxxNr6bupfDTsagRa'
  lat: 40.117107
  level: 5
  lon: -88.242467
  name:  'Radio Maria'
- ap: 3474
  img:  'http://lh5.ggpht.com/fDRifvVcFT_dKhPuNBN4rR9lNHL0Q6NvbMnGr2-ZdiirR2rJrBcWRi4vyM3-DYNHymUs7bWchaWRaUtBpg'
  lat: 40.098541
  level: 8
  lon: -88.250389
  name:  'Dennis Robert Costello Memorial'
- ap: 3474
  img:  'http://lh4.ggpht.com/Nh7M4_i-advmuf0RWReev2TeUAZ57VTRzcf56-U_TuHsKcjIdqXGvbxpOccEx1CaYHKzGwI9mZVmnLdmhryGng'
  lat: 40.115557
  level: 5
  lon: -88.239009
  name:  'Honesty Best Policy  - Vernon A. Roland Building'
- ap: 3474
  img:  'http://lh4.ggpht.com/ETgOsKlMmsv5wRT-aM33VVVEgFvp3ZoMxqXmYKxROpFAYnfPqjWhltqYBG7ajEuM8XKf3mVeSaF7r9grm2t8'
  lat: 40.113448
  level: 7
  lon: -88.237188
  name:  'Boneyard Creek Second Street  Basin'
- ap: 3474
  img:  'http://lh3.ggpht.com/tXDyz6XRrR2AKSg9Rrj1z6jBG4dz7uR9qFmSUO1bWljMEw67ncNiq-2Hx3O9Fs029iRtvCV1gdlGN7pG69L0'
  lat: 40.114104
  level: 7
  lon: -88.237694
  name:  'Lo Park Fountain'
- ap: 3474
  img:  'http://lh3.ggpht.com/161K1avC8teYs8PtJMANd0cBrff72XYRYh2Gjg2_KhkEh6_F6MLd3cfHIXwK8zegd65ISEVxmEoD5THpeY-Q'
  lat: 40.112553
  level: 7
  lon: -88.236253
  name:  'Scott Park North Entrance'
- ap: 3474
  img:  'http://lh5.ggpht.com/kFv3Fx8zK5B4yXG5EhAGfNrmlQna8VDnlFgMaIk7ajlsW3Ny-Yfw29Cr2OQ2sWLRpbmRiiylV_DipCt1ozA5'
  lat: 40.116215
  level: 6
  lon: -88.238153
  name:  'Knoxville Station'
- ap: 3474
  img:  'http://lh3.ggpht.com/A0WZkyUT-umVVZJsxEXS-SYdMZ0G0RF4TraCu_fOJ4BxVs12X09x-2RBi0x9sVH_hvyUyh9hwIXjijhobik'
  lat: 40.117582
  level: 6
  lon: -88.229182
  name:  'St. Mary''s Rectory'
- ap: 3474
  img:  'http://lh3.ggpht.com/u7K5kVnPCD0MW4066CbBkbej_6bXnyhhEtj7aji1L8gF44dXAr_O3wE-MNw7-E96WUxdYILyIp1sw2IeBNrJXw'
  lat: 40.1179
  level: 6
  lon: -88.229372
  name:  'Wagner Hall'
- ap: 3474
  img:  'http://lh6.ggpht.com/o2VurlR2tYmjBqeWvy5vP3SJrV3BzcB4ykC1ZJswZX-Ayk5UGKvyekuWJPOzxgUest3mjDDMXCaxmttCN8Qw'
  lat: 40.117523
  level: 7
  lon: -88.229504
  name:  'St. Mary''s Catholic Church'
- ap: 3474
  img:  'http://lh3.ggpht.com/RPwmqKgDoVBfLknuC-LM6Vvni6av9IgVxpZapS8lQSDH-fHokPS_j6pH-R9dax4sKqOB5naETVESobfZWDrC'
  lat: 40.102705
  level: 2
  lon: -88.225051
  name:  'ACES Library Information and Alumni Center'
- ap: 3474
  img:  'http://lh3.ggpht.com/aHqOXq4BX_XXhSNRFJn0768z_1bjWEniMumNJ4FMy9Nv5j3AefPsZDiAGCehCguZ1HFOBMBXxRI4mOXd077e'
  lat: 40.112957
  level: 6
  lon: -88.227127
  name:  'Early Computers Plaque'
- ap: 3474
  img:  'http://lh4.ggpht.com/6WTMH3liIIuH6pEvRGZOkUNNR84nR8frjFch6yn_4mbGIokY-MajBCG6jZHWU37a8TBI97rYTBlX-ks8m5XJTw'
  lat: 40.112843
  level: 6
  lon: -88.227657
  name:  'Class of 1904 Flagpole'
- ap: 3474
  img:  'http://lh4.ggpht.com/ezHSw_hRdts3U3bzkEEn46LneS1miDpbSGoxg0v1TqG_W82bvfR2uSTZeDFfhG0kmPJAkOblWP_ZilA6TP8'
  lat: 40.112523
  level: 5
  lon: -88.227765
  name:  'Bardeen Quadrangle - North Side'
- ap: 3474
  img:  'http://lh6.ggpht.com/Qfyp6BK43B93Oo5kazv7b-62q_5cx5GKxXPyw6Juss-A6AgPx81B0lyWhzW7Ava9ztLzedt07gEh3ia2PPFDwQ'
  lat: 40.113636
  level: 5
  lon: -88.208146
  name:  'Jolly Roger'
- ap: 3474
  img:  'http://lh6.ggpht.com/FsUBggh0M3sjncoth6JaamkCglQtDsuiR89k30B2sMp7srgh0Hz6trgv7BhNRSJA6qI7OvipV8B3XEhzHmaNxA'
  lat: 40.113513
  level: 5
  lon: -88.207559
  name:  'Black Dog Smoke & Ale House'
- ap: 3474
  img:  'http://lh3.ggpht.com/OCKiEBzmQ9VMmiVZuW498_1iUjQHiKo7krCcba5dOYnEpjzNQkGhJZr8d7jJuSxUSdkvKjjzN-gV47-buFSO'
  lat: 40.114488
  level: 5
  lon: -88.209395
  name:  'Boneyard Whales Sculpture'
- ap: 2911
  img:  'http://lh3.ggpht.com/07XrBN-er6Ecleor0n9RJ4DfGO6B2yn-ZxjI-Uy8Ba46Jtb6cXNVmATPiPiGyk-1jZ4wxa7-EeIWbWUqArCG'
  lat: 40.142554
  level: 6
  lon: -88.243468
  name:  'Dog Heart'
- ap: 2724
  img: http://i.imgur.com/5j1qaiT.png
  lat: 40.02827
  level: '?'
  lon: -88.573632
  name:  '320a051b365f497b9ebcf74dc9083b42.16'
- ap: 2724
  img:  'http://lh3.ggpht.com/jW-2Ce-dZ1Q0ljxUo3Cv-jckhBnpc4tF_LgZS1keMALkHV6RdWqDFJ2IDEj9bbeUrZbHubk7zNmzoHoLXmA'
  lat: 40.121037
  level: 5
  lon: -88.21093
  name:  'A Fountain in the Forest'
- ap: 2724
  img:  'http://lh3.googleusercontent.com/4ZghmANMiPJhVcpWuH3M3D6jgFGSDn0QH-VAP5olDzQjucfxwHFo8-1DsCSQhVV-YaTWMvC1pVwqWdnjVs8'
  lat: 40.117215
  level: 5
  lon: -88.245551
  name:  'The Virginia Theater'
- ap: 2537
  img: http://i.imgur.com/5j1qaiT.png
  lat: 43.026996
  level: '?'
  lon: -87.881903
  name:  '8909f317a6294b2b9ef0c2a136f4cc24.12'
- ap: 2537
  img: http://i.imgur.com/5j1qaiT.png
  lat: 45.948654
  level: '?'
  lon: -86.241444
  name:  '444b76ac69e14903ae3148dc5876bb3c.16'
- ap: 2537
  img: http://i.imgur.com/5j1qaiT.png
  lat: 40.037391
  level: '?'
  lon: -88.262565
  name:  'Willard Airport Fountain'
- ap: 2537
  img: http://i.imgur.com/5j1qaiT.png
  lat: 40.096711
  level: '?'
  lon: -87.635522
  name:  'c841634539d74f1784541813c4feded3.16'
- ap: 2537
  img: http://i.imgur.com/5j1qaiT.png
  lat: 40.75263
  level: '?'
  lon: -87.997967
  name:  'Gilman Amtrak Station'
- ap: 2537
  img: http://i.imgur.com/5j1qaiT.png
  lat: 40.595978
  level: '?'
  lon: -88.902887
  name:  '7534a54eceb74dcbaaab0698c408a174.16'
- ap: 2537
  img: http://i.imgur.com/5j1qaiT.png
  lat: 40.036745
  level: '?'
  lon: -88.263446
  name:  'University of Illinois Willard Airport'
- ap: 2537
  img:  'http://lh3.ggpht.com/-mMz5f80ITpPoby5jxbF9QtmyShskFPdt3J1DYxUUOJnPDobi-B33A_7DJQ8N-kfYBjPJR09_PYzGhzSHm0'
  lat: 40.064501
  level: 5
  lon: -88.293621
  name:  'Curtis Orchard Harvest Indian Statue'
- ap: 2537
  img: http://i.imgur.com/5j1qaiT.png
  lat: 40.04101
  level: '?'
  lon: -88.384378
  name:  'St Boniface Cemetary'
- ap: 2462
  img:  'http://lh4.ggpht.com/CYtXDlK6MB-Yl-FmKw6yaRt-LGUdQqAdRp3LsWV1JUYwC8qrVWWJaGEaqMtMtRpANFpNeD4z82iGL54nIARL'
  lat: 40.141919
  level: 5
  lon: -88.244611
  name:  'Marketplace Mall Carousel'
- ap: 2537
  img:  'http://lh6.ggpht.com/duOeXcOSQLWosdD0JJXg3pWWQp4t5sL0x9qDHoTIBFNOzEW0t53Lt2cnwgV2E_Su0l1ajIQxPtVbbK_sDRaS'
  lat: 40.141775
  level: 6
  lon: -88.242671
  name:  'Marketplace Mall Fountain'
- ap: 2537
  img:  'http://lh5.ggpht.com/EoSf8hHJu8u_sZNBmm3S1GHAWAxUzBsmXEWMMBkHb0fpzxtjz5RHwnclV42-DDwyDr2BION1zqJ4sLIkaiw'
  lat: 40.121818
  level: 2
  lon: -88.222608
  name:  'King Park Tennis Courts'
- ap: 2462
  img:  'http://lh4.ggpht.com/u_MtizNv_keIXM4ITgtjqC8nr5JvB8UpDBg_5_08uQDTsQr44mwr6ZlkhTp0iKbvcV9xCJqXDeN66xYWaI0'
  lat: 40.116227
  level: 6
  lon: -88.233833
  name:  'Haley-Walker-Ginza Building'
- ap: 2537
  img:  'http://lh5.ggpht.com/2zEYZdL0tuQhUP5HHcOYFsPQfjx-nNDHhi8DMJEzzkjbEA9hODz2iDCcmj4S9NEGBsHW4nYYR010lA_6kyhk'
  lat: 40.10038
  level: 3
  lon: -88.225191
  name:  'Eleanor Hammers Boner'
- ap: 2537
  img:  'http://lh3.ggpht.com/UWeM-kXUlZAe2JGWDlEh2q1Orpp53g_qVfSvCepKpOy5gVdmDkxbQ5mdsO8xAvDa7K8Iq1lg-gDoQCzy8sck'
  lat: 40.109127
  level: 4
  lon: -88.221387
  name:  'Morton Weir Memorial '
- ap: 2537
  img:  'http://lh6.ggpht.com/0WV0zgKIo2AbnMTwJXYSM-C6nik92XvxsPKcZps2SdFzIWJ2bY4k2dHAqdImb1hTCK910NMvQYoKlwWprt6c'
  lat: 40.12034
  level: 4
  lon: -88.211743
  name:  'Alice Mimi Muller Dedication Plaque'
