- ap: 9283
  img: http://i.imgur.com/5j1qaiT.png
  lat: 40.011563
  level: '?'
  lon: -89.278425
  name:  '93ee049f33d544d78fc4ce1dc2b491fc.12'
- ap: 5535
  img: http://i.imgur.com/5j1qaiT.png
  lat: 41.440995
  level: '?'
  lon: -88.692458
  name:  '56ab53918c1847ec92dcd48f3e005a4d.16'
- ap: 5535
  img:  'http://lh3.ggpht.com/07XrBN-er6Ecleor0n9RJ4DfGO6B2yn-ZxjI-Uy8Ba46Jtb6cXNVmATPiPiGyk-1jZ4wxa7-EeIWbWUqArCG'
  lat: 40.142554
  level: 6
  lon: -88.243468
  name:  'Dog Heart'
- ap: 4972
  img:  'http://lh6.ggpht.com/duOeXcOSQLWosdD0JJXg3pWWQp4t5sL0x9qDHoTIBFNOzEW0t53Lt2cnwgV2E_Su0l1ajIQxPtVbbK_sDRaS'
  lat: 40.141775
  level: 6
  lon: -88.242671
  name:  'Marketplace Mall Fountain'
- ap: 4598
  img:  'http://lh4.ggpht.com/CYtXDlK6MB-Yl-FmKw6yaRt-LGUdQqAdRp3LsWV1JUYwC8qrVWWJaGEaqMtMtRpANFpNeD4z82iGL54nIARL'
  lat: 40.141919
  level: 5
  lon: -88.244611
  name:  'Marketplace Mall Carousel'
- ap: 4411
  img: http://i.imgur.com/5j1qaiT.png
  lat: 39.406517
  level: '?'
  lon: -88.79381
  name:  '9dc631faccf54ba0b838bf08a4e83339.16'
- ap: 4411
  img: http://i.imgur.com/5j1qaiT.png
  lat: 39.406842
  level: '?'
  lon: -88.793847
  name:  'e43989407c1943e88018a8e8889c6a0e.16'
- ap: 4411
  img: http://i.imgur.com/5j1qaiT.png
  lat: 39.405904
  level: '?'
  lon: -88.793757
  name:  '1877094b3ca245d4b5221a9177e8307a.16'
- ap: 4411
  img: http://i.imgur.com/5j1qaiT.png
  lat: 41.710477
  level: '?'
  lon: -89.32551
  name:  'db2dfb860dfb4a59b57d515183f91926.16'
- ap: 4411
  img: http://i.imgur.com/5j1qaiT.png
  lat: 39.405035
  level: '?'
  lon: -88.79382
  name:  'f72aba674dac4a16992c5a05c398375e.16'
- ap: 4411
  img: http://i.imgur.com/5j1qaiT.png
  lat: 39.402344
  level: '?'
  lon: -88.793365
  name:  '53e5d02190374b5196d53ecd0a937ced.16'
- ap: 3848
  img:  'http://lh5.ggpht.com/fGRHfMAqdWrUnPE8GStKSdMkgQmu9qvuxAC4VzcU1v2KyxQu2BeuJKhvhefSeFNTkgFh6YdR-F4P6plMbh0'
  lat: 40.110194
  level: 6
  lon: -88.231488
  name:  'Fighting Illini Memorial'
- ap: 3661
  img:  'http://lh4.ggpht.com/iq0AIMD1D6PFcLIIBflZ30Y-ohyBTSRFX0ET_F-b30QnrujDMBdye1grsSc7lKQxq9d_GdD8gqvQAK2c36U'
  lat: 40.08146
  level: 5
  lon: -88.310362
  name:  'Stephens Family YMCA'
- ap: 3661
  img:  'http://lh6.ggpht.com/u50xnbCiTMjKR5vu2fts6K0B7fFRkf_BgNZeZvqYNgLuF92RwApjI9Hl7UO5bZQK_fN7UjNb6ZzQlDv9BDJe'
  lat: 40.083744
  level: 5
  lon: -88.310745
  name:  'Champaign Fire Department'
- ap: 3661
  img:  'http://lh3.googleusercontent.com/3nkY0B9PDqzlWJ_EKh5GnTZ8z0U6X9-2dI5dapKA5Q3F4iKrE99AJZoy6NSvh2nU1WTG2hL70276yJjJ0G8'
  lat: 40.141598
  level: 5
  lon: -88.238817
  name:  'Red Shield Center'
- ap: 3661
  img:  'http://lh3.ggpht.com/5iH9kzVECg-dsKRPYTzLzAT5eoYnDhGrcJB1N-hLShal9eEun1_Ml0oFX2c42cGNjKj8-yvsEnUn2j4C_90'
  lat: 40.11792
  level: 3
  lon: -88.249845
  name:  'Thomas R. Sandrock'
- ap: 3474
  img: http://i.imgur.com/5j1qaiT.png
  lat: 40.026078
  level: '?'
  lon: -88.783718
  name:  'edce8f4594c948e790402f25987eea45.16'
- ap: 3474
  img: http://i.imgur.com/5j1qaiT.png
  lat: 40.146331
  level: '?'
  lon: -88.960068
  name:  'e31a4818b9f94aa9ae1b32779fa54dbd.16'
- ap: 3474
  img: http://i.imgur.com/5j1qaiT.png
  lat: 41.714859
  level: '?'
  lon: -89.333239
  name:  'd029df58c91a40b888cb8a88d984ac53.16'
- ap: 3474
  img: http://i.imgur.com/5j1qaiT.png
  lat: 41.71379
  level: '?'
  lon: -89.331936
  name:  'e4ea31093fd34c1eb80ea546c0b632fd.12'
- ap: 3474
  img: http://i.imgur.com/5j1qaiT.png
  lat: 39.407259
  level: '?'
  lon: -88.793832
  name:  'd4bd15de84eb48f5983ff1ef09eb8246.12'
- ap: 3474
  img: http://i.imgur.com/5j1qaiT.png
  lat: 41.643088
  level: '?'
  lon: -89.227868
  name:  '2f1a9e500a544845abb21954a8684910.12'
- ap: 3474
  img: http://i.imgur.com/5j1qaiT.png
  lat: 41.713517
  level: '?'
  lon: -89.331409
  name:  'f96ba33c86d44ceda5a09f4e7ba2114b.16'
- ap: 3474
  img: http://i.imgur.com/5j1qaiT.png
  lat: 40.004083
  level: '?'
  lon: -89.28555
  name:  '138b3419291a4c06b90ebaafab620920.12'
- ap: 3474
  img:  'http://lh5.ggpht.com/_eMBd3V1rEFztJvtBkssKVH7eM-jiU3l9VJJ-kj6SxGZMx_7Qo6G4yjfsws8T1FhIEFwk7yvoicm8XTVERh4'
  lat: 40.084405
  level: 5
  lon: -88.297963
  name:  'Mount Sinai Temple'
- ap: 3474
  img:  'http://lh5.ggpht.com/nWEtxuKQdy0teBBue1DYmG7P3SF5-3A6zlB7GwVHBWlolAZYGq6Br78lWcF9ltFy-KeSlozXie2RmU6JfCUX'
  lat: 40.142673
  level: 4
  lon: -88.244603
  name:  'Italian Statue'
- ap: 3474
  img:  'http://lh4.ggpht.com/6iTxW6HC8WFx3nf6xEGhZryWVxW9NNijqTsEKvcBCBkmkmLZdUjaDHKReKT58cl8RUaCwDCL7pMFmBEyj3Fc'
  lat: 40.117602
  level: 4
  lon: -88.249943
  name:  'Megan Schneider Patel Honorary Plaque'
- ap: 3474
  img:  'http://lh3.ggpht.com/NuEE1yevEulYAFm9UHYKLrX8fVNrXyLgFXbQ8kTjAKuT9w-Fkj18Pop2B2wikf21LHDU24uSUkIvXbfKyvy2'
  lat: 40.11738
  level: 4
  lon: -88.250259
  name:  'Heath & Vaughn Funeral Home'
- ap: 3474
  img:  'http://lh4.ggpht.com/PmGpygZ2fBs43twk2Y44XZbgGcHWv0YimAq7Fp3vlIRRqUyLpSmDmFwcn1ucfmJarcQrAAXJjYAXAhNyxSrz'
  lat: 40.110049
  level: 5
  lon: -88.231968
  name:  'Potbelly Mural'
- ap: 3474
  img:  'http://lh6.ggpht.com/SboHv2_AWJ6ll559fK1A5a1UIAKf04oIHrgidra_E6L8gDK_mQ-DaM7hKYkv7MT6ZAA8pzgPxv_Vy-eNN7g'
  lat: 40.110608
  level: 5
  lon: -88.231957
  name:  '217 Tattoo Co.'
- ap: 3474
  img: http://i.imgur.com/5j1qaiT.png
  lat: 40.199222
  level: '?'
  lon: -88.382509
  name:  'baa170273cd749acb5338139770e8f70.16'
- ap: 3474
  img: http://i.imgur.com/5j1qaiT.png
  lat: 40.199138
  level: '?'
  lon: -88.385786
  name:  'dbf3b4e9041a4a01af2e803c4a7296c6.16'
- ap: 3474
  img: http://i.imgur.com/5j1qaiT.png
  lat: 40.197114
  level: '?'
  lon: -88.38528
  name:  'Elks Lake Pavilion'
- ap: 2836
  img:  'http://lh6.ggpht.com/Nv0tMktEkkuoGtg1QEPS1N2nTcBPg8ipu31i72XPDTGQ4HQI5oL58Ig8kofXUH_aCC2aaJ-NylWKPkC3hIBS'
  lat: 40.116218
  level: 1
  lon: -88.228757
  name:  'The Presidents'' Walk'
- ap: 2537
  img: http://i.imgur.com/5j1qaiT.png
  lat: 40.988194
  level: '?'
  lon: -89.632904
  name:  '08839fbebbdc49dc9c077db3493a0334.16'
- ap: 2537
  img: http://i.imgur.com/5j1qaiT.png
  lat: 41.09531
  level: '?'
  lon: -91.254873
  name:  '2862a97a64e445a2bf99ed9c08a444a4.12'
- ap: 2537
  img:  'http://lh4.ggpht.com/LukOnZPQdxTvyW2kKwpCrzH9PWuOtO6LZyu0jeZSt8ijAhlA0l-3oYZ_m0HbPoF316Mhgbh-SaZNKtmX82c'
  lat: 40.11814
  level: 3
  lon: -88.249887
  name:  'Silver Cloud Oakley Washburn, Jr.'
- ap: 2537
  img:  'http://lh5.ggpht.com/ftmAzbnKocZkda7k1ZC-3gMqr3UiOKXsS9qFSxN8V4C6_DEZr79lkSpPL00EmiZn50-ZPzTQZZlBLlOdL4Rd'
  lat: 40.116219
  level: 5
  lon: -88.23253
  name:  'Skyward Railway'
- ap: 2537
  img:  'http://lh5.ggpht.com/39qvivJbsTr57F8HWz9_3WhqwtI6kCbL9qeIckApwB7s51qHqm4RS4qZLPkY2GUv6A2wi2wrlNxhnIN6xGKS'
  lat: 40.113427
  level: 3
  lon: -88.229089
  name:  'Lee Williamson Memorial'
- ap: 2537
  img:  'http://lh5.ggpht.com/AmsS7GEfFX-_Icem2DP6mjQahV1jeut1CGdeqLqfpyzx0m5SqhVY4eoAohizF0xsevPQufmLRMoVj2rW7Fe8'
  lat: 40.111689
  level: 5
  lon: -88.231193
  name:  'Koi Building Art'
- ap: 2537
  img:  'http://lh4.ggpht.com/YkAjLbUQwdId1pIn7-0sv7p3fU5sUakSrInODEYBL40IL2O6a6iP0KdmXupzcZMPqJ3arf7sss9irQ7NDzzF'
  lat: 40.110882
  level: 5
  lon: -88.231138
  name:  'Boneyard Greenway'
- ap: 2537
  img:  'http://lh6.ggpht.com/iVHoGDIqnjdRupoPTpZLPtrzaCpEGW6HV4QHZ5WW185rmkrOxvl-C7uIN_gNZnCrm-djktoPC1J-9vjBZfCb1w'
  lat: 40.115718
  level: 1
  lon: -88.228521
  name:  'Red Lines Sculpture'
