- ap: 7033
  img:  'http://lh5.ggpht.com/Ezq3ovJZ5M4i8wxOtoPoHEBF_o5ur2tH3Hdb0QU-JmlxR71RxAS_K5h14xYHSyI2WOF0RuBy_hZZeslYhNNe'
  lat: 40.102329
  level: 5
  lon: -88.221381
  name:  'McKinley Fountain'
- ap: 5909
  img:  'http://lh3.googleusercontent.com/hvoLMUc9UoNVVPttxWTc8PzOWdu5MBmPETnBexH7Alyl20WGCrNa0G_j7DwvD3qbhqpTaeThFhGDV2rCtp8'
  lat: 40.107629
  level: 7
  lon: -88.224484
  name:  'Bucky Balls'
- ap: 4972
  img:  'http://lh6.ggpht.com/B4G90nKtVQc7jPOxaA1XcAIKA2UJlU15MIPZLitQmNBNAtfIc9qCPpe75YFHYaZN3YUpU6b4CNMOPsBrg1Q'
  lat: 40.100489
  level: 6
  lon: -88.218903
  name:  'Farmhouse Illinois Chapter'
- ap: 4972
  img:  'http://lh3.ggpht.com/WWhYcmz7SmE72z0SL44DRgW7htbIekUCuGiMB3k2U4oqOpii2n2vl1T7LX91Izu4VR89_uvBjK0HYR2KBM8'
  lat: 40.100276
  level: 5
  lon: -88.223103
  name:  'Taft House'
- ap: 4785
  img:  'http://lh5.ggpht.com/W2upB0MQ9l_1Z1JYjKFslTSSU-oi3b_kOidwTlG4pOCZRHWiD52CzcX2WMquuVEnMpxhtSRQOuAdLgDn8rs'
  lat: 40.096671
  level: 5
  lon: -88.217873
  name:  'Skull And Wagon Wheel'
- ap: 4598
  img:  'http://lh3.googleusercontent.com/hJZWoErzM-MuXulq4FlhlZwMbJX1Isd81GBUBVKayd57jVIVxUle3itd-1DRKo2VaNXznWr1X639fa44Etk'
  lat: 40.141919
  level: 5
  lon: -88.244611
  name:  'Marketplace Mall Carousel'
- ap: 4411
  img:  'http://lh3.ggpht.com/07XrBN-er6Ecleor0n9RJ4DfGO6B2yn-ZxjI-Uy8Ba46Jtb6cXNVmATPiPiGyk-1jZ4wxa7-EeIWbWUqArCG'
  lat: 40.142554
  level: 5
  lon: -88.243468
  name:  'Dog Heart'
- ap: 3661
  img: http://i.imgur.com/5j1qaiT.png
  lat: 40.106513
  level: '?'
  lon: -88.5585
  name:  'Lodge Christian Church'
- ap: 3661
  img: http://i.imgur.com/5j1qaiT.png
  lat: 40.312242
  level: '?'
  lon: -88.201368
  name:  '2012 Employee Dedication Bench'
- ap: 3661
  img:  'http://lh6.ggpht.com/duOeXcOSQLWosdD0JJXg3pWWQp4t5sL0x9qDHoTIBFNOzEW0t53Lt2cnwgV2E_Su0l1ajIQxPtVbbK_sDRaS'
  lat: 40.141775
  level: 5
  lon: -88.242671
  name:  'Marketplace Mall Fountain'
- ap: 3661
  img:  'http://lh3.ggpht.com/CwgYIhVaivHHg_U6yqu5KSGhSh9ipRBDu7G192KiQfrnXc7C8uh7UOh6MP91vhZJ3LZdiTaFwpvFukvIaj6J'
  lat: 40.117445
  level: 1
  lon: -88.243409
  name:  'From Swords to Plowshares'
- ap: 3661
  img:  'http://lh4.ggpht.com/wbrbzDCo3C4qFJyHTWOST5o8B7kwZSWePUWOboIlYrdvxjrhWLqVQ1MqUF5-Hy4nt26x_oHQq9f8EbfdEjVK'
  lat: 40.117382
  level: 1
  lon: -88.243748
  name:  'Days of Venus'
- ap: 3661
  img:  'http://lh3.googleusercontent.com/L3lfMswaooWEA3nJNFGES354rtENCzxYkoWuVLXEXaTiXbqTNnsl34TRd8tbMwnGQHkAnr37-HLMutIe3_Uz'
  lat: 40.117254
  level: 1
  lon: -88.247074
  name:  'Westside Park Double Dutch-A Jump For Joy'
- ap: 3661
  img:  'http://lh5.ggpht.com/77v6DfPMOKjAUzTfAuqZzYtMmpFMJV7lPr7FgQb_Fa46w1xmepHb0h-0CpG5WZy1b9vd5_DZ0uLxxZw9-DhJ'
  lat: 40.117163
  level: 1
  lon: -88.246602
  name:  'Garden for the Gardener Plaque'
- ap: 3661
  img:  'http://lh5.ggpht.com/gkIcCbfmQWyJ7s9ryhzfOOn1K-oa8huqzZN80X2psVjx_6Iur5egjGncbUIAMLiAJAf9qG1Ac8lX2MomHYY'
  lat: 40.108185
  level: 5
  lon: -88.225203
  name:  'Statue at Medical Sciences'
- ap: 3661
  img:  'http://lh4.ggpht.com/0j8eeTKJgjnYhHpf4qH_70CZHLbujC5v-XP_ndcqh1xIR-5V2K_CGdjIe1ZfMbwvSyISxxYKoZynw1DaQcj8'
  lat: 40.105874
  level: 6
  lon: -88.230562
  name:  'St. John''s Rectory'
- ap: 3474
  img: http://i.imgur.com/5j1qaiT.png
  lat: 39.988879
  level: '?'
  lon: -88.787592
  name:  '1dd816db5e0148258468312abdd24674.16'
- ap: 3474
  img: http://i.imgur.com/5j1qaiT.png
  lat: 39.927387
  level: '?'
  lon: -88.827943
  name:  '3a93d428514c450199fb8ecd47e5b43b.16'
- ap: 3474
  img: http://i.imgur.com/5j1qaiT.png
  lat: 40.012126
  level: '?'
  lon: -88.725116
  name:  'dc665dcfd2fb45bd9e43f361d8096357.16'
- ap: 3474
  img: http://i.imgur.com/5j1qaiT.png
  lat: 40.275273
  level: '?'
  lon: -88.353476
  name:  '28272aaee3234a039246a4282f96c916.16'
- ap: 3474
  img:  'http://lh5.ggpht.com/nWEtxuKQdy0teBBue1DYmG7P3SF5-3A6zlB7GwVHBWlolAZYGq6Br78lWcF9ltFy-KeSlozXie2RmU6JfCUX'
  lat: 40.142673
  level: 5
  lon: -88.244603
  name:  'Italian Statue'
- ap: 3474
  img:  'http://lh5.ggpht.com/6qIQAtIoPbAVQ1O3BoOnGg6gtTa9fd0JIkxt6P1kmSimVswLaPpCRaLEudsNcMfP_kKb4SCE1By1o3lhYevmIA'
  lat: 40.1172
  level: 1
  lon: -88.243745
  name:  'Circle of Friends'
- ap: 3474
  img:  'http://lh3.ggpht.com/8Nxm7sw1mIfTkxKb-GsE_e5DuPgup8SmX1SJRLGZmvopdsQsPx8E9eDzuISKXBjwveamwn6H26EmIJZzVwkr'
  lat: 40.117449
  level: 1
  lon: -88.246902
  name:  'Champaign Park District Flower Island'
- ap: 2911
  img:  'http://lh3.googleusercontent.com/tWUxy7KQ-q_qBBIgLzTjjezrBpWPSJ_z3FWnvbB8Y5wIiYZW1I5ioL0Tzq60VyalCaIwOk4UI3agM8tFaykY'
  lat: 40.117427
  level: 1
  lon: -88.243235
  name:  'Cowboy Monkey'
- ap: 2724
  img: http://i.imgur.com/5j1qaiT.png
  lat: 39.680223
  level: '?'
  lon: -88.288274
  name:  'f0ae5f8377c046e2b413e075d00bedcb.16'
- ap: 2724
  img:  'http://lh4.ggpht.com/-MJc8fCVxpxV7prlhkP3sXPWZ7jsr8Behc29zUJqdz_V57jSg7SzyMUUv7B9Frzu36mJhM2PQkr_LJk-zyM'
  lat: 40.117729
  level: 1
  lon: -88.243645
  name:  'Watson''s'
- ap: 2724
  img:  'http://lh6.ggpht.com/OWQz-aJYDevguvgr_HtCYk7ccylYLM1bFU42TK9OJxuZWDA87pAsmcMf1amsxh5EagspcAj7Gf4_ZFeTJSf2'
  lat: 40.117754
  level: 1
  lon: -88.241676
  name:  'Jos. Kuhn and Co. Building'
- ap: 2724
  img:  'http://lh3.ggpht.com/GGBe9Hug3fUbRCRAMs_kO1fg2HHQ95ZDBdW0S2tAHakvhQbWxlttanjhGNJJcyVRruUlL7zjQnPGI2bu8Wc4'
  lat: 40.117905
  level: 1
  lon: -88.242149
  name:  'Read All About It'
- ap: 2537
  img: http://i.imgur.com/5j1qaiT.png
  lat: 39.984616
  level: '?'
  lon: -88.263266
  name:  '6fc2b246c1ea47d0ba7c8aaacc073f38.12'
- ap: 2537
  img: http://i.imgur.com/5j1qaiT.png
  lat: 41.796468
  level: '?'
  lon: -87.575566
  name:  '4955fb3ad66a4c3b9558ad4aae5e14b6.16'
- ap: 2537
  img: http://i.imgur.com/5j1qaiT.png
  lat: 42.781211
  level: '?'
  lon: -87.758414
  name:  '5548d5f0313047378de4a346d86327df.12'
- ap: 2537
  img: http://i.imgur.com/5j1qaiT.png
  lat: 40.878365
  level: '?'
  lon: -88.777245
  name:  'a58a2b0d69594c249e6fa1e2f1d103b1.12'
- ap: 2537
  img:  'http://lh3.ggpht.com/STEfnDDHEff3fffoWiEjvWm4SETgCRyRIvPgf92kzrsxo3sdh1SNg1AmGiFqvspDfSx0OXri-AXVfOZRWRMe'
  lat: 40.13156
  level: 6
  lon: -88.239027
  name:  'Human Kinetics Park'
- ap: 2462
  img:  'http://lh3.ggpht.com/F_QKFluz0Gh6sC9FPGcL_wT-n-zRGyp0qQ9mnghB2L5Aer_c6Qm1q7KeGoCaGwDoJax_R_sK1atr3F0hP4Ap3w'
  lat: 40.136807
  level: 5
  lon: -88.257174
  name:  'Champaign Fire Department Mural'
- ap: 2537
  img:  'http://lh6.ggpht.com/Jz3ahY5LQ13wKWLY9SEvexiinJa3GeO1eB_FynplikRpa77swLST6cUAJjPpqKDSq2KU4Dcyui-QBstz_Z3k'
  lat: 40.094624
  level: 4
  lon: -88.282953
  name:  'Greenbelt 2'
- ap: 2537
  img:  'http://lh6.ggpht.com/p2F3xw4xL4UdiMM9aSy628ISSglrvjPexpF3j340tMAP9MX07yh_sJv7kHVkeud8lyFf2ZwDohw3zsRS2PSd'
  lat: 40.093914
  level: 4
  lon: -88.281531
  name:  'Terry M. Warmbier Memorial'
- ap: 2537
  img: http://i.imgur.com/5j1qaiT.png
  lat: 40.152342
  level: '?'
  lon: -88.252345
  name:  'Toalson Park Basketball Hoop'
- ap: 2537
  img: http://i.imgur.com/5j1qaiT.png
  lat: 40.152192
  level: '?'
  lon: -88.252279
  name:  'Toalson Park South Entrance'
- ap: 2537
  img:  'http://lh4.ggpht.com/7jfpHo9VtrONulGtzUfsP3lI3AsKBnUxCQaLU9xAMpVCQbWD24db4z9Otn0Sfz_OnEXSbdwKUGm3MZBV6QZrhQ'
  lat: 40.117194
  level: 1
  lon: -88.247472
  name:  'Rebecca Mabry Memorial Tree'
- ap: 2537
  img:  'http://lh3.googleusercontent.com/M1BXbCtfOfi1ipACxyQaE2jCbcLCxQTsJVIUli8GgprQaS2WmnVuSsqMoFaWub8LM6VF7KK4wSH9SSGdrXM'
  lat: 40.117287
  level: 1
  lon: -88.242984
  name:  'Mural for the Blind Pig Brewery'
- ap: 2537
  img:  'http://lh6.ggpht.com/Jj5dr0C8flwov23nPbKRDVme7HOE0xZvNC6JkRscLlNqRr6uxkxBExdu-rQUdt9kZtd9e5dvHsv6Vs1Hdtd9'
  lat: 40.117186
  level: 1
  lon: -88.241556
  name:  'Champaign Limestone Sidewalk'
- ap: 2312
  img:  'http://lh4.ggpht.com/nWSZEVnpEj78GBs58tujBturUcAqKjsgYU_9v_qXRS_K_ROKLNgBwnqKopJse169VJqqWtn6oo3h_qABlaw'
  lat: 40.117571
  level: 1
  lon: -88.240851
  name:  'The Accord'
- ap: 2537
  img:  'http://lh3.ggpht.com/eIZLSi2oHXQIznnki3LOUvKrTTcJ6a2d9xmuW9B9IjzRMAyaWG19Qw6gTUGWsC5V7R3LlRVD-ySQPp_6uK_aZw'
  lat: 40.117519
  level: 2
  lon: -88.240577
  name:  'Spiral Flight'
- ap: 2537
  img:  'http://lh4.ggpht.com/q2L_InMJy4JZq79dX9LLf9XauoaXGOLl7SWvVyD9F_jIgyqpn7SsqHfY9EMYq1SLteTpj0cQDZN4f9x0IuvV5w'
  lat: 40.107273
  level: 6
  lon: -88.222942
  name:  'Tryon Festival Theater'
- ap: 2537
  img:  'http://lh5.ggpht.com/o-kaBPu6kwiDnL2T5S5uQNOaquEtumPFT9hq4jX9uRcqpMRXMO4B80QO3gskaj677koefR0kBxjAnWHs6uwL'
  lat: 40.108675
  level: 6
  lon: -88.221303
  name:  'Levis Faculty Center'
- ap: 2537
  img:  'http://lh4.ggpht.com/m6NugtNnF8mim1fUMFDjmScu99lS5PjmUlCT9kKOOsIMqCH5uu5MRPhMusl6BPPpZ7Z3hnYTQZALmqSpLHxs'
  lat: 40.103652
  level: 5
  lon: -88.230025
  name:  'Pillars at Wohlers Hall'
