- ap: 12655
  img:  'http://lh3.ggpht.com/u-v3itkeM0VuM3kSQsa0wO5TAPiR3fou2d-_1ukh5ZZQlHVDJyJ6vyb3Q3ONlRDfvaHf2Nw-aWwerNtqz3rH'
  lat: 40.106197
  level: 4
  lon: -88.228614
  name:  '1913 Pillars'
- ap: 12283
  img:  'http://lh5.ggpht.com/k_9eqZVvGcr3ZNyeeSNDM1-Y7od35KmnQQptB9usrdpTdpGW2c_5-12rYy9hGazdx7qhlYrEXxaJ_ZIVFywlcA'
  lat: 40.106706
  level: 6
  lon: -88.232116
  name:  'Illini Tower'
- ap: 11718
  img:  'http://lh5.ggpht.com/Lup2et0i5h8oHqtBffIdoyX5uclC2MBn9ZnnKnYPr4RIFSflf9bi78zBHK7QqycA0qgEev9qOk0zU-1o1hg'
  lat: 40.108451
  level: 6
  lon: -88.228733
  name:  'The Centennial Colophon'
- ap: 9657
  img:  'http://lh5.ggpht.com/3RfiPeOzF67ubNX-vkwUJ6-EYld6BKuoBernq0_9kOjlIsSPr3saR9FIQzN7uiw7ouF0CpNflOnL0mUj9zbqdQ'
  lat: 40.109452
  level: 7
  lon: -88.229031
  name:  'Illini Hall'
- ap: 8533
  img:  'http://lh6.ggpht.com/RW34ntixvJkg7fD71TPYo_4KIsBzA0-a-6yXO0jKPbpGxX5gIGC7kBI-pXEF9OHhuolcAGW2fxyK3Pt42Iev'
  lat: 40.110489
  level: 6
  lon: -88.227412
  name:  'Bus Stop - Illini Union, Westbound'
- ap: 8159
  img:  'http://lh5.ggpht.com/tfAfnmo6mSMc6U0P533NMFJRGwn6lasmx-MLR2JJg1QOizMKkghFU8E7hb2zgYgdQEbgnCJUlvZIMdrrJe4'
  lat: 40.100822
  level: 8
  lon: -88.25193
  name:  'Seeds of Kindness Bench'
- ap: 7972
  img:  'http://lh5.ggpht.com/-UWK84I78Sftf7yg-E2pg6xEAWTvyiThgJBJlxbqOZPYKNmzQ8uGgEEMetzplrG1HpXG5kQqNItUeXKxOHDsGA'
  lat: 40.100286
  level: 8
  lon: -88.251747
  name:  'Tennis Anyone'
- ap: 7972
  img:  'http://lh6.ggpht.com/5CDidk0pqfUtSW_Yqouuf3diX8drdMu9DoT728QpSz8q6A-WxNhT0yLcgM_7gGpyIAeXrHiTkIzzaVJFgnN9WA'
  lat: 40.099852
  level: 8
  lon: -88.251947
  name:  'Our Friend Tim Palmer'
- ap: 7783
  img:  'http://lh4.ggpht.com/YMDDyyJpIhe7xeYVGH048CFQDr7lX1SIPXzk4kXWr6zVgpUv6D1YGTLKwyg3DrhDoCuv-knBgF2gKZTylVRQ'
  lat: 40.132912
  level: 5
  lon: -88.314568
  name:  'Sunset Ridge Park'
- ap: 7409
  img:  'http://lh3.ggpht.com/rUgM7jkTqL0VHxvsSW0yWuNJF5UrU62ITflghfn4PfKjn6L4WGz0ALkv98fc_q9dmK9SSpU1PXIawGvcRwE'
  lat: 40.098246
  level: 8
  lon: -88.251974
  name:  'Hessel Park'
- ap: 7409
  img:  'http://lh5.ggpht.com/1fPvqpqXG5PDCkmegoWb9Tv9N5_MZh9XjmZpbyNEs5yPDsCscbrPB1cO_Pf8GT35HYrTF01FZ6s5VPIpjJ_20A'
  lat: 40.107098
  level: 6
  lon: -88.228984
  name:  'Saint Andrew''s Church'
- ap: 7409
  img:  'http://lh4.ggpht.com/H1kV6JSczzSbcCblAHg5ZOgITW1mBAz0_oLbqbzxBlijGTBn7TP6KwA6UI0AAGrCN4VF0DAF79Vcj6_2R4dsB8LRTq6tud6v'
  lat: 40.107753
  level: 6
  lon: -88.228913
  name:  'Zipcar-Wright Street & Daniel Street'
- ap: 7222
  img:  'http://lh5.ggpht.com/n8MFM2pb-tE5i9EziJdygPPUK8VqEZ4BHGQaywz4lwe3WjwdgO0ohBCPZmiMoL00r3mVPmYnbCunJDeFbyk'
  lat: 40.118593
  level: 5
  lon: -88.240416
  name:  'Champaign Rail Water Tower'
- ap: 7222
  img:  'http://lh4.ggpht.com/4LxsGZZMk3DnpJXUvqzrL54CHSP5TDXjUnDJyHmCCTtCJIjGEI7kxT9g4uxfSPh0X6yGLgQo1jfqbu7B8VEr'
  lat: 40.099084
  level: 8
  lon: -88.251826
  name:  'Irina P. Stewart Memorial Plaque'
- ap: 7222
  img:  'http://lh5.ggpht.com/ENeQgqydWbi9-Oyf7vizunoRqJdsZV4o0RA_956wjGI8hqpTCHBPyWMpbTrrkwYpj5tgzDRvevGmvH4eFRU'
  lat: 40.099593
  level: 8
  lon: -88.251724
  name:  'Blessings from Devon Elaine Cattell'
- ap: 7035
  img:  'http://lh3.ggpht.com/G1CvGhpethi5UmprDWxZN9rTblHa3anSsQz1UPgJtkREkfN7lDFoxFObst0609Cg5mofuZxJKr0ddNKhY4VL'
  lat: 40.098464
  level: 8
  lon: -88.251426
  name:  'Ruth Haasis Memorial'
- ap: 7035
  img:  'http://lh3.ggpht.com/lzCSS0_tjwUV7JQ2fgLI0e05IrzPxlVUs-6aEPOwUv67IanQJSTi71gkw0SGm8asmoE_r3Xoh048Fd9xRpE'
  lat: 40.099169
  level: 7
  lon: -88.251419
  name:  'Lyman Larson Memorial'
- ap: 7035
  img:  'http://lh6.ggpht.com/yjfa0jJLjsfLRf9Zn9iafMp3MuIhgCi0WiOCF8GqTGiGvzEnsPGrFa0H1n-uzWhVehLbt44ShthsA32VzHd5iQ'
  lat: 40.099737
  level: 7
  lon: -88.251157
  name:  'Tyler Van Atkins Memorial'
- ap: 7035
  img:  'http://lh6.ggpht.com/S7Utf4_59vQkAP5JhC3mdbzVLKBTt-0zoJ2UjfxUnN10VBbixO-_VwvssWd1LbFSx_yafaijd_U0wTGo870'
  lat: 40.100941
  level: 7
  lon: -88.251314
  name:  'Gabriel Patrick Maxeiner Memorial Plaque'
- ap: 7035
  img:  'http://lh6.ggpht.com/j712bbvDknzGlAU87nZA1Bx45Ng-0MGA9Uvuv-3WzIKA3W51mXOZpJ-TzVSbuU3uE2AsJ5wcO7_B6WDpdRr0'
  lat: 40.110684
  level: 7
  lon: -88.226053
  name:  'BCS Superconductivity Theory Plaque'
- ap: 6472
  img:  'http://lh3.ggpht.com/g1H1SJintXK5Zb7ng6DN7wix1q5otnzMK5JCJDnecwuIiohJmhXLJs1XzItxaTSYEuPPOqd4x-dGqd0WK5YU'
  lat: 40.13349
  level: 5
  lon: -88.313072
  name:  'Sunset Skate Park'
- ap: 6472
  img:  'http://lh4.ggpht.com/RF7EbCh1YRbFHfis_PEc88NF1v4Ndhj-Rm7rrlY7F8s-Mrv1EMEFnajFbYiNffZ_3kMNL80Zv-_jtaMYMtLA'
  lat: 40.110655
  level: 6
  lon: -88.22725
  name:  'Gothic Brass'
- ap: 6097
  img:  'http://lh5.ggpht.com/fHd4PN9y6K8vITWYf02HBqZwj7gTOYz9XqUVbI3_bHVW0KUAbFgY_jdyXgwKOFRz8VeKMD2BkELNjIedp5Le'
  lat: 40.108821
  level: 2
  lon: -88.228411
  name:  'John Milton Gregory''s Grave'
- ap: 6285
  img:  'http://lh5.ggpht.com/C6wRSaEWO1NYGY5luyYZKHG3Z3aib4aflaPdV7B9G6N6adE890g3QuPRSvCUhsdFHqjoVUjo27mfz9WsjXyuhQ'
  lat: 40.100521
  level: 7
  lon: -88.250864
  name:  'Gabriel Patrick Maxeiner Memorial'
- ap: 6285
  img:  'http://lh5.ggpht.com/4DJAFPeZ_w65Km7VDnsbOqouQaeBuPuxA0KHPQToT_B6o1hBxzdu3kn89UhHgv22Ygj52Fx9QqcbzOytuw'
  lat: 40.100078
  level: 7
  lon: -88.250683
  name:  'Brian Clark Memorial Plaque'
- ap: 6285
  img:  'http://lh4.ggpht.com/PHV-1ZpFzCAl_ViCKwBY_x2pIDbVyaT7wJH1sTvFJCxrSdRrO1x7NaXq9OdRGwz_Mls4iwk6wuGHMBArfV54'
  lat: 40.098688
  level: 8
  lon: -88.25063
  name:  '"New Holland Yellow Dinosaurs" at Hessel Park'
- ap: 6098
  img:  'http://lh3.ggpht.com/xSCQSCRT6pHyQi9LDI3OamMdZnhLQ06OSlHRHnJC0FkDo93VgOcr3gyAV0aPAKagwq9V5iViSSCgIr6_fWCB'
  lat: 40.134441
  level: 5
  lon: -88.314067
  name:  'Seasons Within the Wetland Environmental Sign'
- ap: 6098
  img:  'http://lh5.ggpht.com/DDClbLn6LNW1_Kr2O24_eIFuz6BfPSolc8s9i2SV9KvgoE8D_n6SY1mOzPFAUoLMe9HHKhD-azeRgoyYPNcaPw'
  lat: 40.115917
  level: 5
  lon: -88.243438
  name:  'Shay Memorial Plaque'
- ap: 6098
  img:  'http://lh6.ggpht.com/o-Si4_DCq7Qwa_fFJhaTZ0-zCScbl7wDS4PHIFGMbnP9TuPVe9ZauXV3lAreyYvxN7B7n8mlrOR2SsPzXmU'
  lat: 40.115703
  level: 5
  lon: -88.239504
  name:  'Chester Street Bar'
- ap: 6098
  img:  'http://lh4.ggpht.com/B_I1b0Jy3vW41RX8jjCNPP68AULplU0Pf8ddolyKmpEWCfBVShQkmjF1HfTPzDjmBBQGgOs0jHW-rUR0mv8BkA'
  lat: 40.098789
  level: 8
  lon: -88.251685
  name:  'Curtis William McKinney Memorial'
- ap: 6098
  img:  'http://lh3.ggpht.com/8FqlniFErK7cq59awiT84u8KyV4FIRd5krZzfYa58zJToFps7whdBnriPqvO_kFKeLUE3SWbJhCOPuvUQzaGFA'
  lat: 40.100691
  level: 7
  lon: -88.251337
  name:  'In Loving Memory of Zeus'
- ap: 6098
  img:  'http://lh3.ggpht.com/VrbXGwlUosNLEkVdshWUFoVa3KtlJQoEU4yLYygvftYbPCmxo644Uvar_v8Kb9RS53hB0tXgvV44GotrxZyu'
  lat: 40.098592
  level: 8
  lon: -88.251676
  name:  'Ruth and Fred Steigmann Plaque'
- ap: 6098
  img:  'http://lh4.ggpht.com/vKgqIecJshMQxrhO-ZhMjcIyARuJdyU63wKfzAG0wouZex6LVzO46Qi5zM1N3Jx8xyantDFk9sQGsSEBhb-y'
  lat: 40.101327
  level: 7
  lon: -88.251412
  name:  'Zeus Memorial'
- ap: 5722
  img:  'http://lh4.ggpht.com/A15Qc2ImqJFORKlDItFStr3pkJ1pX5dRyG8VO6RoziKIqMOMMTQdJa-fUInsxL4o7Yxg1XNHfexBZuNAyLG0yw'
  lat: 40.132021
  level: 5
  lon: -88.31285
  name:  'Sunset Ridge Park Dedication'
- ap: 5722
  img:  'http://lh3.googleusercontent.com/hvoLMUc9UoNVVPttxWTc8PzOWdu5MBmPETnBexH7Alyl20WGCrNa0G_j7DwvD3qbhqpTaeThFhGDV2rCtp8'
  lat: 40.107629
  level: 6
  lon: -88.224484
  name:  'Bucky Balls'
- ap: 5535
  img:  'http://lh5.ggpht.com/6W_b3aoHNnxViA4TkycmE5hhV5q_VHfypLNlgG4sAyw2eJ5Meyzi2-vwTA8miyKA5pZApxbfpAa7uc0zlCM'
  lat: 40.134758
  level: 5
  lon: -88.313172
  name:  'Sunset Ridge Prairie '
- ap: 5535
  img:  'http://lh5.ggpht.com/ek0AuIkZd5CWKmIdjFjq5gOvptOzC8VJUnyatNG8ZyUoT8-mvkd4seW8Gpbl4kkgiatIbr57h5kK_5z6NSGD'
  lat: 40.131581
  level: 5
  lon: -88.312816
  name:  'Sunset Ridge Park'
- ap: 5535
  img:  'http://lh3.ggpht.com/2LmoiHH6s6FrGUTRiNNoF0WIY5lVvkXP3CTOxQjNjG2_jrgsDmaxyIZxewF_wa8mFgO41Avi733oq5-CVio'
  lat: 40.10631
  level: 5
  lon: -88.228952
  name:  'Pi Beta Phi Sorority'
- ap: 5535
  img:  'http://lh5.ggpht.com/4eagHlnlpVbtFi_knZN73PIs2A--Ipj6SOlkQADePlfnzfOnJn-cAv0IoNNv4qR8WrbUFImUKHBknyaoAewO'
  lat: 40.111383
  level: 6
  lon: -88.225675
  name:  'Only Rain Down The Drain'
- ap: 5535
  img:  'http://lh6.ggpht.com/1El0oK6CWDh7rAQeFmPEW_dA252pdq7piTtjtuQCkZvwRa689NLjEafLqQ35TI5qCW3Lmhja9PLQqKxFs9Ha'
  lat: 40.110627
  level: 5
  lon: -88.227584
  name:  'Tau Beta Pi Statue'
- ap: 5535
  img:  'http://lh6.ggpht.com/pYay9oPZwUNKfLdWJ1JMI5tA9-Gd0vsBddLTz7fXN6wUW7F23hLMWRwFZNnXyomRkc2f9sqCGMxNWuYHPFZx'
  lat: 40.109142
  level: 6
  lon: -88.228748
  name:  'Kappa Alpha Psi Plaque'
- ap: 5460
  img:  'http://lh3.ggpht.com/fxsMa6MK6sWcY8fyTRPmRixomHagKag2YrMZjovxjujmavVawLdmU0Mi0HpNq5kH7UUoXfELEoBOFTkzeRwV2hp9PknjajWlvhX6jYIyUSrrH76k'
  lat: 40.10952
  level: 4
  lon: -88.228288
  name:  'Altgeld Hall'
- ap: 5348
  img:  'http://lh5.ggpht.com/HhVreJipNvxPRVFpmsh2BPo9PcpPO2Q2l3jCpDjIKgfKGycoTNPXR4DKiYccBXW4X-4dJf_vV0ESsWAWHcChsg'
  lat: 40.100936
  level: 7
  lon: -88.250855
  name:  'Donald F. Bresnan Memorial'
- ap: 5161
  img:  'http://lh3.ggpht.com/-MRGQEVV5mNMzB4sb8JAsgVC56kTzYaFEf3mpRsfXAiO4KIrLw3LGFkt7Au97yDwY-AUSfghHcri53Zpmn-Z4Q'
  lat: 40.11621
  level: 5
  lon: -88.242535
  name:  'Inman Building Historic Plaque'
- ap: 4972
  img:  'http://lh3.ggpht.com/LR76HrJqriPFUoc2XSs7jb2SotnStZv20kI7rgUx8B5HqhmetnTW4MA1tCp1ws4g5gw0sf9g7M3Lwq4VwfpD'
  lat: 40.111687
  level: 7
  lon: -88.225353
  name:  'Transportation Building - University Of Illinois'
- ap: 4785
  img:  'http://lh5.ggpht.com/jQxBvX2jWXZCQP5ap9HmKaDDgG40pdH5nPpBNcYppZdxce6GWdxMRTYyqKrLxnk_TsmMAd7G6gRwJ6YI7S-v'
  lat: 40.107574
  level: 4
  lon: -88.227843
  name:  'Iconic Pillars'
- ap: 4785
  img:  'http://lh6.ggpht.com/UMaVDs4JUJ1obZF_7bkt3YUS02KJCdBmvRnU0gXqrvHeFd-6jyR_VGDBUgiXtVFoAj95F7sZrvFJ1l9fe4S3sBUkt__qi77W2_jm8KR0IU_iwOYcIg'
  lat: 40.080791
  level: 4
  lon: -88.204927
  name:  '"Is It Too Late" @ Meadowbrook'
- ap: 4598
  img:  'http://lh6.ggpht.com/ocpQF23CdY7CXPOYMbPL3wLLV7Rc0VayvSyooA07il2lG0oiiQDbDCnsKqO1ysXJAVlzGikCKS-kVOLb6rog'
  lat: 40.135079
  level: 5
  lon: -88.314559
  name:  'Sunset Ridge Decorative Gate'
- ap: 4598
  img:  'http://lh5.ggpht.com/TwKxvDv1ImbH5RTs7GHqqK_rPohVtqtgToH7YuDkkwa5BRFiMEcY1vWcFrJLkhaXW6cd2YVL0_Vro2JaA3K1'
  lat: 40.131575
  level: 5
  lon: -88.314062
  name:  'Mark L. Rambow Memorial'
- ap: 4598
  img:  'http://lh6.ggpht.com/BsXdEO7HLxNLSdztPo_4GNNcbxZCxswiDT4pmmcfDQ8YO2SFVW-VnwyEZBvkuhf1rxKAtoKNLvV4rDJ-YVCYUK1qiX-dId_R8P-JskyFYAK9ruM-'
  lat: 40.110234
  level: 8
  lon: -88.224055
  name:  'The Etc'
- ap: 4598
  img:  'http://lh4.ggpht.com/OFVPvdgB3GVpaQknHdnt2okgP3xcQksAH3wvOGYVuP85MMlxo3bQ2SRpBb0hzNfjQoC_5LlRqaE6jLB-h9Gr'
  lat: 40.108092
  level: 3
  lon: -88.234589
  name:  'Koinonia Plaque'
- ap: 4598
  img:  'http://lh3.ggpht.com/A87H2Ev-nSq_HCpnUCxDLdRG04MKhj9Uap_0Ii4kdUx_db5SwcKhAAOey5ls43XiDLYaw7uYymdNMcsAXfNo'
  lat: 40.106182
  level: 6
  lon: -88.235521
  name:  'Evans Scholars'
- ap: 4598
  img:  'http://lh5.ggpht.com/tVkUyAJPzoQiIilJCSPpwPCqNYSC70DZydpa07fwbCQM-10lVGa41u-oM_7ZXsORl1gYlycrI78KlMpubKMg'
  lat: 40.079691
  level: 4
  lon: -88.208765
  name:  'Bruno Schielzeth Memorial'
- ap: 4411
  img:  'http://lh6.ggpht.com/qSCp5fQMlyCQ-GOAgiSFy5gaHJei705Pa3eOlJiYO5wGjZTYtjA8q7QWWfAWcLKjxZSaFiMfXOPR8SO7rWU'
  lat: 40.099353
  level: 8
  lon: -88.251876
  name:  'Raymond B. Cattell Memorial'
- ap: 4411
  img:  'http://lh5.ggpht.com/BK5TjuMzuJgDVPz4C8HRjfZKeaoISnPJ-H7VaYeMNUYmxvvUY7RzIIlR13FjW9HHF_i5-znqs3O6nMxKPfcj'
  lat: 40.102188
  level: 5
  lon: -88.251507
  name:  'Little Free Library Charter 5753'
- ap: 4411
  img:  'http://lh4.ggpht.com/mlUN5QXAR7rKFvUg7yhxcae3udkR7zCJVaWt5sq_YA47piV6tRi42RNN9fEtT_FafT7lhqg26WM1VETbz5E'
  lat: 40.098239
  level: 5
  lon: -88.25376
  name:  'Hessel Park Christian Reformed Church'
- ap: 4411
  img:  'http://lh5.ggpht.com/uP38yDCg4dPRI1F0r0ALGArEc8Q9eoRuaxkfxZTafZZr9tMcbLUZek1hZRbLUxHJVGPcLSf_JKbotbTBeR7nfA'
  lat: 40.107226
  level: 4
  lon: -88.22858
  name:  'Class of 1897 Tree'
- ap: 4411
  img:  'http://lh6.ggpht.com/rDThTbD9GU2Wvv8ZnUbLlUM5N0lb2OAYi3qDkxwfYALO2O0t_O9u19aQ4EQbxGlRScGdQ94AjAeqlc2WpNGZ'
  lat: 40.107379
  level: 4
  lon: -88.228355
  name:  'Carolyn Smith Ainsworth Memorial'
- ap: 4411
  img:  'http://lh4.ggpht.com/zAxC11GCLRrj5wlF-U0mbjaisXjS5ukHSkGR5sVCfSWYKSlV2kxvtrD04m3n_XzT59XQ1xyf4ctzShUNem0'
  lat: 40.080381
  level: 6
  lon: -88.209174
  name:  'Meadowbrook Park'
- ap: 4035
  img:  'http://lh3.googleusercontent.com/zmBaxEMhC7WvQDOei5LjXnSrM2p368YlSMZPtCtSY0t6bGsHjg5Bc91PGGsJ0oGn_hifKeBSMB_3BKH3hbwP'
  lat: 40.105567
  level: 2
  lon: -88.227662
  name:  'Freedom of the Press Plaque'
- ap: 3848
  img:  'http://lh6.ggpht.com/cYQLNtCsiRGXd_y7-ZdI4jGlNRpC4oiy2Z7UT7etDH3FBvBRQDtOW_rY0NBvKLJMnTw_EXH75NDGMcI6UkeV'
  lat: 40.105618
  level: 2
  lon: -88.229005
  name:  'The Chapel of St. John the Divine'
- ap: 3661
  img:  'http://lh3.ggpht.com/qkbAVT5J9ZNQHzzLNSiw9MN3XrDX3B8bj-xJzu8jKrFdykdTZdsEIlzOKXKVfJ5dZNrhJmG8VHZNeF5pR1G6'
  lat: 40.119977
  level: 7
  lon: -88.242247
  name:  'Seed House Historic'
- ap: 3661
  img:  'http://lh3.ggpht.com/AD9d7JPmLdYRdpxESO9iORy1GRXAcN1jzn8dDNvm6FO7cIHVsjwAKI8LmbW4dico1Xe9jzJfsZZriP0CxXA46w'
  lat: 40.104084
  level: 3
  lon: -88.241616
  name:  'Honorary Memorial Steam Ventilation Pipe'
- ap: 3661
  img:  'http://lh6.ggpht.com/8xR11KYEi2D1gcNqy1KNK_EGDGo3JbHOYXjXP_zTNk4AIqUwf0pZrSSkt9bx8xccXhiMSzvt-qFnVq-CGEOxbw'
  lat: 40.055189
  level: 5
  lon: -88.256113
  name:  'Event Notice Board'
- ap: 3661
  img:  'http://lh6.ggpht.com/MeSks8IMR4x1cQryIeOTxjeTbXR0nuzQte9cJHoowbqGCGdHui5UW-DfMZPP6koGusZereqftOpsEs1p-3VwJA'
  lat: 40.054626
  level: 5
  lon: -88.256104
  name:  'John L. Jones Park'
- ap: 3661
  img:  'http://lh6.ggpht.com/T15jgBwdGgKfY5ZEkmL6_eEeGWALRclzodBAIpqOXMAO4sP9g1Mt8CwDQCh5tDr_sZan-95c8YRI6F-W63_-'
  lat: 40.105692
  level: 2
  lon: -88.227097
  name:  'A Son of Deucalion'
- ap: 3661
  img:  'http://lh4.ggpht.com/d3UqrcK5M1wuOe19dIaBUOkrXF4C9IxhOWfxqzM4zIHkGsUIRb1mckNapOMRkkCtVIe0rzJumb1OVDVc1_Y'
  lat: 40.108055
  level: 3
  lon: -88.233688
  name:  'University Baptist Church'
- ap: 3661
  img:  'http://lh6.ggpht.com/pxaCt7clhIXc1RVGMMJZsmnbEWNWjFYJiUrQMev_SeOmXBothvOzmfnirQ5_W8CMa7hpigqydQhKMa4XFCAi'
  lat: 40.108173
  level: 2
  lon: -88.230209
  name:  'Mural on South Sixth Street'
- ap: 3661
  img:  'http://www.panoramio.com/photos/small/52867363.jpg'
  lat: 40.101676
  level: 3
  lon: -88.231098
  name:  'Sculpture, Krannert Art Museum'
- ap: 3661
  img:  'http://lh4.ggpht.com/T8cP6LS3yE1CWQ8AZiv-orM6YL3VvmBONzxz8oYsPzyEa7zH7tQHp09pVdB3453usxexKJr-kZSuXASVTJEL'
  lat: 40.102177
  level: 2
  lon: -88.23076
  name:  'The Kinkead Pavilion'
- ap: 3661
  img:  'http://lh3.ggpht.com/5OA9gBD9HJe7pZRJ6DjHOGIbC9paid10T5gOLcZS91YP3V0eTMGqvFmPtvp6UtWzb1w2sOV5dbYmxDUFnQ0x'
  lat: 40.101862
  level: 3
  lon: -88.231737
  name:  'Krannert Art Museum'
- ap: 3661
  img:  'http://lh6.ggpht.com/hPutcAvS7zQN-tagfEY-fvkvdlgj7j5sZwUSLY883Twc7tHyslIAp7lzWYciJmCytDfsbFQtavAlzqGwCgFZkw'
  lat: 40.105562
  level: 6
  lon: -88.234991
  name:  'Acacia House'
- ap: 3661
  img:  'http://lh4.ggpht.com/Zom5xkViTBf5wGkPFjYta7PfPZDicQD2VL2bQItgdzMxvQ1x7zqM3Zgynd7a6XBMT6qMAMKagxWMdpMlPcveaw'
  lat: 40.105849
  level: 2
  lon: -88.227679
  name:  'Lincoln Scholarship Plaque'
- ap: 3661
  img:  'http://lh6.ggpht.com/ARxGPDwwD9zGWfT9onLvNXRMYpYW0G7tL4osRfuUfWaG2wAJR486QSRQ_1dw-pJZMHccKUnSShoDVMijLRTh5g'
  lat: 40.07961
  level: 4
  lon: -88.209169
  name:  'Wildflower Walk'
- ap: 3474
  img:  'http://lh6.ggpht.com/pRR6eCp2PyD3vDZlmHjKOeq8OKg0KhFPVnuWAP-pB7RR36eKA3TlQwYX5pwYfBjPyVyB4oPXXOomdbqpVcY'
  lat: 40.116065
  level: 5
  lon: -88.313206
  name:  'Alan Green Memorial'
- ap: 3474
  img:  'http://lh5.ggpht.com/tuo_ByFTbwLitFP5cBseOibqRxENxbCwOJ30dCnja5ijBI_qBv5vqNP7ZuZXnxhYM6ms_GbExZEwwKVUtwV2'
  lat: 40.093712
  level: 5
  lon: -88.281583
  name:  'Brownfield Dedication'
- ap: 3474
  img:  'http://lh6.ggpht.com/p2F3xw4xL4UdiMM9aSy628ISSglrvjPexpF3j340tMAP9MX07yh_sJv7kHVkeud8lyFf2ZwDohw3zsRS2PSd'
  lat: 40.093914
  level: 5
  lon: -88.281531
  name:  'Terry M. Warmbier Memorial'
- ap: 3474
  img:  'http://lh6.ggpht.com/Jz3ahY5LQ13wKWLY9SEvexiinJa3GeO1eB_FynplikRpa77swLST6cUAJjPpqKDSq2KU4Dcyui-QBstz_Z3k'
  lat: 40.094624
  level: 5
  lon: -88.282953
  name:  'Greenbelt 2'
- ap: 3474
  img:  'http://lh3.googleusercontent.com/5FkLhIMVmAJJSslAXVxY1RNxi-4q5mNAVPK2XgU5LwRM8qcB8BGXOK0GmF6Y_xfgPOhwF_CrbcgVZlJx-Pza'
  lat: 40.11652
  level: 5
  lon: -88.241845
  name:  'Mike ''N Molly''s'
- ap: 3474
  img:  'http://lh6.ggpht.com/f43AXqkZOVuig6JgnORI4vC7QZWr2a0lnTW39-gMaRiWW13AuK6U0ZSoFc1k6xi2YvZU6ad6EC-xTq404ZM'
  lat: 40.103258
  level: 2
  lon: -88.241752
  name:  'Medical Services'
- ap: 3474
  img:  'http://lh6.ggpht.com/uaO1clC1eOzxRVRPPU6mVM4lEPV2U6uxh64a8kJNRglHSObClWlHGEcfJTknzwB_7Wli3doxQJbZKiBHIXI'
  lat: 40.102834
  level: 2
  lon: -88.241672
  name:  'Rehabilitation Education Center'
- ap: 3324
  img:  'http://lh6.ggpht.com/dzudBxNyxUB12jQt8DMYPfm1nc94wO0GiD8fhqGETiQF94uDlJ4UMhnW4DCCbA6TzoEEe--vXNP-DAskM3_W'
  lat: 40.057678
  level: 4
  lon: -88.25174
  name:  'Savoy Post Office'
- ap: 3474
  img:  'http://lh4.ggpht.com/1LUozaukItxu6cHk_7wORzYYNvskCHi_wUxbNOAcIXNbgLuYn7VElFG0tzY02e6pY-AEL8nNHAL6ewLCaLMH'
  lat: 40.10567
  level: 1
  lon: -88.228634
  name:  'Public Broadcasting Plaque'
- ap: 3474
  img:  'http://lh3.googleusercontent.com/vRH1cgHOuzbgU69F49MdsOQye4VG9lH8rjDcYQWGq9_8VcBu010oHhoinNmA_Dn9JZGLmS7ehSQJ9h1uDMGBaw'
  lat: 40.107087
  level: 4
  lon: -88.227801
  name:  'Class of 1912 Pillar'
- ap: 3474
  img:  'http://lh5.ggpht.com/orl0d4FNIpZ7xsdZmVyH_732dMd4uGM01fQ-P5V82KufzWBOMbpankzTgjeS3frZhS7apS3qCrS2o4jtw7pAkg'
  lat: 40.105605
  level: 2
  lon: -88.227414
  name:  'Charlene E. Haight Bench'
- ap: 3474
  img:  'http://lh3.ggpht.com/MhImfPRi7WC74Qg-w4TCrNnC1hTih4TLCipNyUswQRp6HDkM5XS2cJqL0vrBH5sb7VdgzafkvLVAVEk3R-W6'
  lat: 40.105511
  level: 2
  lon: -88.227195
  name:  'Bruce Perona Memorial Plaque'
- ap: 3474
  img:  'http://lh4.ggpht.com/mHAXKPtOyg_DWRs5A_0yhGeDsfU4f4o3xJvzziri7o3ksPPKtMAHUkUBOb0JJ78gArdP5Q6O-UiXNDG3RHaIYQ'
  lat: 40.109339
  level: 4
  lon: -88.234149
  name:  'Alpha Delta Phi Fraternity House'
- ap: 3474
  img:  'http://lh4.ggpht.com/hJDi8J7CZU-933hT0Culp2nhslv6p8rDRPdTFz6FwNaAjB5CmfkaQzj9sM--E-QBvI8yvIJn1F2jxy7ZKWlh'
  lat: 40.10816
  level: 3
  lon: -88.234245
  name:  'Stratford House'
- ap: 3474
  img:  'http://lh5.ggpht.com/NUOCD82iNRGW1NGqEC4FKet1u5_cm4WRNc2c9_YABAjGf6-OSCLz7HgYkP1ZuVAbpMl6Qi10HRW16Oc9jNM2'
  lat: 40.106401
  level: 7
  lon: -88.236182
  name:  'Washington Park'
- ap: 3474
  img:  'http://lh3.ggpht.com/mRCpYiTnH0rrWGXaOj5qrhYjnvlhpQ8iY4UG3vy_gu2HW2GChgp0aXQ0Uih6XRZcUOJVyzyPggWicFdh7sHrfA'
  lat: 40.106179
  level: 1
  lon: -88.227593
  name:  'Charles P. Wolff Memorial and Tree'
- ap: 3474
  img:  'http://lh4.ggpht.com/p1kbhH-3K08NNqTt_6-223uI0PurGUV2HeAWGYPRx3OnNYMY-kARoW1zZ2pZBHthAYRZbIgf6ioRawHi0BmUx786y5ffm0kmZsskaOiluDUhSIiI'
  lat: 40.106173
  level: 2
  lon: -88.22719
  name:  'Foellinger Auditorium'
- ap: 3474
  img:  'http://lh5.ggpht.com/W3y0aDYTuLZ7E0KYzawIeqddSRPOrY1oAV8peDaDhUsxn_hKEJ1O4XyO_JF2p0ORGwae1oEwE5oTkJ_1TMDA'
  lat: 40.080601
  level: 6
  lon: -88.208399
  name:  'Urbana Parks Department Gardens'
- ap: 3474
  img:  'http://lh6.ggpht.com/Pvgc8EILl7jWftQ3dvPTZTa98KpCUdaq9yHkecl-ZIKR_whDQCQrKSwrdX56lqH7d7ma5TsbyH70RvcdhLSp-T_4IjJqzXAbRhLMMkEpNo9gayrY'
  lat: 40.080493
  level: 5
  lon: -88.204819
  name:  'Molecular Reflection Statue'
- ap: 3474
  img:  'http://lh6.ggpht.com/OeWiEqijQeAf256S5XDmv8VIj-SUQ0QHnet5J28ThcRwPEYY7-uk4CXixqualhlYxTcgKYe55FOcK_Ov7BE30jWvWzeBabSEra5jDLx3ZGj-XSs'
  lat: 40.08069
  level: 5
  lon: -88.20463
  name:  'Swift'
- ap: 3474
  img:  'http://lh6.ggpht.com/k_7DcxCHlkFP0CTNHoTY5V3-yA-EKIuGisBB8E77m940i61vkhvgHMsmxpNBkUhVm6Oy2XzndXI9_HF9MNJt-bahjS2gelImbCJmBrpBHpGW9VvA'
  lat: 40.080794
  level: 5
  lon: -88.203294
  name:  '"Fluke" at Meadowbrook Park'
- ap: 3474
  img:  'http://lh3.ggpht.com/3Zmkt--7llPgVt7DBvxcj4VWf2chqeJFGGK3MxoJQUsf4eyqv2iI35GHX8cDE1VJzJcS7rt1tLhm2NSszA4J'
  lat: 40.080946
  level: 5
  lon: -88.20312
  name:  'Jack and Marilyn Memorial Bench'
- ap: 3098
  img: http://i.imgur.com/5j1qaiT.png
  lat: 40.561018
  level: '?'
  lon: -88.900234
  name:  '2e4c86f3add64206bd90a57bd8fa10af.16'
- ap: 2911
  img:  'http://lh6.ggpht.com/BzDhCANV_iNTHhKFBGLuaUqOvChRZtPWnJ2Xk4h7NsKJHmTGgCWtFHWv2PpDA2fCsHHKSCRTrUNK8AKrLRnS'
  lat: 40.108066
  level: 3
  lon: -88.230687
  name:  'Community United Church of Christ'
- ap: 2724
  img: http://i.imgur.com/5j1qaiT.png
  lat: 40.106513
  level: '?'
  lon: -88.5585
  name:  'Lodge Christian Church'
- ap: 2724
  img: http://i.imgur.com/5j1qaiT.png
  lat: 40.565188
  level: '?'
  lon: -88.61306
  name:  '6ab35b80fa5949c990af0fe7eb3db8c8.16'
- ap: 2724
  img:  'http://lh3.ggpht.com/x5fBw8MRogV8dm3kPO5zKNkUrQxn0dM7d1PIoASdX1_Rc8H5Duex4iZdOoIlqazCGll25TmptsWIRq1JFmj6'
  lat: 40.112135
  level: 7
  lon: -88.225762
  name:  'Computer Based Education Plaque'
- ap: 2724
  img:  'http://lh4.ggpht.com/0j8eeTKJgjnYhHpf4qH_70CZHLbujC5v-XP_ndcqh1xIR-5V2K_CGdjIe1ZfMbwvSyISxxYKoZynw1DaQcj8'
  lat: 40.105874
  level: 5
  lon: -88.230562
  name:  'St. John''s Rectory'
- ap: 2724
  img:  'http://lh4.ggpht.com/3_LELG2r-A5s2d-x2dWyz6h7HzfjVR_KZn9AG0vhih9EalQIG43iL6LdKqKNpnGdGwguP9ZfnGF0KMq_KDE'
  lat: 40.105799
  level: 4
  lon: -88.230188
  name:  'Color Glass Windows at the Newman Center'
- ap: 2724
  img:  'http://lh3.googleusercontent.com/EwXPPCiuVPRkECPKlJtyqReSySoJKEdwrx1MkNVUy6EM9xWU_fet1Z-sLfx_P2_c54DeJcApxdl-hKg9vGVEtw'
  lat: 40.108224
  level: 6
  lon: -88.223549
  name:  'Colwell Playhouse'
- ap: 2724
  img: http://i.imgur.com/5j1qaiT.png
  lat: 40.205206
  level: '?'
  lon: -88.393464
  name:  'ffb1c8830f184f8b9886fbf7c7604a37.12'
- ap: 2537
  img: http://i.imgur.com/5j1qaiT.png
  lat: 40.921668
  level: '?'
  lon: -89.926429
  name:  'aec971d67f0f41488f33897e56a5a990.12'
- ap: 2537
  img: http://i.imgur.com/5j1qaiT.png
  lat: 41.277032
  level: '?'
  lon: -91.196262
  name:  '562b396c1fe94fdcac8399200901757a.16'
- ap: 2537
  img: http://i.imgur.com/5j1qaiT.png
  lat: 40.50033
  level: '?'
  lon: -88.631934
  name:  '2e5ce08770f74ed98bdad34c19140087.16'
- ap: 2537
  img: http://i.imgur.com/5j1qaiT.png
  lat: 40.312242
  level: '?'
  lon: -88.201368
  name:  '2012 Employee Dedication Bench'
- ap: 2537
  img: http://i.imgur.com/5j1qaiT.png
  lat: 40.026566
  level: '?'
  lon: -88.064716
  name:  'a1a6fd39897c422b95c2d0a3a3623315.12'
- ap: 2537
  img: http://i.imgur.com/5j1qaiT.png
  lat: 40.345507
  level: '?'
  lon: -88.759419
  name:  'ccbbb1df77494bec8c7d9a042dfb2f8f.16'
- ap: 2537
  img: http://i.imgur.com/5j1qaiT.png
  lat: 40.154669
  level: '?'
  lon: -88.298035
  name:  'New Horizon Methodist Church'
- ap: 2537
  img:  'http://lh4.ggpht.com/ZevI283-hdNmxCDG58ggAccDFE_BgYgPK-Hwc6pMCOMdhClXrMtmBtTONxbI0Y_iV-SVdkgRT28tdz-T-6Vt'
  lat: 40.146982
  level: 5
  lon: -88.28914
  name:  'Champaign Kingdom Hall of Jehovah''s Witnesses'
- ap: 2537
  img: http://i.imgur.com/5j1qaiT.png
  lat: 40.247118
  level: '?'
  lon: -88.631854
  name:  'Woodlawn Country Club'
- ap: 2537
  img: http://i.imgur.com/5j1qaiT.png
  lat: 40.873822
  level: '?'
  lon: -88.646106
  name:  '48c9d6133823423796c94e34eab373eb.16'
- ap: 2537
  img: http://i.imgur.com/5j1qaiT.png
  lat: 40.651103
  level: '?'
  lon: -89.651637
  name:  '150c86e5e5c545f0bd6e56abb3cde54d.12'
- ap: 2537
  img: http://i.imgur.com/5j1qaiT.png
  lat: 40.907861
  level: '?'
  lon: -90.284772
  name:  '1960a1d6b52a45afb823147d603b4bce.16'
- ap: 2537
  img: http://i.imgur.com/5j1qaiT.png
  lat: 40.243914
  level: '?'
  lon: -88.643621
  name:  'United Methodist'
- ap: 2537
  img: http://i.imgur.com/5j1qaiT.png
  lat: 41.613727
  level: '?'
  lon: -90.172905
  name:  '02980941126a49e4a8bd0eb57ab3f21b.12'
- ap: 2537
  img: http://i.imgur.com/5j1qaiT.png
  lat: 41.570778
  level: '?'
  lon: -89.127801
  name:  '4bf70cbe46bb41489e8108e397ed5b30.16'
- ap: 2537
  img: http://i.imgur.com/5j1qaiT.png
  lat: 40.120883
  level: '?'
  lon: -88.751354
  name:  '9f93787a0621442c8c1ee66acfdf2317.12'
- ap: 2537
  img:  'http://lh3.ggpht.com/j0Yx7yuvUTJbnHtY38VFaty8xpyZMMDS_bSmvbHQx_2nQBiLqF4PGpLNdTGXkRgA3-OANQgASvn1mPGcuJi6HA'
  lat: 40.131715
  level: 5
  lon: -88.31369
  name:  'Mark L. Rambow Tree'
- ap: 2537
  img:  'http://lh5.ggpht.com/d_xORafhhRGmWQQYxORFs1dW_6uXGimDkw117yVoO46fU96UHRY1GWk3ln65AsNRtevh1vFgECrCK8gJD4Y'
  lat: 40.133113
  level: 2
  lon: -88.279062
  name:  'Champaign County Workers Memorial'
- ap: 2537
  img:  'http://lh6.ggpht.com/dI4xaWnG0DZUP0uJY6mH7dt0Mym9RSF71Y9EW7cHcTwlxlumShbTK73b2epHwOng4JJOjyc52eMv188FeiHYfg'
  lat: 40.131965
  level: 2
  lon: -88.278016
  name:  'Augustus K Riggin'
- ap: 2537
  img:  'http://lh3.googleusercontent.com/E_ZPlSyleqUMg0OilyQYOVjaoZT-y4SbH4plEyw9dIUNETTaaR5s71RJOIy8h5u1Ae97gUfiLGrIdMPXjNQ'
  lat: 40.11727
  level: 6
  lon: -88.286997
  name:  'Kaufman Lake'
- ap: 2537
  img:  'http://lh3.ggpht.com/rgh_2qJQUPC1OrARUkiQqPKoNReiqZYOimm5Nszb77pDh72OszuyiJBKn-vDxHUuyjO2XTeKU9GBHc3oHIYr'
  lat: 40.115283
  level: 6
  lon: -88.287899
  name:  'Greenbelt Bikeway'
- ap: 2237
  img:  'http://lh5.ggpht.com/R4YsY7oUfZDrMJ3QJtIKwNvcX7K4vxIpwfLebL2U4x5m1UibakO0KUZJXqdfYe-W9IUNBmlCu5LlSy6jtKGM'
  lat: 40.105323
  level: 3
  lon: -88.239595
  name:  'Campus Post Office Services'
- ap: 2537
  img:  'http://lh5.ggpht.com/cHXnlWuRvdsWlYl544dN4Z4dFmU3Wzw1BEovUj84953CC59BdwR-5pDK8MUkpnAECo3RjUVQMAS0elR08dvD'
  lat: 40.115302
  level: 8
  lon: -88.224932
  name:  'National Center for Supercomputing Applications'
- ap: 2537
  img:  'http://lh4.ggpht.com/GCS0-CwKl9SLe2zfeL7FPDuKv5ZFDhlnX3hMXZSJLvK-u73RlgWbn_FgnOHZi-0wqMk52z_YLSAMReYTSaoP'
  lat: 40.10659
  level: 1
  lon: -88.227679
  name:  'Lincoln Hall'
- ap: 2462
  img:  'http://lh6.ggpht.com/TXVMllOHjnPSJgg_7oE4ZuY82xJs56TE9AbaxAFxXWiD5yKwlOZUHfx74BaxCzczl9hTtaKqkaDsA4LeZ94'
  lat: 40.110617
  level: 5
  lon: -88.228248
  name:  'Everitt Lab'
- ap: 2237
  img:  'http://lh6.ggpht.com/MzDfG6eMMwVr56zIpVxRJKU2aoUq-95CLeBhoiEQQKzpC2zulq5jFDLv1IK0JcRy5Q0PhRAreZ1p2ElsdnNu'
  lat: 40.108048
  level: 1
  lon: -88.226279
  name:  'Nuclear Magnetic Resonance II Plaque'
- ap: 2537
  img:  'http://lh4.ggpht.com/S734i_6SihPtJW8WdegLb3gEuKeNx8e1qDm6CXjREzYHohw7XqL82m4EF2K5nS2TixHweLn3EuJ4YoQnrsw'
  lat: 40.107751
  level: 3
  lon: -88.231532
  name:  'Graduate School of Library and Information Science'
- ap: 2537
  img:  'http://lh3.googleusercontent.com/__dofGL-oELNLYymrJ5VDONThxrG0oMe5aQcopgTFJgu56wHeV1y-scJDNms_C4LRoqDe-qKwDBNRNkCiJnNUQ'
  lat: 40.127703
  level: 5
  lon: -88.211526
  name:  'Busey Woods Trail - Wet to Dry'
- ap: 2537
  img:  'http://lh5.ggpht.com/n-WJVk4VFfgCVfLuyItrEjDCHgOd5YN1Z1ts6qT6-RmXvFyDeNKYarXwzwHKyd5B9tGmezRoEzKX4EFKmaY'
  lat: 40.124947
  level: 5
  lon: -88.210509
  name:  'Trail Marker in Busey Woods'
- ap: 2537
  img:  'http://lh6.ggpht.com/LJB7sU5C-p9Dsf4gZ7RkqrEbfZnlh-rR33SARIHJOOUld5Lhb6_CH4gN1rtHGaLP4sPAsl8gN6mFkpl7ZQ5_'
  lat: 40.081475
  level: 5
  lon: -88.20239
  name:  'Prairie Buoy'
- ap: 2537
  img: http://i.imgur.com/5j1qaiT.png
  lat: 40.205583
  level: '?'
  lon: -88.394066
  name:  'Champaign Countys Lincoln'
- ap: 2537
  img: http://i.imgur.com/5j1qaiT.png
  lat: 40.205076
  level: '?'
  lon: -88.39379
  name:  '88b22f723d954699bdb089ff05d12bf6.16'
