- ap: 11346
  img:  'http://lh5.ggpht.com/4DJAFPeZ_w65Km7VDnsbOqouQaeBuPuxA0KHPQToT_B6o1hBxzdu3kn89UhHgv22Ygj52Fx9QqcbzOytuw'
  lat: 40.100078
  level: 8
  lon: -88.250683
  name:  'Brian Clark Memorial Plaque'
- ap: 10783
  img:  'http://lh3.ggpht.com/rUgM7jkTqL0VHxvsSW0yWuNJF5UrU62ITflghfn4PfKjn6L4WGz0ALkv98fc_q9dmK9SSpU1PXIawGvcRwE'
  lat: 40.098246
  level: 8
  lon: -88.251974
  name:  'Hessel Park'
- ap: 10596
  img:  'http://lh3.ggpht.com/lzCSS0_tjwUV7JQ2fgLI0e05IrzPxlVUs-6aEPOwUv67IanQJSTi71gkw0SGm8asmoE_r3Xoh048Fd9xRpE'
  lat: 40.099169
  level: 8
  lon: -88.251419
  name:  'Lyman Larson Memorial'
- ap: 10407
  img:  'http://lh6.ggpht.com/uaO1clC1eOzxRVRPPU6mVM4lEPV2U6uxh64a8kJNRglHSObClWlHGEcfJTknzwB_7Wli3doxQJbZKiBHIXI'
  lat: 40.102834
  level: 7
  lon: -88.241672
  name:  'Rehabilitation Education Center'
- ap: 10407
  img:  'http://lh6.ggpht.com/tenpgw5pr4OCsrdIgmmHP_sx4RHH2ywHdbNxw556d5JpHC4u64HFYqCdRSeAJgfTN_7BcUv11v8NtBdlaUV8'
  lat: 40.100717
  level: 6
  lon: -88.243989
  name:  'Rainbow Garden'
- ap: 10220
  img:  'http://lh3.ggpht.com/AD9d7JPmLdYRdpxESO9iORy1GRXAcN1jzn8dDNvm6FO7cIHVsjwAKI8LmbW4dico1Xe9jzJfsZZriP0CxXA46w'
  lat: 40.104084
  level: 7
  lon: -88.241616
  name:  'Honorary Memorial Steam Ventilation Pipe'
- ap: 10033
  img:  'http://lh5.ggpht.com/yEiiHAgbSW12_Cpdb0_ksVrjWt6yb6BFtEwm3wjzPJN68wl0QhkI_oaTXxM__Dud8x9jZitaHmpZHZNxDHrD'
  lat: 40.099056
  level: 8
  lon: -88.249136
  name:  '"Cricket" and Bob Barger Memorial'
- ap: 9846
  img:  'http://lh5.ggpht.com/ENeQgqydWbi9-Oyf7vizunoRqJdsZV4o0RA_956wjGI8hqpTCHBPyWMpbTrrkwYpj5tgzDRvevGmvH4eFRU'
  lat: 40.099593
  level: 8
  lon: -88.251724
  name:  'Blessings from Devon Elaine Cattell'
- ap: 9846
  img:  'http://lh6.ggpht.com/BKeORacgeVrG8XzxTuXmpq5UxomWpK-I2n7Xy0PVbdSciNx9MJl869TcibnFIiV5PJHGv5R3QOpX6ZgLUwU'
  lat: 40.099706
  level: 7
  lon: -88.250065
  name:  'Lois Barham Memorial Tree'
- ap: 9846
  img:  'http://lh5.ggpht.com/C6wRSaEWO1NYGY5luyYZKHG3Z3aib4aflaPdV7B9G6N6adE890g3QuPRSvCUhsdFHqjoVUjo27mfz9WsjXyuhQ'
  lat: 40.100521
  level: 8
  lon: -88.250864
  name:  'Gabriel Patrick Maxeiner Memorial'
- ap: 9472
  img:  'http://lh6.ggpht.com/6pMlM7pPsp-5PTNYZ8AJgo5ODURCPJO-_LigeHL2TMhjfK9MS17iEcpQqc89n5gyUdEO8seZrlThTGbKEqg'
  lat: 40.132999
  level: 6
  lon: -88.292808
  name:  'Campus Solar System - Mars'
- ap: 9470
  img:  'http://lh3.googleusercontent.com/enpZZ8JRREFPTvYd3jbeUlpS-mmcwKe5fsvoWRPkfMUj6PijyI-5tbR55UItBoNJAFSl9fAAOvXb6BpWCJT4'
  lat: 40.102495
  level: 8
  lon: -88.242132
  name:  'Nuclear Physics Lab'
- ap: 9470
  img:  'http://lh3.ggpht.com/lSr_gDGX9o1BHZX9FUPCKAO2VVQjZ_NwTBaSNhNgjVyJ2p6BnLDByC_vIkhu637-W5nKMW2SShi0gXOlXNqY7A'
  lat: 40.097979
  level: 8
  lon: -88.247785
  name:  'Jarling''s Custard Cup'
- ap: 9096
  img:  'http://lh4.ggpht.com/H1kV6JSczzSbcCblAHg5ZOgITW1mBAz0_oLbqbzxBlijGTBn7TP6KwA6UI0AAGrCN4VF0DAF79Vcj6_2R4dsB8LRTq6tud6v'
  lat: 40.116164
  level: 7
  lon: -88.241661
  name:  'Zipcar-45 E. University Avenue'
- ap: 9094
  img:  'http://lh5.ggpht.com/jz0XvZSSYKqKSa4lJDK-rludOns_o36jZ8ZTzfEr42piZamiTjSASTLdII6pkxgjZgnCwKirjhEouS77BPB8Dg'
  lat: 40.094288
  level: 7
  lon: -88.248914
  name:  'Boulware Trail'
- ap: 8909
  img:  'http://lh3.ggpht.com/GXyi2ghi2DR3h7uIHNYiEZPYixRhDo7LO0WHQ0PyEzb-150r7ar7JGeVjUoPuObC-GFWf22UWqnYCMtED0M-'
  lat: 40.100341
  level: 8
  lon: -88.249937
  name:  'Alice Marie Weber Plaque'
- ap: 8909
  img:  'http://lh5.ggpht.com/3t7XZHqwxLZ8Lc9YomR8FInm74U2PAA-DBk8kmdxXIrcXbKa1CoBDTlgdDJeO-_yVT3qNKRnNLzbdil1eH41iA'
  lat: 40.09935
  level: 7
  lon: -88.249766
  name:  'Jim Bickel Honorary Plaque'
- ap: 8909
  img:  'http://lh6.ggpht.com/YVbqGVTjJuDMDdj71CP2mWvnUIdgO25PgoDdJwEGnEE_M9I1aDgKyjSr9JOZVU6UQTZQtfUo9RAWyz92n3jtCQ'
  lat: 40.098475
  level: 7
  lon: -88.249208
  name:  'In Fond Memory of William Moore Jr'
- ap: 8907
  img:  'http://lh6.ggpht.com/0IsQORyEW-bPA7sEbGspygtoI7ixEshm_2fUw5oeh9AeXg6JN5w0ypYIshpuKm-C0nG4Vm2XmpLvtWTZzWzd'
  lat: 40.111607
  level: 7
  lon: -88.233753
  name:  'Chabad Menorah'
- ap: 8907
  img:  'http://lh3.ggpht.com/2bCNiD7SWsS3uzFLMO2cZh-LpHUEMQGnfTmcNx5vJapXho2TuXke630-7zop2Sq4fuY8nWVqy4VCG23mvnIJ'
  lat: 40.104168
  level: 8
  lon: -88.238808
  name:  'Alpha Gamma Rho'
- ap: 8722
  img:  'http://lh4.ggpht.com/4LxsGZZMk3DnpJXUvqzrL54CHSP5TDXjUnDJyHmCCTtCJIjGEI7kxT9g4uxfSPh0X6yGLgQo1jfqbu7B8VEr'
  lat: 40.099084
  level: 8
  lon: -88.251826
  name:  'Irina P. Stewart Memorial Plaque'
- ap: 8346
  img:  'http://lh3.ggpht.com/KzADjdPRAvwycpfTBdAeDwFJ0AxZJG2dPmbPWkXq55QLV9PfpJ_-DsXWIlVgsISUApRdJ5cAxRWx0k0W2hI'
  lat: 40.09979
  level: 8
  lon: -88.249107
  name:  'Jerome Cook Memorial'
- ap: 8344
  img:  'http://lh5.ggpht.com/dgQfoxxVeHT5ODqLiUYHV45qvkC_BMS0kIFRqvHvE2GO0TduZ0-XzhW8RE80LtPDK0Ay5xwA6PtjM7G3C9U8'
  lat: 40.108947
  level: 8
  lon: -88.232251
  name:  'McKinley Church'
- ap: 7972
  img:  'http://lh6.ggpht.com/5CDidk0pqfUtSW_Yqouuf3diX8drdMu9DoT728QpSz8q6A-WxNhT0yLcgM_7gGpyIAeXrHiTkIzzaVJFgnN9WA'
  lat: 40.099852
  level: 8
  lon: -88.251947
  name:  'Our Friend Tim Palmer'
- ap: 7972
  img:  'http://lh5.ggpht.com/fDRifvVcFT_dKhPuNBN4rR9lNHL0Q6NvbMnGr2-ZdiirR2rJrBcWRi4vyM3-DYNHymUs7bWchaWRaUtBpg'
  lat: 40.098541
  level: 8
  lon: -88.250389
  name:  'Dennis Robert Costello Memorial'
- ap: 7972
  img:  'http://lh6.ggpht.com/3o0ObAARFV_8mBVCC_QD0iLOPVzNkakXybhLnSVEuXIJfDLKMxeYj-EkWIw9NPoZIVRf5Dkrid2yf_NEQ-iE'
  lat: 40.100347
  level: 7
  lon: -88.249385
  name:  'Travis Marmion Memorial'
- ap: 7972
  img:  'http://lh5.ggpht.com/-UWK84I78Sftf7yg-E2pg6xEAWTvyiThgJBJlxbqOZPYKNmzQ8uGgEEMetzplrG1HpXG5kQqNItUeXKxOHDsGA'
  lat: 40.100286
  level: 8
  lon: -88.251747
  name:  'Tennis Anyone'
- ap: 7972
  img:  'http://lh5.ggpht.com/q-mJ2EvrjGn2PfbBh3Pl3XIGUyzTqxGjZmTMhn3k9_2Qi0S2hs3k2ZvpKb4kvt60AXHiyQdxqft5ZecPcg7x'
  lat: 40.098959
  level: 7
  lon: -88.250141
  name:  'Bob and Wilma Tinkham'
- ap: 7972
  img:  'http://lh3.ggpht.com/sisvfsphxy7AK_2qrrqb7lNJk3_7ciHSVJyodINYITBc-UqugyNOooCxKupgJKEg5m_x95eZwouSO2WCmN60ew'
  lat: 40.098579
  level: 8
  lon: -88.249603
  name:  'Chef Ra Memorial Plaque'
- ap: 7972
  img:  'http://lh3.ggpht.com/VLipBehsKPCp8ewQnBV1ZCz7uE75zcY46iGDyFfFHgX1o55t3DONb3wcBcL5RMYSqABRK0TgIW3DluNy8y6WaA'
  lat: 40.101131
  level: 8
  lon: -88.250539
  name:  'Hessel Park'
- ap: 7970
  img:  'http://lh5.ggpht.com/H3lz_PbTP4RFYuRMUyZuMouxslODKZQ3RjFiZrITFZcpj2FuEb1K2VVlveQtOyUHG2rYZ114AGuGqK4rATI5jg'
  lat: 40.097868
  level: 8
  lon: -88.242344
  name:  'Campus Information Booth '
- ap: 7785
  img:  'http://lh3.ggpht.com/VrbXGwlUosNLEkVdshWUFoVa3KtlJQoEU4yLYygvftYbPCmxo644Uvar_v8Kb9RS53hB0tXgvV44GotrxZyu'
  lat: 40.098592
  level: 8
  lon: -88.251676
  name:  'Ruth and Fred Steigmann Plaque'
- ap: 7783
  img:  'http://lh4.ggpht.com/mlUN5QXAR7rKFvUg7yhxcae3udkR7zCJVaWt5sq_YA47piV6tRi42RNN9fEtT_FafT7lhqg26WM1VETbz5E'
  lat: 40.098239
  level: 7
  lon: -88.25376
  name:  'Hessel Park Christian Reformed Church'
- ap: 7596
  img:  'http://lh6.ggpht.com/UHh6R5Pfoiuw4sX96l-GNlhyni2EhPOuuEfaN9oWYLEs8qV6pfLkQugcY8yhMRq01gHqUu5GqKOA6bt9t2NfFQ'
  lat: 40.104458
  level: 7
  lon: -88.239125
  name:  'Delta Chi'
- ap: 7409
  img:  'http://lh4.ggpht.com/MvwoDsxwfyNLHzfGkFJl-4VFeX7OvqB0hsMCrZ2D9Olh8GSghAJDfFfDh7a7cOtMIGwEDMyesZoKvKCXAGj4'
  lat: 40.116553
  level: 6
  lon: -88.242268
  name:  'Esquire Lounge'
- ap: 7409
  img:  'http://lh6.ggpht.com/n0f7lyo15OzZn5IJHsohIGAA58iioentPZGEY4zeMZCCoX4GjEEkqfaTCIbrx9OnezriThnbFV14kYcwKTgL1g'
  lat: 40.098444
  level: 7
  lon: -88.248167
  name:  'Healthcare Not War Mural'
- ap: 7409
  img:  'http://lh5.ggpht.com/T0WLAJf0s4nu2Phxax31eu6pO6zNoA4JpvHMLyfMKttzJALEWB8EAWOziQwgjdWE3YjBbG1XjGYsgihqCSX9'
  lat: 40.100414
  level: 8
  lon: -88.249061
  name:  'Randy William Auteberry Memorial'
- ap: 7409
  img:  'http://lh5.ggpht.com/Q32BPmFRIQYqXI5gLOV9ifHvFlGdyD_yws2172-sHnSZ-StunhCM0Abqd9rBWSaKBWN7RPpa1h-nok4Mc23i'
  lat: 40.101062
  level: 7
  lon: -88.249275
  name:  'Narayan & Shanti Achanta Memorial Plaque'
- ap: 7409
  img:  'http://lh4.ggpht.com/vKgqIecJshMQxrhO-ZhMjcIyARuJdyU63wKfzAG0wouZex6LVzO46Qi5zM1N3Jx8xyantDFk9sQGsSEBhb-y'
  lat: 40.101327
  level: 7
  lon: -88.251412
  name:  'Zeus Memorial'
- ap: 7409
  img:  'http://lh3.googleusercontent.com/ZEt3dzGoBmn_BW1MwPTE7MY4Jcoj66UkwEA7wA7H40hbb-SwJheC1V67Dh89eAbpG6H_SeWDV3E0X5lRAkQ'
  lat: 40.111342
  level: 6
  lon: -88.23557
  name:  'Boneyard Greenway'
- ap: 7409
  img:  'http://lh3.ggpht.com/PT4NTR04lFCXxqN8xnrhEQppaXrkIbW4n-WkUVikx4zfcqksHUun6eOqFNMG6c0UA_X97iSLI4EJTN5aHkf-aE-PnsYLjAgXkSjZEtL8BvQtGyg'
  lat: 40.112752
  level: 6
  lon: -88.196586
  name:  'Victory Park'
- ap: 7222
  img:  'http://lh5.ggpht.com/tfAfnmo6mSMc6U0P533NMFJRGwn6lasmx-MLR2JJg1QOizMKkghFU8E7hb2zgYgdQEbgnCJUlvZIMdrrJe4'
  lat: 40.100822
  level: 8
  lon: -88.25193
  name:  'Seeds of Kindness Bench'
- ap: 7035
  img:  'http://lh6.ggpht.com/4K7T7_gGrfag_-Hep7ygH_rklKsjale4oo2CqJAFTpPB5EM4Dv8ZGyz7i_qUOuLnt16GWxDSJWCS8TZYyGY'
  lat: 40.115421
  level: 6
  lon: -88.243168
  name:  'Walnut Street Tea Co.'
- ap: 7035
  img:  'http://lh6.ggpht.com/YdeB0EKlsopL39a9YXWj4JBZgXNNLWHgfe4PQzdpWCNWc0fR1YTj8WjARDHnmrusvKWTqKLcGg8U9frhtsw'
  lat: 40.09821
  level: 8
  lon: -88.249879
  name:  'Hessel Park'
- ap: 7035
  img:  'http://lh3.ggpht.com/J_h4tdb4wqy8bmmQfDuy5yqTR2IlkzKojfvsMOvlD-3tf1pKxbDlhA6W9Q8RX-JaSxhItMr4bmCxiUQXTLbz'
  lat: 40.10064
  level: 7
  lon: -88.24958
  name:  'Edward A. Cousins Plaque'
- ap: 7035
  img:  'http://lh6.ggpht.com/S7Utf4_59vQkAP5JhC3mdbzVLKBTt-0zoJ2UjfxUnN10VBbixO-_VwvssWd1LbFSx_yafaijd_U0wTGo870'
  lat: 40.100941
  level: 7
  lon: -88.251314
  name:  'Gabriel Patrick Maxeiner Memorial Plaque'
- ap: 7035
  img:  'http://lh3.ggpht.com/G1CvGhpethi5UmprDWxZN9rTblHa3anSsQz1UPgJtkREkfN7lDFoxFObst0609Cg5mofuZxJKr0ddNKhY4VL'
  lat: 40.098464
  level: 8
  lon: -88.251426
  name:  'Ruth Haasis Memorial'
- ap: 7035
  img:  'http://lh5.ggpht.com/8zq5tMevCiipZK8N9-8SZw3vdsA2HwH0E02ormQshGxHVZrB2WPK7OPC8zt6pjLlgpXVuEYHVA_08_Q8fPw-'
  lat: 40.099647
  level: 7
  lon: -88.249648
  name:  'Max Overmyer Memorial Playground'
- ap: 7035
  img:  'http://lh5.ggpht.com/CRkkFx_9jq2hCt1HtflqZDqCdmSG5MN88FV0rLXk1PZm7maZWzLTKZhjqlSKUx1Tg0tSB62l75w2VFsyUZI'
  lat: 40.09991
  level: 7
  lon: -88.249899
  name:  'Benjamin Biddle Memorial Plaque'
- ap: 7033
  img:  'http://lh5.ggpht.com/THzk1iE4eBFdHkEgW_OGBWS54BbJw46faUZQS1Ad_IROHGgmVaXrphXJuL1O8N9k4G8_jaDT4P9tmLxMNi0W'
  lat: 40.131713
  level: 6
  lon: -88.29276
  name:  'Campus Solar System - Sun'
- ap: 7033
  img:  'http://lh4.ggpht.com/IM3Yvrk727rz6f1euz6nTpei6llE4E4oqn_l-WbxZIN3K6dF8pEa7wGKzbjqfr0DBRubxiNFztHBePH9-Iw'
  lat: 40.132147
  level: 6
  lon: -88.291251
  name:  'Staerkel Planetarium '
- ap: 6846
  img:  'http://lh5.ggpht.com/Sgu5qG2Ltp9axQc8nEr3fJ_qvNo6-gwd5TuKMrk2LM9d5P7DDy0oCoWiGnr6Ybp84FGMh9DQYLnFtBTZtBIm'
  lat: 40.113606
  level: 7
  lon: -88.243766
  name:  'Mural on South Neil St.'
- ap: 6846
  img:  'http://lh3.ggpht.com/by946OhJ5ooOkbG4f662qjbXqvrQAd98E36mSJLgTsLgL_tb8GDpNxTOEhtgsjEhY-OzKmRxAmLFbYPscSH6'
  lat: 40.101619
  level: 6
  lon: -88.233644
  name:  'Taft-Van Doren Hall'
- ap: 6846
  img:  'http://lh4.ggpht.com/ik1uVZ-KWyRH4dh51LJI7gFmnM7bmfSZ-1YqfELbVQEvuo-gEx2QpG6jQpFPeAlFPi2rVPAuzRmXMD0Whsm2HA'
  lat: 40.122038
  level: 7
  lon: -88.245318
  name:  'The Old Residential Block'
- ap: 6659
  img:  'http://lh4.ggpht.com/vbIH-PkUCBuwDTIRXA4p5jtGQ86SqYlc1e-g3Y9Ef2zaSb0ozkDD41Iq51orLhtPyShj4UzC6CPn0Unt8SY'
  lat: 40.145108
  level: 6
  lon: -88.260083
  name:  'Historic Interpretive Map of Champaign'
- ap: 6659
  img:  'http://lh5.ggpht.com/RsXj0S9rbD_i4VFZmhxJtNtmwEeJOoYsmM8wyu90kB6srZMfUskP6iqrTY9eqFNQhhQrU50k92lCH4JEQ2w'
  lat: 40.127358
  level: 8
  lon: -88.243851
  name:  'Stanchion'
- ap: 6659
  img:  'http://lh3.googleusercontent.com/78s4UE5PKzAAG8LQc8bJPPLK30nagQnB2-jzX2y9vVVAjUMejMsBGSAKck17bjgbH1Lndna45c3l7i6tR3A4'
  lat: 40.112908
  level: 6
  lon: -88.237287
  name:  'Stone Arch Bridge'
- ap: 6659
  img:  'http://lh5.ggpht.com/oCw3ZC6UKF3aiK6dkbz72dhzUsJNhOmfVjVsXJET_YP5e1p53pLTa8Dep24gLqeY9FghWE0kaAB64vvn7nq0'
  lat: 40.105008
  level: 8
  lon: -88.243265
  name:  'McCollum Park Peacock'
- ap: 6659
  img:  'http://lh5.ggpht.com/k_9eqZVvGcr3ZNyeeSNDM1-Y7od35KmnQQptB9usrdpTdpGW2c_5-12rYy9hGazdx7qhlYrEXxaJ_ZIVFywlcA'
  lat: 40.106706
  level: 7
  lon: -88.232116
  name:  'Illini Tower'
- ap: 6659
  img:  'http://lh5.ggpht.com/Tn5ARN-X6VTc2q6atZ2WYq3c2g3gbSGXu6_vXf1MDwHfLpdTtnQ-CilBAVGvL6R-SHhq3fJ4WZI-yiJKmIId'
  lat: 40.110398
  level: 6
  lon: -88.235143
  name:  'US Post Office, E Green St, Champaign'
- ap: 6472
  img:  'http://lh3.ggpht.com/KxQsev6i7POmNh1IadCWwWQSMdCuLIYpPwIdenSlVtzum523D1R-1kfeTbuOGTkt_jDwn4jswCu1edkumm2-'
  lat: 40.110037
  level: 7
  lon: -88.23549
  name:  'Red Lion'
- ap: 6472
  img:  'http://lh4.ggpht.com/S734i_6SihPtJW8WdegLb3gEuKeNx8e1qDm6CXjREzYHohw7XqL82m4EF2K5nS2TixHweLn3EuJ4YoQnrsw'
  lat: 40.107751
  level: 8
  lon: -88.231532
  name:  'Graduate School of Library and Information Science'
- ap: 6472
  img:  'http://lh5.ggpht.com/X8fMC6BEd-s7yEaLcZgy9h_jsPOyLnqtyUSQXq-f0-8tddmWEfww8biVS0z223PMPQNhXHt3TuCOP4zDqXi4mA'
  lat: 40.111425
  level: 4
  lon: -88.196843
  name:  'Tulip Tree Plaque'
- ap: 6285
  img:  'http://lh6.ggpht.com/D-AymiJdf5gt94o_wgUJbOD9Fpl4V7PijJOjkztpP0_J2k82i1TBLDAaqcH_SUTUFe9VlllfQCsXFg_J0uAPeA'
  lat: 40.11569
  level: 7
  lon: -88.243433
  name:  'Christ Community Church'
- ap: 6285
  img:  'http://lh5.ggpht.com/NUOCD82iNRGW1NGqEC4FKet1u5_cm4WRNc2c9_YABAjGf6-OSCLz7HgYkP1ZuVAbpMl6Qi10HRW16Oc9jNM2'
  lat: 40.106401
  level: 7
  lon: -88.236182
  name:  'Washington Park'
- ap: 6098
  img:  'http://lh3.ggpht.com/-MRGQEVV5mNMzB4sb8JAsgVC56kTzYaFEf3mpRsfXAiO4KIrLw3LGFkt7Au97yDwY-AUSfghHcri53Zpmn-Z4Q'
  lat: 40.11621
  level: 7
  lon: -88.242535
  name:  'Inman Building Historic Plaque'
- ap: 6098
  img:  'http://lh4.ggpht.com/1BgYrJYdcGdepVZ6ibhTjtjZ6MyzKnQzLL4wxEnn_CEPnrJmOKHzPXm1qinGRA78MqKq11gKRlprm3Z7mDr0'
  lat: 40.115645
  level: 5
  lon: -88.243036
  name:  'The Art Party Studio'
- ap: 6098
  img:  'http://lh3.ggpht.com/LunaMtSKD9yiLQClolDY-Iqh0ENm9AgJdL4D1QxGs0j6TXPgqxDZea35x5ilAfeI5_0TGh5x1q1EqRsJsLFi'
  lat: 40.114111
  level: 7
  lon: -88.243697
  name:  'Champaign Surplus'
- ap: 6098
  img:  'http://lh3.ggpht.com/8FqlniFErK7cq59awiT84u8KyV4FIRd5krZzfYa58zJToFps7whdBnriPqvO_kFKeLUE3SWbJhCOPuvUQzaGFA'
  lat: 40.100691
  level: 8
  lon: -88.251337
  name:  'In Loving Memory of Zeus'
- ap: 6098
  img:  'http://lh4.ggpht.com/PHV-1ZpFzCAl_ViCKwBY_x2pIDbVyaT7wJH1sTvFJCxrSdRrO1x7NaXq9OdRGwz_Mls4iwk6wuGHMBArfV54'
  lat: 40.098688
  level: 7
  lon: -88.25063
  name:  '"New Holland Yellow Dinosaurs" at Hessel Park'
- ap: 6098
  img:  'http://lh6.ggpht.com/qSCp5fQMlyCQ-GOAgiSFy5gaHJei705Pa3eOlJiYO5wGjZTYtjA8q7QWWfAWcLKjxZSaFiMfXOPR8SO7rWU'
  lat: 40.099353
  level: 8
  lon: -88.251876
  name:  'Raymond B. Cattell Memorial'
- ap: 6098
  img:  'http://lh6.ggpht.com/f43AXqkZOVuig6JgnORI4vC7QZWr2a0lnTW39-gMaRiWW13AuK6U0ZSoFc1k6xi2YvZU6ad6EC-xTq404ZM'
  lat: 40.103258
  level: 7
  lon: -88.241752
  name:  'Medical Services'
- ap: 6098
  img:  'http://lh5.ggpht.com/HhVreJipNvxPRVFpmsh2BPo9PcpPO2Q2l3jCpDjIKgfKGycoTNPXR4DKiYccBXW4X-4dJf_vV0ESsWAWHcChsg'
  lat: 40.100936
  level: 8
  lon: -88.250855
  name:  'Donald F. Bresnan Memorial'
- ap: 6098
  img:  'http://lh3.googleusercontent.com/Tixp17uCaP682s77UzvCwWCOE6vg7iB2qEFLjACq7xtVJdHE0K3yKYsl3_SwKbiUfQWwgTQRbvfka3U0NvNc'
  lat: 40.098819
  level: 8
  lon: -88.249214
  name:  'Bette McKown Honorary'
- ap: 6098
  img:  'http://lh4.ggpht.com/DvS6go5Krx0CocEL5s29eIW_bm_5HDMdSrRgfi7i3uLEXMkzxPLKWMX24OvVm9geOAeqRlmoqv4HQWwH-d_vfg'
  lat: 40.11075
  level: 5
  lon: -88.198278
  name:  'Urbana Baha''i Center'
- ap: 5909
  img:  'http://lh4.ggpht.com/ln3YbdhkDSQ19t2mM9P_UcuQQA67KZkxL5aFii6BK7359DmhZ_z7Zk_GHQ0XQDLl8X3UnUr0lhnCkOlv6lwl'
  lat: 40.125825
  level: 6
  lon: -88.244671
  name:  'Randolph Street Community Garden'
- ap: 5909
  img:  'http://lh4.ggpht.com/2JNDO54Hu2KzjIaEeCIFVgD7gEa5VXNBsIemFYp6cgiTUbsSpOwLTc-HqZb__uut24jHpVnQVokRVtL00ozu'
  lat: 40.132056
  level: 6
  lon: -88.292671
  name:  'Campus Solar System - Mercury'
- ap: 5909
  img:  'http://lh5.ggpht.com/_Tp5JJFIIlt0iHHyC_A_gnEm1sxUEKDHmQr0oby74HL0rnFZ5JrnuvOTPk6_vulsU_GJue_7RAAX2Y7I2Wxw4A'
  lat: 40.132354
  level: 6
  lon: -88.292578
  name:  'Campus Solar System - Venus'
- ap: 5909
  img:  'http://lh3.googleusercontent.com/erdNDM4HaNMn_EeFz0IoM_0LQWykLGJ1Y7-URXSvEithPHs8Rnwf7oWZyxVKu7qOpPdKjeeCy3dkywZ7n6KrsA'
  lat: 40.111615
  level: 7
  lon: -88.235593
  name:  'Fred B Lamb Trail'
- ap: 5909
  img:  'http://lh3.googleusercontent.com/DJEd6b3-MwXXA5oX_rKCuAtk2dlQ1yS2p9nG8oDmc86DmbzFvhKsP-KR9nKAzn84UUf_K5LjjTMgrt7AjCoU'
  lat: 40.110853
  level: 5
  lon: -88.238339
  name:  'Boneyard Greenway'
- ap: 5722
  img:  'http://lh5.ggpht.com/pSVHjk6puyYdv3ztHlpJGnbkZyGsGsirMnxkDhlt8UMko4AhtTQbrzwInBCu5lK4Ttf7furE5pNW2AZh8HuSZQ'
  lat: 40.138109
  level: 7
  lon: -88.270158
  name:  'Glory Center International Church'
- ap: 5722
  img:  'http://lh4.ggpht.com/T-65fHAmnGmht8xdcXCF8weDy3uDecS4uOASIFtQBn7v84jrUpS3m9_rbJ1MNz5Syzjr8g_zO6YPklMYjlZQ'
  lat: 40.13695
  level: 7
  lon: -88.259966
  name:  'Goodwill Donation Center'
- ap: 5722
  img:  'http://lh3.ggpht.com/my_h4qixFMd6jwP9asxucVH5iZ3ZW1oV4DbCKeys_8MAAp1-KYNV0YFzZtZTEd9L0ZaMl1OqucHJTPdwROI'
  lat: 40.127447
  level: 7
  lon: -88.244069
  name:  'Hazel Park Playground Dedication Plaque'
- ap: 5722
  img:  'http://lh5.ggpht.com/kElaGOaV9aI8SrnM1D65gx9J0Ky1AKrN9Yo-pXVmDhELt2pee4MwVRiCqCmlqWzUWj5pS33GnEzAiXmiWKsw'
  lat: 40.108111
  level: 6
  lon: -88.229625
  name:  'Illini Sports Mural'
- ap: 5722
  img:  'http://lh3.ggpht.com/HX3mWBGofQk08Qdp7A6KMK1AnSXlLEPJR-n6oeX69Efiiss29GHsLiDsHhRS5K8DrXh-QXP1T0AMaOsJmx_w'
  lat: 40.106921
  level: 7
  lon: -88.230145
  name:  'University Lutheran Church'
- ap: 5535
  img:  'http://lh6.ggpht.com/cZVUlNaHjfsB6Lu5hnj8JjUk4lvsgOV7DFz4Nl47-RaQObW1VPRpos6hTDD6WgYrNxCh9UKfn5DFU-K7lRe9pQ'
  lat: 40.1164
  level: 7
  lon: -88.242747
  name:  'Sidewalk Art'
- ap: 5535
  img:  'http://lh6.ggpht.com/Qfyp6BK43B93Oo5kazv7b-62q_5cx5GKxXPyw6Juss-A6AgPx81B0lyWhzW7Ava9ztLzedt07gEh3ia2PPFDwQ'
  lat: 40.113636
  level: 6
  lon: -88.208146
  name:  'Jolly Roger'
- ap: 5535
  img:  'http://lh6.ggpht.com/3Z_ahLKZKpEJ_5dh8wG1jTBp6wvIadDrU8lnAkZ4flL_mtxKtbh2HxixutEK3usEaP47L6jU0VA1by70WIuJ'
  lat: 40.110984
  level: 4
  lon: -88.196857
  name:  'Victory Park South Entrance'
- ap: 5348
  img:  'http://lh6.ggpht.com/Ga3KqqKjCVdJ61URIBqkyBWPxV3xirqZoKzANDZmHeorlcqipmRLJFOy4-GmWU_2_783_KDPu3hkA0PNh5s'
  lat: 40.124082
  level: 7
  lon: -88.243434
  name:  'Theb Sculpture'
- ap: 5348
  img:  'http://lh3.googleusercontent.com/W5PjcRhelt3420IFjpSdOXtmIiv0M99Qv9Xupe6lckHDJDW4zHE9GyACkz8wXBF0_OIO2Jex9d7S8UQ4FJLa'
  lat: 40.118361
  level: 6
  lon: -88.244573
  name:  'Art Theater'
- ap: 5348
  img:  'http://lh5.ggpht.com/wX6-mbTE7nT00T6ildapKbI5ZrnhPIt4l91DhMseyo3GYFrgQIuqbjh8ntZY6NxGZ-qa6fKWlyoBOPdIdNIt'
  lat: 40.114653
  level: 7
  lon: -88.243729
  name:  'The Phoenix'
- ap: 5346
  img:  'http://lh6.ggpht.com/DumXNsG-1ULiWogpcQw-VzQVxr3f1Rb57MKc3GWEGzCwoIfDc8ErqGSPeDPGDyg_6fYtNnLQpFMP0zbDGTE'
  lat: 40.141598
  level: 6
  lon: -88.238817
  name:  'Red Shield Center'
- ap: 5161
  img:  'http://lh4.ggpht.com/B_I1b0Jy3vW41RX8jjCNPP68AULplU0Pf8ddolyKmpEWCfBVShQkmjF1HfTPzDjmBBQGgOs0jHW-rUR0mv8BkA'
  lat: 40.098789
  level: 8
  lon: -88.251685
  name:  'Curtis William McKinney Memorial'
- ap: 5159
  img:  'http://lh4.ggpht.com/mnyMwxXghZOmxdJw2eJk5U9A5sfO_QLi0eKc2knF3RS3bJhiIa0N7N75KIzjEehKD3ChMFgaOHVRltiOVAw'
  lat: 40.125074
  level: 5
  lon: -88.251776
  name:  'Spalding Recreation Center'
- ap: 5159
  img:  'http://lh6.ggpht.com/uJ6kk4uQVfzQ22nbmRS5caadkRcM8fSpAlbvgM8KacYRDBYZtQTBKIHX7ju9ejvrdRG_oIr5QDELOwvb7L0'
  lat: 40.121759
  level: 6
  lon: -88.24366
  name:  'King''s Assembly Church'
- ap: 4972
  img:  'http://lh3.googleusercontent.com/hJZWoErzM-MuXulq4FlhlZwMbJX1Isd81GBUBVKayd57jVIVxUle3itd-1DRKo2VaNXznWr1X639fa44Etk'
  lat: 40.141919
  level: 7
  lon: -88.244611
  name:  'Marketplace Mall Carousel'
- ap: 4972
  img:  'http://lh4.ggpht.com/0JuC7vEVtmbgkx1FUhaTylcKfKuYoGNdW2P5GNZzGbeOzxEH0Q-9gP9gmmBzx2bkLNA0dnw9FiEJYiHjWXM'
  lat: 40.121329
  level: 8
  lon: -88.24558
  name:  'The Gregory'
- ap: 4972
  img:  'http://lh3.ggpht.com/tXDyz6XRrR2AKSg9Rrj1z6jBG4dz7uR9qFmSUO1bWljMEw67ncNiq-2Hx3O9Fs029iRtvCV1gdlGN7pG69L0'
  lat: 40.114104
  level: 7
  lon: -88.237694
  name:  'Lo Park Fountain'
- ap: 4972
  img:  'http://lh6.ggpht.com/eeOtj4-6PU8Dt6QXk_TJjgkoEGRW9L8YzUqZE8QV5ZMCHnqA5CzoQoxKpnjCvXwaIflUUvPJmO_S7BdvMhcuzw'
  lat: 40.117588
  level: 6
  lon: -88.241787
  name:  'Adam & Eve Mourning Over the Soul of Abel'
- ap: 4972
  img:  'http://lh4.ggpht.com/DJiaqGgwCaKSjYczELIcjQOeBtoEqd--7TZYBJWO9_Nd16vjKwlco9tKatJTdAKT1CPoO7Cj39_rZvp8p0Ch'
  lat: 40.087241
  level: 7
  lon: -88.248222
  name:  'NCSA Blue Waters'
- ap: 4785
  img:  'http://lh4.ggpht.com/GcCZ7JTzkEHTZnUWfpUgibDh2Wa4nzGM9-k13AG4I2RwFiPa6exz1vCzj7Hwvf_oPwJvYJt0xoRE6GZXmCMX'
  lat: 40.132625
  level: 6
  lon: -88.292636
  name:  'Campus Solar System - Earth'
- ap: 4785
  img:  'http://lh3.ggpht.com/NfRR7PyM2-UNoQGKgRsf6sUZdUTMp0sWqha9caVs49hYb0AnT9OznQX0dQGxKJNP6KiHWJ0WRUMSQh1m4-rwvg'
  lat: 40.117976
  level: 6
  lon: -88.245082
  name:  'Robeson Building '
- ap: 4785
  img:  'http://lh5.ggpht.com/QY3-GLhJdz61itX17DuQSrIrTixLDL5l-k33n2ZriKEspP8A7RooZfj3ocL-d6IC1S-Q81PABhuYHEkorzQ'
  lat: 40.121262
  level: 7
  lon: -88.244556
  name:  'Citizens Honor Tom Dodsworth'
- ap: 4785
  img:  'http://lh6.ggpht.com/KD5w0ez9F7rd70ylNnKO8m3t3aROeGF5SZIUT23pb6WisqWmVYgW1SBL-jgNAPy1UKJPgoTlgGjEK9P1BCqJ'
  lat: 40.11243
  level: 7
  lon: -88.235749
  name:  'Fountain at Scott Park'
- ap: 4785
  img:  'http://lh4.ggpht.com/XlTZ26_29c4-74t23p1lgghqNfLI7aS3_kradmcl7vVQzV9jJRu78D1HdzJf-sWibnak644kxCBJDnA594PVaw'
  lat: 40.092849
  level: 5
  lon: -88.251586
  name:  'Boulware Trail'
- ap: 4598
  img:  'http://lh6.ggpht.com/f3cOUn1gqLkJZQzs4-Y9j6j2ZXbb1Kmzf3klCFzF8zmFSlZZ-B6O4-5t1KIX95jbYUjeqMgOohEf1ilF75Uqyw'
  lat: 40.132777
  level: 7
  lon: -88.287351
  name:  'Parkland College Prairie Restoration Reserve'
- ap: 4598
  img:  'http://lh4.ggpht.com/0UzQDuaKLiiPhEgEmKghfkzvXj6lROhxPIDJuI4nWLJFvdxJwGNcJZ1va0K_9cy4L2u0Zyeqv_qlIAwch5o'
  lat: 40.133475
  level: 5
  lon: -88.293988
  name:  'Parkhill Applied Technology Center'
- ap: 4598
  img:  'http://lh5.ggpht.com/BoAN9OSCH5u7G1sestzZaXjjik82i-SteF6-r5KTTyl530q9H5G3ibjJdqpGGY-nL8MypRXn2twwvn_y5nMmug'
  lat: 40.133159
  level: 7
  lon: -88.28778
  name:  'Campus Solar System - Saturn'
- ap: 4598
  img:  'http://lh6.ggpht.com/ea6HxAw7m0OhhPqJJkZR9u60pR1sab_JdxaOyEltqmQd-63FFJzPY72jEnu08g9Gcjjj5cf3jyyS_M1E7OIbfg'
  lat: 40.11616
  level: 6
  lon: -88.241422
  name:  'It''s A Mistree'
- ap: 4598
  img:  'http://lh6.ggpht.com/XsUl74M1oxj6ptAvGEBOMH2wivRhxBNns62UJSGcPiQkuJIgPrmUYxMpSZZUfXRMMjrwoxlFK_DbAM78UrOh'
  lat: 40.113499
  level: 5
  lon: -88.244374
  name:  'Shatterglass Studios Mural'
- ap: 4598
  img:  'http://lh5.ggpht.com/85X0vnlHzLPww3OziBoMSVfkwq66eKQNZ9Mn6qsjghvteOQZiAVlsY80NVcsErHao0QYd9IyF7PDJyp-jaQ'
  lat: 40.101632
  level: 6
  lon: -88.233133
  name:  'Sunken Cube at Art and Design Building'
- ap: 4523
  img:  'http://lh6.ggpht.com/YEHyAsx3ysK3IxTTbSx5dLEcHRtRVKQ4XTvE0Kvkd3iIW3mA6lplwojkVOpWCemyQS6G3JESxZnMFQtVf7V3'
  lat: 40.11652
  level: 5
  lon: -88.241845
  name:  'Mike ''N Molly''s'
- ap: 4598
  img:  'http://lh6.ggpht.com/2lDM_Uj6QcUJmWkmPhNWg-vfkJbBQAo6zb7eXC5qDTaJ5xAsoU7jPPqYmLo7zztC2Za1oH3QVrHQ78-XabqR'
  lat: 40.116398
  level: 5
  lon: -88.242485
  name:  'Champaign Servicemen and Women Memorial'
- ap: 4598
  img:  'http://lh4.ggpht.com/AC0e3VVFenyh_tf4lpcee6alCTlto3O4cqychnUlTFCiLaMi6RUVh6BAC1-pjf7f7foTLFALejQiRxf1kKtS'
  lat: 40.104417
  level: 7
  lon: -88.24332
  name:  'Wayland Smith Estate Garden'
- ap: 4598
  img:  'http://lh3.googleusercontent.com/0sr-qQ4Z1TW1AZ62RFHko9Cbb8g36Renb3nRyxFJr_r68iVMsuh_EwrbThhXg2hVyqNQSjX7rFVvrWpfHS4'
  lat: 40.103958
  level: 7
  lon: -88.240451
  name:  'Bruce D. Nesbit African American Cultural Center'
- ap: 4598
  img:  'http://lh4.ggpht.com/H1kV6JSczzSbcCblAHg5ZOgITW1mBAz0_oLbqbzxBlijGTBn7TP6KwA6UI0AAGrCN4VF0DAF79Vcj6_2R4dsB8LRTq6tud6v'
  lat: 40.107753
  level: 7
  lon: -88.228913
  name:  'Zipcar-Wright Street & Daniel Street'
- ap: 4598
  img:  'http://lh3.ggpht.com/bz4oo3jSLlJ5qqBYGa0PxySc94PdeXA_iAJpXuHQpMh_nxxmIIINM6cZeB6L9wkzZVFu9NkM5j2wSTSqPUs'
  lat: 40.114803
  level: 4
  lon: -88.207948
  name:  'The Station Theater'
- ap: 4223
  img:  'http://lh3.ggpht.com/9nRBPBevoSH63TqH_TIguV2jgvD-cPd6EMEg6i9iTDzR_ciJpmWoK-FK3WDc0M9qnBhPQjn7uZEMwAT9icqY'
  lat: 40.112227
  level: 1
  lon: -88.196705
  name:  'Victory Park Neighborhood Gardens'
- ap: 4411
  img:  'http://lh4.ggpht.com/XmQtS5vWS277-auG5r5x80jUieF2311Xfv6rWkYqVBZ3wz2cqxRtgabyzOhXn0fCpSpDD6Y_CFd9Rzti4eqj'
  lat: 40.148874
  level: 7
  lon: -88.268577
  name:  'Newt Dodds Tennis Center'
- ap: 4411
  img:  'http://lh4.ggpht.com/EbBkWl7u8IzfuSOKbXTBKdMileYrjubgGK5MOwxzEGIDtOO8oYloK2Mh-oe6t3SLxiC4Dul0W7en-SG0hw4'
  lat: 40.124346
  level: 7
  lon: -88.243367
  name:  'Bannon Mini Park'
- ap: 4411
  img:  'http://lh4.ggpht.com/4_MOw_NKr2wZ2lzAzG2FlLtA3tfOfWqBZpNVP43LfN6ilD6qHRfZ-_wA1Xk8BnCqHKqKdqodC70X09pqtNXXqmNtK-uqo-fC9SZyOjT6ERfJorzg'
  lat: 40.118388
  level: 6
  lon: -88.245358
  name:  'Springer Cultural Center'
- ap: 4411
  img:  'http://lh5.ggpht.com/aeGh3iXJqJ7skg-2JHEpngMSfcp1qDIEPoLMxzQNqbS5Y7HcxN7oE789bXiVFoFIcdCn7-3AhLPtxT_WE2E'
  lat: 40.0985
  level: 7
  lon: -88.248681
  name:  'Siti Sculpture'
- ap: 4411
  img:  'http://lh6.ggpht.com/yjfa0jJLjsfLRf9Zn9iafMp3MuIhgCi0WiOCF8GqTGiGvzEnsPGrFa0H1n-uzWhVehLbt44ShthsA32VzHd5iQ'
  lat: 40.099737
  level: 8
  lon: -88.251157
  name:  'Tyler Van Atkins Memorial'
- ap: 4411
  img:  'http://lh4.ggpht.com/maBwz4G9LJZ5aVuX_WF1Z73xSbqoFsm3l6oyrNQ16LkJMvaEbFa-amdfCpKDVDe7NzjReNu8IGnn7BAI8yef'
  lat: 40.103534
  level: 8
  lon: -88.243478
  name:  'McCollum Park'
- ap: 4411
  img:  'http://lh5.ggpht.com/N1cFx79JwZqPlYPDW3HkNwRX8N4Auriii45qzYkAx9l-cKeK81qgZ6nuBpTBEIOyLzy4aIIhQKt2E7ZiysSjkg'
  lat: 40.10036
  level: 8
  lon: -88.250515
  name:  'Mark Foutch Pavilion'
- ap: 4411
  img:  'http://lh6.ggpht.com/FsUBggh0M3sjncoth6JaamkCglQtDsuiR89k30B2sMp7srgh0Hz6trgv7BhNRSJA6qI7OvipV8B3XEhzHmaNxA'
  lat: 40.113513
  level: 7
  lon: -88.207559
  name:  'Black Dog Smoke & Ale House'
- ap: 4035
  img:  'http://lh6.ggpht.com/wk0l8Qe7j_Ph_LhyPvdNO6g8nwrxpswodrbNuOzLa3K1QNBrIVidi9iztmDXu3HtCWo5TpqDDjPsEbSl2aWUKg'
  lat: 40.144554
  level: 6
  lon: -88.248689
  name:  'Town Center Park Champaign Park District'
- ap: 4035
  img:  'http://lh3.ggpht.com/sEtB-WtZgmk9Bt0i07yNcTAXMhYB5KL6O1iQVnxq2V6mW6r89EY67NajUUF9c87CmLtzpwLsF_X2dYEcsDF4wA'
  lat: 40.112935
  level: 7
  lon: -88.220489
  name:  'The HUB Campus Church'
- ap: 4035
  img:  'http://lh5.ggpht.com/KadNuhjGK6FUXezGHW1W1kfPOQV5l7gJP594EQm5nPZFLTgcTsjl4ixa-j7XitgtyJyou3q0pTfMr4i2E_avIA'
  lat: 40.118013
  level: 7
  lon: -88.243445
  name:  'Clock at Neil and Main'
- ap: 4035
  img:  'http://lh3.ggpht.com/Jjm7ZUINFebdUQM0ZQth9oP9Uyw8xFVkOvgyZHQPHJ1pHk0-WPWHpdBULljg6f9GLhbmItzSwpavqyrf1zXwIQ'
  lat: 40.087721
  level: 7
  lon: -88.248276
  name:  'Work And Play'
- ap: 3848
  img:  'http://lh4.ggpht.com/yi9OPnLGsLTvtOMNuOUfed6edO9tB6h0QmSHJaKKaiMyEXC8Aj2hz9hIvgh8C2DY76mVgNHw4S0gsYpkPpkt'
  lat: 40.148692
  level: 7
  lon: -88.248724
  name:  'Fountain Town Center'
- ap: 3848
  img:  'http://lh4.ggpht.com/Ww9lgcscjGtB0ieiqyf2qK2ZzV0y3mZVpoi5ZZdPpArkbOa2B5aNli_k7t86GjD7eAeEFOw8W0oZvfr61S6Kxg'
  lat: 40.139196
  level: 6
  lon: -88.257755
  name:  'Market View Fountain'
- ap: 3848
  img:  'http://lh4.ggpht.com/vKkSwERLa3zQO2UUIiYl1AEruAx1QTPcP4jSmPt89PG4AviJ1WhlVVH8qmqJ0aY2gqJmHcqdZFcM2pQconc'
  lat: 40.139375
  level: 6
  lon: -88.272793
  name:  'Salt And Light Ministries'
- ap: 3848
  img:  'http://lh5.ggpht.com/QruW49d2dc1uhQlK1BaZIeo6ruDNkqQfmvZz83eQ-1aC9ytGUcpFaHnKRTnXRc70F2EZ0-pVKGr9Slo0_9RfxA'
  lat: 40.139749
  level: 7
  lon: -88.273955
  name:  'Northside Church of Christ'
- ap: 3848
  img:  'http://lh6.ggpht.com/WA_L9RXB_ZwCyxpgQ7Lyjp1-4xTl5O-BQohOBQcoEMnP7-wKp--MGUdnY_DPuCGZ78-x0LtEWc8FT2n9QMPS'
  lat: 40.148879
  level: 7
  lon: -88.258423
  name:  'War Veteran Memorial'
- ap: 3848
  img:  'http://lh5.ggpht.com/j6Gqd19ib1ziWv7UKoq4_fMXeXtxxdV85TchQ49_mIgeJYs7oUWOj860aB2Ok8NGNY5wNfMqDn7zeSKOgpxEzQ'
  lat: 40.108781
  level: 6
  lon: -88.271694
  name:  'Champaign Church of Christ'
- ap: 3848
  img:  'http://lh3.ggpht.com/3rw0YLp6-Ui3LAecadtTtTgoMRU7Q6vPRiNiSCod3Qb-bGjOJxf34EEnZP89KvnrTILkQM3PIE9-CIdmasz-'
  lat: 40.112897
  level: 7
  lon: -88.219672
  name:  'Mennonite Church'
- ap: 3848
  img:  'http://lh5.ggpht.com/g7QDa6-HDyxpwueVfcxh6KOOM1S5jAd2MOOL2H5PYpeafOfFl-8hbijtMhWLHWrvlOdKqglGRiiaWMsEWLN4vw'
  lat: 40.116989
  level: 7
  lon: -88.242255
  name:  'Blind Pig'
- ap: 3848
  img:  'http://lh3.ggpht.com/wkPcdDupubV3THJo6r2OpMtshziiIkqBISPTCPe8boa-8nH33u83Mznkr1yYWNR_l60RCy8HO_obqrdNGUI'
  lat: 40.093633
  level: 7
  lon: -88.246611
  name:  'Fountain at Illini Plaza'
- ap: 3661
  img:  'http://lh6.ggpht.com/v2m1E6vVK4ZRaRPhGli7jCsG7xZQZ7I3vV_5AogdEpPU_A1vz9WEkH0vZ-vau2IAdmydYJcXrOA6SMr7vUfT'
  lat: 40.128726
  level: 6
  lon: -88.290287
  name:  'McMillen Ehler Homestead'
- ap: 3361
  img:  'http://lh3.ggpht.com/uMCsrCj0b8EWJ6Hinp58rZ4hjaPm9kBAK5q0aDNtkP3e1Zk6Gh_0COjtW2YYBNzPxGDjJLB4DIXmiyvmrCJkRA'
  lat: 40.128083
  level: 3
  lon: -88.290812
  name:  'In Memory Of James D. Pruitt'
- ap: 3661
  img:  'http://lh4.ggpht.com/dzQSyJummIX5lEBsPg0bjVUKgWuducW6OgwYfPUATs_OtoqhXsCvhVFuC98ULi8Gvi0ywyeTUACotvmS32A'
  lat: 40.130306
  level: 7
  lon: -88.253037
  name:  'Fagen Truck Accessories'
- ap: 3661
  img:  'http://lh5.ggpht.com/i4vhf0keizfRaw4w5qKu8YUc1txf5iLQ150hy6mMCfWoAnogMM1zvuNMLHWlmD71OFWisN1QR3VA7VWviCpm'
  lat: 40.130238
  level: 7
  lon: -88.253835
  name:  'American Legion Post 24'
- ap: 3661
  img:  'http://lh5.ggpht.com/zdaFJ-aI4Re55DtEiADt-qd1MMBuWZqEByU3BbT-0eYI80maTD-8JB5vJgtwKPFsFk-V75s-itU-cBisa-W9'
  lat: 40.132819
  level: 7
  lon: -88.286151
  name:  'Dodds Park'
- ap: 3661
  img:  'http://lh5.ggpht.com/tZ1lEGRzdFJ7k1jwj0PTGd3tWVTGqCHIb1LcRdjc2pF5IJjsuYFFPQgwEWSBaPapa89oOEPXO_g2XWQxQl2h'
  lat: 40.110212
  level: 7
  lon: -88.276899
  name:  'St John Lutheran Church'
- ap: 3661
  img:  'http://lh5.ggpht.com/nWEtxuKQdy0teBBue1DYmG7P3SF5-3A6zlB7GwVHBWlolAZYGq6Br78lWcF9ltFy-KeSlozXie2RmU6JfCUX'
  lat: 40.142673
  level: 7
  lon: -88.244603
  name:  'Italian Statue'
- ap: 3661
  img:  'http://lh6.ggpht.com/WVVbmiu2GGTnPTszcnYYILHKlkZDoxB-QY6Yv7YPoUfdVn92jYnKjpVKNkfWdFrPjq-BaFeKGJWLZlE-bbA'
  lat: 40.120467
  level: 5
  lon: -88.2577
  name:  'Salvation Army Church'
- ap: 3661
  img:  'http://lh6.ggpht.com/yoGdHEqpRRqOE5pA5wHdi_ismU_TrB-kTiqVV63EO630KsU608TIfjLijcqJ38At7MyyrE2urWFMPY1Sops'
  lat: 40.118121
  level: 7
  lon: -88.258039
  name:  'Mini Park V'
- ap: 3661
  img:  'http://lh4.ggpht.com/W2chhQwPqSJEkl57NVoIL-OE4KFvJfp7Bsrrxza1apCYltcT3npz95LJxqHxvT9ZZu7wxF2gQy-5bpKal2p2'
  lat: 40.115838
  level: 6
  lon: -88.241338
  name:  'Illinois Terminal'
- ap: 3661
  img:  'http://lh4.ggpht.com/IAi2A1ukQunZaoCY1OUJnvZC_MAEjnYzlg7vcsIuPQyLIB710_5ueVQ3El8Pok0aNvlB18-Tdo1euhYbaf0'
  lat: 40.115224
  level: 7
  lon: -88.24957
  name:  'Linda M. Wesolowski Memorial Sign'
- ap: 3661
  img:  'http://lh6.ggpht.com/_rfJReDlJdrYezXwl9C7a4r7ZMCEE2RZ9dek5gQwKkC4sFtmFVfYF7S04SQXmjcksfbCvLWlOEuqOjxWnX4'
  lat: 40.12284
  level: 7
  lon: -88.246749
  name:  'Queen Smith Memorial Garden'
- ap: 3286
  img:  'http://lh3.ggpht.com/1G0o5RjtXyfAjbI-E2honhhelnuiq4lIkpHmB44e-AwSBuIxVOdLPVYjImbTMS8kyBdZuKuiMQHciUIdAWg'
  lat: 40.118368
  level: 2
  lon: -88.243737
  name:  'Frank Robeson Memorial'
- ap: 3661
  img:  'http://lh5.ggpht.com/R4YsY7oUfZDrMJ3QJtIKwNvcX7K4vxIpwfLebL2U4x5m1UibakO0KUZJXqdfYe-W9IUNBmlCu5LlSy6jtKGM'
  lat: 40.105323
  level: 5
  lon: -88.239595
  name:  'Campus Post Office Services'
- ap: 3661
  img:  'http://lh5.ggpht.com/qq3QmeyCYxWnJF_DzzI5wVvHF4foNyr_bF3_j5eVPHJ1omSbD2INOifPJEO3pjz4X1l4_wMGD4uOT1_w6Tid'
  lat: 40.086713
  level: 7
  lon: -88.248293
  name:  'Garden Patio'
- ap: 3661
  img:  'http://lh3.ggpht.com/X30u-Y3JoCurNlH3pvt-DlJeV7obUlOeBDbH-tkN6QcPEHvknjSz3nYF8EGtXWani_tyNgcyl2naDFhje8E'
  lat: 40.083706
  level: 6
  lon: -88.251419
  name:  'Harlan E. Moore Park'
- ap: 3661
  img:  'http://lh6.ggpht.com/pxaCt7clhIXc1RVGMMJZsmnbEWNWjFYJiUrQMev_SeOmXBothvOzmfnirQ5_W8CMa7hpigqydQhKMa4XFCAi'
  lat: 40.108173
  level: 7
  lon: -88.230209
  name:  'Mural on South Sixth Street'
- ap: 3474
  img:  'http://lh5.ggpht.com/auV57ljlnFqueFTLTeFUjp6iIJxsNFs7P_alBDZ2FNvEvUPvRMBhZCrgQOVfMPf7RIyYAHZLElyAiVoJXCFYkw'
  lat: 40.135716
  level: 6
  lon: -88.291946
  name:  'Campus Solar System - Jupiter'
- ap: 3474
  img:  'http://lh5.ggpht.com/5bCoRsqGBM0hx50ymfbZ8NhvyAyQDJWMnSg6qaDe-zxvwzVZW6O5IZWCDefH-pIsFZzvUaCcBBK9kqNDwXW3'
  lat: 40.128048
  level: 6
  lon: -88.290536
  name:  'In Memory of David Foster Wallace'
- ap: 3174
  img:  'http://lh4.ggpht.com/gDYX09ZFI6Jya_d8cBX7Kg8OgMkVexBWJLWt1ceC8s0aizrm_ehDYtMwFiwAqpetr9_VsiAJZLFkAYWm_oMt4Q'
  lat: 40.128229
  level: 3
  lon: -88.290607
  name:  'In Memory of Lou Henson Jr.'
- ap: 3474
  img:  'http://lh5.ggpht.com/UTu16bRRNKyJj2cFsU4mRCMkGJbH7YCAm0gQdiJKjnnZtB00kMEb_-Lhf6AnAXRia4MH6FBrWQGkBCrMUz8'
  lat: 40.120135
  level: 7
  lon: -88.253121
  name:  'Rain Garden'
- ap: 3474
  img:  'http://lh5.ggpht.com/9XV46K2cUd84oc6HPyqlj53LKJS8lVs0f0gPHSCBkkTwiHaxivu36dlAj5M38EzK-2U4xhvZJ7AiVvGM5yk'
  lat: 40.118175
  level: 6
  lon: -88.244562
  name:  'The Russell Building'
- ap: 3474
  img:  'http://lh4.ggpht.com/PfcTU4XsA06ThtmCWydIWhTsN3gR4jrqnrKxu0O5lhyibhRdKMEaf3jM8VNhViF8qLf13b01E71wr_ajxn0'
  lat: 40.118465
  level: 7
  lon: -88.245077
  name:  'Mural at Nitaya'
- ap: 3474
  img:  'http://lh4.ggpht.com/9dqmZPc9OI1ON-iEnfXAxSAMX2M07pEgKUsb47vLrTrW2BW61siFLquk1fXbldWXGPg69XGdSG4wKPGS5rI'
  lat: 40.113521
  level: 5
  lon: -88.244122
  name:  'Artistic Graffiti at MCS'
- ap: 3474
  img:  'http://lh5.ggpht.com/dRrlHXlT2nMNgZNHiYo52ha9L-Xay9DyOJR2Cpqs74hgAJ09abn9OTAtMzRVedt1_R9ObZllLO98vRhNMfgTgVsJCk1S-HJwX_XgiGpG4lz3a328'
  lat: 40.11671
  level: 6
  lon: -88.24263
  name:  'Cafe Kopi'
- ap: 3474
  img:  'http://lh5.ggpht.com/93SMm7gYjGLu_6bFOqGL5MXKxKF_NsnHuxiDyywI_Jrhz-LaQoNlm0yw7lG0I9rhp5vnHkATk01A_CNYmYf-'
  lat: 40.128358
  level: 8
  lon: -88.243471
  name:  'Champaign Church of the Bretheren'
- ap: 3474
  img:  'http://lh6.ggpht.com/NMgUdPOdhvhvKZh7ugwXgybshZBZ2mkaEWMNKYdFPX6cfIYENSCqE9YpAXSNVuq_9VVWXJB-ShCBAPfF2Yvs'
  lat: 40.102513
  level: 8
  lon: -88.243679
  name:  'Robert Hosier Memorial Garden'
- ap: 3474
  img:  'http://lh6.ggpht.com/2NvBiEF5E3wBXJ0JKc8NUUbuZm1PhUhLId32Sc_hNjaonDtojWnGWZRYwJgz-UJwMgucV2NHBfCK_51gIyU'
  lat: 40.084725
  level: 6
  lon: -88.251794
  name:  'Masonic Temple of Champaign'
- ap: 3249
  img:  'http://lh6.ggpht.com/sASzuKZleVbY8UGdZnFzs0GXiOHosiNDf-GldJNSs-w2k410HzHcqBrjuvNoklKZ0G4mwuhXmvFPOMlrFXRZ'
  lat: 40.085468
  level: 3
  lon: -88.251369
  name:  'Mattis Park'
- ap: 3474
  img:  'http://lh4.ggpht.com/bYrhTw8QophdiqDG-upqJ6JX2g2tZYX4N1jC4d_cciIj4ep8oQvIgjJlfge2VCmzSZe9irj-BTpbj9Jcv7U'
  lat: 40.103009
  level: 6
  lon: -88.233215
  name:  'Mac and Diana Garret Memorial Tree'
- ap: 3474
  img:  'http://lh5.ggpht.com/Lup2et0i5h8oHqtBffIdoyX5uclC2MBn9ZnnKnYPr4RIFSflf9bi78zBHK7QqycA0qgEev9qOk0zU-1o1hg'
  lat: 40.108451
  level: 7
  lon: -88.228733
  name:  'The Centennial Colophon'
- ap: 3474
  img:  'http://lh5.ggpht.com/Zoidr1eUAO2UEM6SyifBpkC3K42Ctl355Krd3S2ZU3BbbIMt1XFKF4C35huJT7a-K1PMF6JCK3ztTnr2Wbc9zw'
  lat: 40.109178
  level: 4
  lon: -88.22945
  name:  'Pineapple Pillar'
- ap: 3474
  img:  'http://lh4.ggpht.com/twbc9Orzt8vZhGO-EB4zI9fLIkHjJyN7_sN6QnjsPUVf0W6hTbPtNhiDPejMdK6CalgOPTUXqK2iTtKIE2wK'
  lat: 40.127246
  level: 5
  lon: -88.210084
  name:  'Gateway Trail Information Kiosk'
- ap: 3399
  img:  'http://lh5.ggpht.com/sF7lKjQa6S3nhaNE0eY9h2BozLXUrtnucsZvqAKKD_ZrLPFTVf8thR2l28H7-R4sxheNrwB3hEujhIk1_4E'
  lat: 40.126699
  level: 5
  lon: -88.209995
  name:  'Fly Fishing Sculpture'
- ap: 3474
  img:  'http://lh4.ggpht.com/n7S7CjMfxfFwYHpq5HrRc6lFaFZYFVb4vYJAcTAc8MZgOgDNYI7QBChMeKIY-OSJkDSdwCf5KsJYmDesbHhq'
  lat: 40.127017
  level: 5
  lon: -88.209948
  name:  'Busey Woods Gateway Trail'
- ap: 3474
  img:  'http://lh6.ggpht.com/yyeYUYh4CQUjDkChdMYxhBGtyVNFeOxie-Qo2rFmwnp6dxmIx6wYlfyU88vIxtwULKprz84mi2fmqu2vMOo'
  lat: 40.114764
  level: 4
  lon: -88.20772
  name:  'Station Theatre Memory Bench  '
- ap: 3474
  img:  'http://lh3.ggpht.com/Mq79WbQ1w5yLCoU_4h7uMnsGDj7g46MAzSE-sfiiMY6H3h21xj3qNtuvBBWvMMUEmkBuZC_gI90YQhbAMSGU'
  lat: 40.115386
  level: 5
  lon: -88.207887
  name:  'Broadway Ave Mural'
- ap: 3474
  img:  'http://lh6.ggpht.com/jEub4RTtKqfEcjYNQDMtrj2tUL_R6e1kqZRi-xU7lZ00Gkn309unaXkzNzft6a67crWBUzDCb21a5HTTuCc'
  lat: 40.113065
  level: 6
  lon: -88.207546
  name:  'American Legion Post 71'
- ap: 3285
  img:  'http://lh3.ggpht.com/_K7sIxE489M-QkUoRrgaLB_XBi9BcOI563VzvhOcmhjwHsLO51ORrhkiWZkqThKNBlPAYzclT_qdR_sGe8g'
  lat: 40.114277
  level: 6
  lon: -88.238879
  name:  'Prow 2'
- ap: 3098
  img:  'http://lh3.ggpht.com/rgh_2qJQUPC1OrARUkiQqPKoNReiqZYOimm5Nszb77pDh72OszuyiJBKn-vDxHUuyjO2XTeKU9GBHc3oHIYr'
  lat: 40.115283
  level: 5
  lon: -88.287899
  name:  'Greenbelt Bikeway'
- ap: 3098
  img:  'http://lh5.ggpht.com/yK94cjys6dDm62pDsBwEKJP8ioxZEFbb2oelmT5ZMmaNZPkqAXW00NHP3_7fvtyG796u2ZhKGfbY7To9Sdtz'
  lat: 40.088063
  level: 7
  lon: -88.248271
  name:  'Still Waters'
- ap: 2911
  img:  'http://lh3.ggpht.com/xAJIzhGMpnqEYisIgB5-btiULPi6cL4uLys9fqf8_smF-6qAXP9rUsCbWIgPVIIHfGINQNF2Ypx58YvDo1hh'
  lat: 40.127093
  level: 7
  lon: -88.23927
  name:  'Bridgewater Park'
- ap: 2911
  img:  'http://lh5.ggpht.com/BPYtoLzDqibtj79fwGYxizNqHsBoJp5OzVO4Z-75rudKppazgw7D0eoXHOpH20iQd2Uc9MHXs72-r7fOJDNzpz3KRHIpZwzmXBope3LI8GA4SfsY'
  lat: 40.117754
  level: 6
  lon: -88.241676
  name:  'Jos. Kuhn and Co. Building'
- ap: 2911
  img:  'http://lh6.ggpht.com/ZpJuVeWuDsVo9oPzh9mGzFjeTz2FQluKlriJijNL29HFEEWmMBqok5fCxVis8MpHqJYCBQUhRLNU9yuE7luP'
  lat: 40.129233
  level: 7
  lon: -88.238696
  name:  'Bristol Park'
- ap: 2911
  img:  'http://lh4.ggpht.com/Gyz7BDhWdUinBQfD8duByX5-aBgPmB9oSesH20dH8uGJnTiaIHkeRJARtH6YQUUD5A5X2IjPTlT989AfutNc'
  lat: 40.092773
  level: 5
  lon: -88.250951
  name:  'William C. Fox Waterway'
- ap: 2911
  img:  'http://lh3.ggpht.com/ugJXpaIWZ-wI1vpderJmQjM8r0T5_Li2j4hvvsu4fRM9k3MeBpETqj2LFNd1pEkcfH0I9bgZh--5g1AEJKkq'
  lat: 40.092745
  level: 5
  lon: -88.251235
  name:  'William C Fox Honorary Plaque'
- ap: 2911
  img:  'http://lh6.ggpht.com/MzDfG6eMMwVr56zIpVxRJKU2aoUq-95CLeBhoiEQQKzpC2zulq5jFDLv1IK0JcRy5Q0PhRAreZ1p2ElsdnNu'
  lat: 40.108048
  level: 5
  lon: -88.226279
  name:  'Nuclear Magnetic Resonance II Plaque'
- ap: 2724
  img: http://i.imgur.com/5j1qaiT.png
  lat: 39.987482
  level: '?'
  lon: -88.269801
  name:  'df77244c1c974712aa97b436f767a677.16'
- ap: 2724
  img:  'http://lh6.ggpht.com/RR0i4QdfoY8NkTQtssdOtDLhAEaCR7e-R4ipk5NzdKe9lTGDq2nyKI_7sF2BCXrgCZAZ2zEEtIzS7vg6Pu0hzA'
  lat: 40.126458
  level: 5
  lon: -88.218544
  name:  'The Vineyard Church'
- ap: 2724
  img:  'http://lh5.ggpht.com/M2qxWsTwaMcr-AB3UJByAcCokQ0ptyf7KOh8-SmB1Rsu9ZR9D_hI6lWNZF3oGtoU6FzZVeT08h3IEn-e-_8'
  lat: 40.1279
  level: 7
  lon: -88.289974
  name:  'In Memory Of Charles Eddy Shumate'
- ap: 2724
  img:  'http://lh3.ggpht.com/jr89yrsC941ycnfQPQzYkTPCedQ8Suo8eiPCcNLvq0n0fw48_pywxGTqTsKaVh_KXAiza3ke5pjMejqiaD0'
  lat: 40.111568
  level: 5
  lon: -88.267345
  name:  'Illinois American Water Tower'
- ap: 2724
  img:  'http://lh4.ggpht.com/iF9ok9WK8tu0rwNJsbJggC_OqQxiqKIF9QRpGOgIrlZa4Dr4JYrLxWeFDe43Js9WGFiKCOlMNMZapd_SBQ5T'
  lat: 40.111945
  level: 6
  lon: -88.282707
  name:  'Champaign Cycle'
- ap: 2724
  img:  'http://lh3.ggpht.com/NgusMNa_MQJauBXm1lCWXnmzNqo5-TB-ihUlPa_vaI83WESAp8ChhEVR7KuBr_Na2-hzlLU7AB_STTq1gu7cwQ'
  lat: 40.112585
  level: 5
  lon: -88.271575
  name:  'Bobo''s Barbecue'
- ap: 2724
  img:  'http://lh5.ggpht.com/e6wN_SlFuF59rOEwuU8BCPeT0WsXneW_OcsXpZ75pgQd0PQSfnKhmLyrK5PDkisRwjV2DfAfVp7T3ryHoGKX4A'
  lat: 40.076779
  level: 5
  lon: -88.249144
  name:  'Triptych Brewing'
- ap: 2724
  img:  'http://lh5.ggpht.com/BRRDKCyBRSA90katSWGccxinlIeZVFPrMr-6O3bI9db463bYKB6Pb_Iw3vWmyCktM38SU4rZCqUAask_yJJ5'
  lat: 40.115438
  level: 5
  lon: -88.22582
  name:  'Learning And Labor Plaque'
- ap: 2724
  img:  'http://lh6.ggpht.com/yoVMhDWju7bkAa8CImnlTqi4n2uH0odsX-LgEGeq_lqcXSmf2HQxX-c00NB1noOlmnFs51tZqBQXBLIJRfr8'
  lat: 40.117495
  level: 6
  lon: -88.241616
  name:  'Lincoln Building'
- ap: 2724
  img:  'http://lh6.ggpht.com/NH1CnJnblS1bpZxZJ0VxAHy0tYw7BiYdVK5V9KnTw0N1KMf8OFR6FZP01shVet9ha4cEfSYufO9a1bv8Sqyd'
  lat: 40.12142
  level: 5
  lon: -88.243105
  name:  'US Post Office, N Neil St, Champaign'
- ap: 2724
  img:  'http://lh3.ggpht.com/xN5qaZ1d4qIQE8TID35MPTmzahhM09EYDVLbu2aeCpRJz9XntEf7R0XswEdQDOmdMpZxIEyNyqsC5qll3vfv'
  lat: 40.082343
  level: 6
  lon: -88.247404
  name:  'Larry Kanfer Gallery'
- ap: 2724
  img:  'http://lh4.ggpht.com/HEEvU2OlgWiV5huAu3cvNKaI-C8YKYTO3qB8WMTO7EbsjTO84KS6jLjbGCq7THZq6l63UiUKCSEqY2IADYns'
  lat: 40.091766
  level: 7
  lon: -88.250003
  name:  '"The Cranes" at Fox Corporate Center'
- ap: 2724
  img:  'http://lh3.ggpht.com/-xag7tp3BReTAhfRmVAvpMw1Af15prESg4rve7QnsiIC5IKmKjBszxDIj8F212BmRU1apH_2u_9wAmq58_91'
  lat: 40.114157
  level: 7
  lon: -88.238621
  name:  'Bombay Indian Grill'
- ap: 2724
  img:  'http://lh3.ggpht.com/2wN9MWxEFPbMzRPAzNmaAiCOQJj_EFr94Y1YkQP_wMlyajkajmcw00gqW-EluMvpQmvnGgcQ-WdPxjcYTmr2'
  lat: 40.106519
  level: 5
  lon: -88.223748
  name:  'Thunderbird Theatre Mosaic'
- ap: 2724
  img:  'http://lh4.ggpht.com/0j8eeTKJgjnYhHpf4qH_70CZHLbujC5v-XP_ndcqh1xIR-5V2K_CGdjIe1ZfMbwvSyISxxYKoZynw1DaQcj8'
  lat: 40.105874
  level: 6
  lon: -88.230562
  name:  'St. John''s Rectory'
- ap: 2724
  img:  'http://lh5.ggpht.com/1yq3oFq9p_Yl5cUf5h7IEfZPAbae2MT7lA0DFo1DHwPWPZJJ-Ez-2AE2oTzHEHWsEJQVUcUwh3j_d3kOYgDS'
  lat: 40.110095
  level: 6
  lon: -88.22862
  name:  'Alma Mater Plaza'
- ap: 2724
  img:  'http://lh3.ggpht.com/3WnMbDq1Vm3HiqAM5qk1r9m3OqcO-YUN0nCOt2yRfUxVWLZ-8huxevlCI0JnIJgpSBZN4mtw0gxJnrGtuaS9iUf7k-JFfmRGRkBXQafWO9MIk_oJ'
  lat: 40.115491
  level: 6
  lon: -88.227358
  name:  'Arnold O. Beckman Statue'
- ap: 2724
  img:  'http://lh6.ggpht.com/LxVyXEFJmvSZ271mlFfYmCwyb05Kz8cIRxzMt24ZVhRzsH09nxErJw4gKErktjKpCARWfVl4Mla70NoODK2bng'
  lat: 40.11187
  level: 2
  lon: -88.220692
  name:  'Atmospheric Sciences Building'
- ap: 2537
  img: http://i.imgur.com/5j1qaiT.png
  lat: 40.482592
  level: '?'
  lon: -88.913556
  name:  '94d4c2ef89bb40a99619bf872b2a04e5.16'
- ap: 2537
  img: http://i.imgur.com/5j1qaiT.png
  lat: 40.273121
  level: '?'
  lon: -88.676169
  name:  'a63c9ba7a3a6429fab01573c4828baa2.16'
- ap: 2537
  img: http://i.imgur.com/5j1qaiT.png
  lat: 39.789101
  level: '?'
  lon: -88.269694
  name:  'abe975a0621e484493d088242128d168.16'
- ap: 2537
  img: http://i.imgur.com/5j1qaiT.png
  lat: 40.312242
  level: '?'
  lon: -88.201368
  name:  '2012 Employee Dedication Bench'
- ap: 2537
  img: http://i.imgur.com/5j1qaiT.png
  lat: 39.966649
  level: '?'
  lon: -88.345263
  name:  'f91d12c0ef074e13a5978fa658722945.16'
- ap: 2537
  img:  'http://lh6.ggpht.com/5R8z1wwducaGMkvLFryu9HzC91eX02E3KDY04s9Il7Qrdw8efQiRGZ_vbgqW0Fuvp4-I_d9ugFC6lPc7lxia'
  lat: 40.113465
  level: 4
  lon: -88.291684
  name:  'Anna Jean Russell Memorial Tree'
- ap: 2537
  img:  'http://lh3.ggpht.com/Uce4t5Ws7-KzD_MUqPDowXTtAg4burxyAm5ez3FhjTqU4ctVVDwec8NkSjzcauhAUbdqgYCAPNIeQ7dolo4t'
  lat: 40.128012
  level: 6
  lon: -88.289763
  name:  'In Memory Of Marian Rodemer'
- ap: 2537
  img:  'http://lh5.ggpht.com/Ubq0MuIsu5MU-I8JiOC7oX_aheDNBNsG-UlSMPqA5BRkHJX9BDDUPWGQxXllzVgaxFeo23u3zu_hlJesprpNJg'
  lat: 40.133421
  level: 6
  lon: -88.280893
  name:  'Greenbelt Bikeway'
- ap: 2312
  img:  'http://lh5.ggpht.com/ZfmaOk3UM4PNzP-z0AvBPFqYLc6wAEDSPhL1cSVjXMAFSv4Jadm-hV--eP3OaJuaksphYKN5s6bhWhluTGs'
  lat: 40.133327
  level: 4
  lon: -88.280335
  name:  'Prairie Grid'
- ap: 2537
  img:  'http://lh5.ggpht.com/XSTOU98iZoBFcDNR_YYJQfmQaiD_vXAP5Z7R79nVC7k06VMhH8tHSb9Yb9Pe8OnV1svwvlvy6iyz6vMjg3_EzA'
  lat: 40.132804
  level: 6
  lon: -88.285013
  name:  'W Glenn Karr Memorial Plaque'
- ap: 2462
  img:  'http://lh5.ggpht.com/IgNzl1mq8OGLo32nCph_TZvtqlPh79vEYYvHZb2F6YXW1jx9_ESV5dv13U9k7CRftyKHGoW2RtSSUFzPKbU'
  lat: 40.113072
  level: 4
  lon: -88.289765
  name:  'Kaufman Park'
- ap: 2537
  img:  'http://lh6.ggpht.com/8_R0pnNTQT-uPiI9xeaPyYDmeMcnxaXImr4VqMnz2F_aNrFJ7wlemeLAXHdvRZ4XyYZnScYGhpFFs_XS9dJ1'
  lat: 40.11727
  level: 3
  lon: -88.286997
  name:  'Kaufman Lake'
- ap: 2537
  img:  'http://lh5.ggpht.com/7MD3uqic9NvHKG2s5NBkAL6kdsBT10BzFJ6jTSaOfZS8mbyTlRDRYtizrxfH8ZvyqpRWXJHgmC5bk9imHqQf'
  lat: 40.114042
  level: 6
  lon: -88.289889
  name:  'Optimist Club Dedication 1991'
- ap: 2537
  img:  'http://lh5.ggpht.com/tuo_ByFTbwLitFP5cBseOibqRxENxbCwOJ30dCnja5ijBI_qBv5vqNP7ZuZXnxhYM6ms_GbExZEwwKVUtwV2'
  lat: 40.093712
  level: 5
  lon: -88.281583
  name:  'Brownfield Dedication'
- ap: 2537
  img:  'http://lh6.ggpht.com/p2F3xw4xL4UdiMM9aSy628ISSglrvjPexpF3j340tMAP9MX07yh_sJv7kHVkeud8lyFf2ZwDohw3zsRS2PSd'
  lat: 40.093914
  level: 5
  lon: -88.281531
  name:  'Terry M. Warmbier Memorial'
- ap: 2537
  img:  'http://lh3.ggpht.com/tWkX3XHLpAuapetLdnd8UYjpBeSYbR89poy4fpll1Rfdn2Tp-7KMqHHkFtvKl8rlcd3bngVxc9wc3K0Cnlvd'
  lat: 40.136033
  level: 2
  lon: -88.238373
  name:  'John "Skip" Pickering Dedication'
- ap: 2537
  img:  'http://lh6.ggpht.com/duOeXcOSQLWosdD0JJXg3pWWQp4t5sL0x9qDHoTIBFNOzEW0t53Lt2cnwgV2E_Su0l1ajIQxPtVbbK_sDRaS'
  lat: 40.141775
  level: 2
  lon: -88.242671
  name:  'Marketplace Mall Fountain'
- ap: 2537
  img:  'http://lh3.ggpht.com/9aQBG-poFARclK9XL7iFIvWePkawZwWhv4Sh0zQhQ0Sy9gdDD508d4gCtpcUP9UNoYM6uztea0aQ05RPd9rZLg'
  lat: 40.115412
  level: 7
  lon: -88.245046
  name:  'Eddie Thorpe''s Memorial Rock And Tree'
- ap: 2537
  img:  'http://lh6.ggpht.com/_k_xJSt6mwst9haWnz5tw__yVrH9BLFSKnCMCEw9V271FMTnmEoDA4E6HprjvPTSiaBeKZmxdG3waPIapBMa'
  lat: 40.125369
  level: 6
  lon: -88.250074
  name:  'Mini Park VIII'
- ap: 2537
  img:  'http://lh5.ggpht.com/ONr7OWgjlaWwJELaKTJEC1ZVpkIkuN-2c01D2AligYZC9Zbt8lH0SMkirhrWfHdjmVDmCtzhJWoVxoZM-NM'
  lat: 40.116766
  level: 4
  lon: -88.247614
  name:  'Mary Shaw Memorial Tree'
- ap: 2537
  img:  'http://lh3.ggpht.com/yeYI3q7rDQLA5xBcWfH-Caw2Uh740ZPRQjjyvOrZz7ZyLI-gxBpi8yqxqDrlOBzG9YHs6YlxdgX0obTpXlQ'
  lat: 40.117681
  level: 6
  lon: -88.241405
  name:  'Jupiter''s Downtown'
- ap: 2537
  img:  'http://lh6.ggpht.com/Jltxi7PZ9OVi8hBCUxdt9oxXQk9zmbrtHpM_jru2WhVYyY0UkNZ8h5SU3CdwMRNzZ1ZKabPR8hDCPz7p3Ms'
  lat: 40.114439
  level: 7
  lon: -88.245013
  name:  'New Covenant Fellowship'
- ap: 2537
  img:  'http://lh6.ggpht.com/IaC06rT1aNxUg_4UOc0RHOio2PUjl5w1cZcGYE56zHNZN9ZeRuAGzoAPG4XB6eJURfP8M5v7bDcq_AdB1E5A'
  lat: 40.119861
  level: 6
  lon: -88.238491
  name:  'Skelton Park'
- ap: 2537
  img:  'http://lh3.googleusercontent.com/L3lfMswaooWEA3nJNFGES354rtENCzxYkoWuVLXEXaTiXbqTNnsl34TRd8tbMwnGQHkAnr37-HLMutIe3_Uz'
  lat: 40.117254
  level: 4
  lon: -88.247074
  name:  'Westside Park Double Dutch-A Jump For Joy'
- ap: 2537
  img:  'http://lh3.googleusercontent.com/FMrsRGg4e1AuMu6m4uCIpM5nawtelx8reIfMtog4nuxXU9C7--UKQnUEAm9s4Vc7OfMjfIDX5loNOw4Agz2HAw'
  lat: 40.118715
  level: 4
  lon: -88.242373
  name:  'Richard D James Mural'
- ap: 2537
  img:  'http://lh3.ggpht.com/HW1b8GEkWmutU8Hsv_zX2TXNh-iirGoXN5HmxCJd5nc3o1VeCkahkCZ_vbSxOB_ffrBlWW3M-LLMSo97tg-c'
  lat: 40.123709
  level: 5
  lon: -88.250518
  name:  'Spalding Skate Park'
- ap: 2537
  img:  'http://lh4.ggpht.com/ZEK-DXu7TJqsrt7cbLRjXyr3JbENJCn1FaKxH4Oi6kEvo4K0Yzm5qzMddhRLNlXvokAwQoeG4EKaNkXnJDA'
  lat: 40.114015
  level: 7
  lon: -88.245256
  name:  'Firefighters Park'
- ap: 2537
  img:  'http://lh6.ggpht.com/uyv64Hvc1y5cxlCwT2wsWkD3sPpcam6VXjBGrZ5qOpqIyyynSqXKCeBXqdW39vyyoAaOpvm-gIHYaE_bit8'
  lat: 40.120632
  level: 5
  lon: -88.243669
  name:  'Colonel Sidney Gauntlett Cornerstone'
- ap: 2537
  img:  'http://lh6.ggpht.com/yQPHFh4brRKGyXx9PtGN3hQza65T2PIyjArUf9NgW5fqFvx9m22oY2acMcEwFcVRNh0MTfGqc0WfMJFOt1io'
  lat: 40.10725
  level: 7
  lon: -88.244219
  name:  'Titan Games'
- ap: 2462
  img:  'http://lh6.ggpht.com/Sz4BABPqyoIyZVGpSBEM1QNIxPngQLl7hopqjyVJi_fak1xgpFAX_X7TbK6tICEaYnLrvC1hV2jv-AwPofQX'
  lat: 40.090038
  level: 4
  lon: -88.249379
  name:  'Three Hierarchs Orthodox Church'
- ap: 2537
  img:  'http://lh4.ggpht.com/aXG2XQNJXyPDBz0o8tyfv07VIfskZuFMOWW2ylZpZKkWMnFjoiBmBiWg2VedsjdIorpfX5mtUGnwVLFb7Ga6'
  lat: 40.091438
  level: 7
  lon: -88.25077
  name:  'Fox Development Corporation'
- ap: 2537
  img:  'http://lh3.ggpht.com/STEfnDDHEff3fffoWiEjvWm4SETgCRyRIvPgf92kzrsxo3sdh1SNg1AmGiFqvspDfSx0OXri-AXVfOZRWRMe'
  lat: 40.13156
  level: 7
  lon: -88.239027
  name:  'Human Kinetics Park'
- ap: 2537
  img:  'http://lh4.ggpht.com/Hh8nntyxb361BGSJYy1ZxuMtkf5y1GXg3rEVqwI-1uwEH4MdL3b4JBnHLsxsMX1rCbbIWWVPDeDEsK6nvnyBGQ'
  lat: 40.124947
  level: 5
  lon: -88.210509
  name:  'Trail Marker in Busey Woods'
- ap: 2537
  img:  'http://lh5.ggpht.com/szWXjFVU67N6nJHeZbrcsC2b8J7kXF7nBh_RooZZ5-ezcJsxWUvA7NZrGjJxfwTzVkc2HYMYLwh19UaYEbm3-Vmu4ZAG8959ZOG44cpeeyoUHtkD'
  lat: 40.108422
  level: 5
  lon: -88.227811
  name:  'Henry Administration Building'
- ap: 2537
  img:  'http://lh5.ggpht.com/fGRHfMAqdWrUnPE8GStKSdMkgQmu9qvuxAC4VzcU1v2KyxQu2BeuJKhvhefSeFNTkgFh6YdR-F4P6plMbh0'
  lat: 40.110194
  level: 5
  lon: -88.231488
  name:  'Fighting Illini Memorial'
- ap: 2537
  img:  'http://lh3.ggpht.com/1JgqaWx4DIU04ms-XmufSumQ5BDP07SB97-kBjzxDePlLQR9HagCTfqdviW9ErxCqpvXgynqeosQhERhCat6'
  lat: 40.108781
  level: 5
  lon: -88.226388
  name:  'Illinois State Water Survey Plaque'
- ap: 2537
  img:  'http://lh5.ggpht.com/Z2EWM4D6YQHuqnLwtuPBawyQBZxTzVe9E17MKc8jOZkO0ZzkuD5zSQslY2iuXkkUnztPteUeOSHrSTz3voHC'
  lat: 40.111166
  level: 4
  lon: -88.228747
  name:  'Boneyard Creek Mural'
- ap: 2537
  img:  'http://lh4.ggpht.com/7U0YXCB_DIhnqPJyjyLpNn6kg4lU8HvKL87ddBKWq1sptvVLvCEiCuNEnghQtqDGSN2OBNcOUK9nZcYjY4Vr'
  lat: 40.107887
  level: 5
  lon: -88.225998
  name:  'Lifesaving Antibiotic Plaque'
- ap: 2537
  img:  'http://lh6.ggpht.com/BzDhCANV_iNTHhKFBGLuaUqOvChRZtPWnJ2Xk4h7NsKJHmTGgCWtFHWv2PpDA2fCsHHKSCRTrUNK8AKrLRnS'
  lat: 40.108066
  level: 7
  lon: -88.230687
  name:  'Community United Church of Christ'
- ap: 2237
  img:  'http://lh4.ggpht.com/3_LELG2r-A5s2d-x2dWyz6h7HzfjVR_KZn9AG0vhih9EalQIG43iL6LdKqKNpnGdGwguP9ZfnGF0KMq_KDE'
  lat: 40.105799
  level: 3
  lon: -88.230188
  name:  'Color Glass Windows at the Newman Center'
- ap: 2537
  img:  'http://lh4.ggpht.com/9hzMj8KV-HraIucojjHAEgyMZsJAR9TWvNS-QSBB5LTYBOTwwqfTQySJ_Sz88eP3eyFWFYhx5qDVY93t8fk'
  lat: 40.108032
  level: 6
  lon: -88.225702
  name:  'Centennial Court'
- ap: 2537
  img:  'http://lh5.ggpht.com/gkIcCbfmQWyJ7s9ryhzfOOn1K-oa8huqzZN80X2psVjx_6Iur5egjGncbUIAMLiAJAf9qG1Ac8lX2MomHYY'
  lat: 40.108185
  level: 7
  lon: -88.225203
  name:  'Statue at Medical Sciences'
- ap: 2537
  img:  'http://lh6.ggpht.com/zWA9oEWgYXqhHKxwjF70i6tatfh4n_UP_yKWyw1wRb7iRQ_xIPydArwu3FfgUglzl6oxCpNLNXahWbyLjJUZ'
  lat: 40.108821
  level: 6
  lon: -88.228411
  name:  'John Milton Gregory''s Grave'
- ap: 2537
  img:  'http://lh4.ggpht.com/RweWMyuvBgAFSULZ8Wlp43vydPiEhELt6PCp8R9_ZJHCPvMTutxfO2z4hDsrhsFAYbjrh4a1uZeaOz6mWCJD'
  lat: 40.106958
  level: 4
  lon: -88.228125
  name:  'Engraved Poetry on the Lincoln Hall'
- ap: 2537
  img:  'http://lh4.ggpht.com/GCS0-CwKl9SLe2zfeL7FPDuKv5ZFDhlnX3hMXZSJLvK-u73RlgWbn_FgnOHZi-0wqMk52z_YLSAMReYTSaoP'
  lat: 40.10659
  level: 4
  lon: -88.227679
  name:  'Lincoln Hall'
- ap: 2537
  img:  'http://lh4.ggpht.com/BakPypxJUdTOMFo4cSzlewsmPlHw3DyQp4kVY2zAFfJvhvj9CnaQm6cqvB22BqjknBbUYxEb_eYnIZ2skgfO'
  lat: 40.11586
  level: 5
  lon: -88.227238
  name:  'Flow'
- ap: 2537
  img:  'http://lh6.ggpht.com/dmdoQn_snqIn6BdQ3XJFlx9FymfRalBxsT7fXXRSopbRaxiMoWzdC-LZBD-OymkgnPuGleuDWaQ_Ou_cqX0y'
  lat: 40.112912
  level: 5
  lon: -88.220206
  name:  'Peace Garden'
