- ap: 5722
  img:  'http://lh3.ggpht.com/rgh_2qJQUPC1OrARUkiQqPKoNReiqZYOimm5Nszb77pDh72OszuyiJBKn-vDxHUuyjO2XTeKU9GBHc3oHIYr'
  lat: 40.115283
  level: 5
  lon: -88.287899
  name:  'Greenbelt Bikeway'
- ap: 5348
  img: http://i.imgur.com/5j1qaiT.png
  lat: 40.272743
  level: '?'
  lon: -88.675349
  name:  'Adams Leaning Wheel Grader'
- ap: 5348
  img: http://i.imgur.com/5j1qaiT.png
  lat: 40.878365
  level: '?'
  lon: -88.777245
  name:  'a58a2b0d69594c249e6fa1e2f1d103b1.12'
- ap: 5348
  img: http://i.imgur.com/5j1qaiT.png
  lat: 40.334333
  level: '?'
  lon: -88.766527
  name:  'e080a514718246ae91d93e990746b2a9.16'
- ap: 5273
  img:  'http://lh6.ggpht.com/5R8z1wwducaGMkvLFryu9HzC91eX02E3KDY04s9Il7Qrdw8efQiRGZ_vbgqW0Fuvp4-I_d9ugFC6lPc7lxia'
  lat: 40.113465
  level: 5
  lon: -88.291684
  name:  'Anna Jean Russell Memorial Tree'
- ap: 4598
  img:  'http://lh4.ggpht.com/vKkSwERLa3zQO2UUIiYl1AEruAx1QTPcP4jSmPt89PG4AviJ1WhlVVH8qmqJ0aY2gqJmHcqdZFcM2pQconc'
  lat: 40.139375
  level: 5
  lon: -88.272793
  name:  'Salt And Light Ministries'
- ap: 4598
  img:  'http://lh5.ggpht.com/ulBje3DZHcOGkPDTXihNL1tamRAm_GO1CREW8fA5fV0Znq1eF2J1hnbSZh35emEA1h9cL1qTj9FqGtb8VywgXQ'
  lat: 40.13765
  level: 4
  lon: -88.273074
  name:  'Garden Hills Park'
- ap: 4598
  img:  'http://lh3.googleusercontent.com/hJZWoErzM-MuXulq4FlhlZwMbJX1Isd81GBUBVKayd57jVIVxUle3itd-1DRKo2VaNXznWr1X639fa44Etk'
  lat: 40.141919
  level: 6
  lon: -88.244611
  name:  'Marketplace Mall Carousel'
- ap: 4411
  img:  'http://lh3.ggpht.com/07XrBN-er6Ecleor0n9RJ4DfGO6B2yn-ZxjI-Uy8Ba46Jtb6cXNVmATPiPiGyk-1jZ4wxa7-EeIWbWUqArCG'
  lat: 40.142554
  level: 5
  lon: -88.243468
  name:  'Dog Heart'
- ap: 3848
  img:  'http://lh6.ggpht.com/duOeXcOSQLWosdD0JJXg3pWWQp4t5sL0x9qDHoTIBFNOzEW0t53Lt2cnwgV2E_Su0l1ajIQxPtVbbK_sDRaS'
  lat: 40.141775
  level: 6
  lon: -88.242671
  name:  'Marketplace Mall Fountain'
- ap: 3661
  img:  'http://lh3.googleusercontent.com/E_ZPlSyleqUMg0OilyQYOVjaoZT-y4SbH4plEyw9dIUNETTaaR5s71RJOIy8h5u1Ae97gUfiLGrIdMPXjNQ'
  lat: 40.11727
  level: 5
  lon: -88.286997
  name:  'Kaufman Lake'
- ap: 3661
  img:  'http://lh5.ggpht.com/7MD3uqic9NvHKG2s5NBkAL6kdsBT10BzFJ6jTSaOfZS8mbyTlRDRYtizrxfH8ZvyqpRWXJHgmC5bk9imHqQf'
  lat: 40.114042
  level: 5
  lon: -88.289889
  name:  'Optimist Club Dedication 1991'
- ap: 3661
  img:  'http://lh5.ggpht.com/QruW49d2dc1uhQlK1BaZIeo6ruDNkqQfmvZz83eQ-1aC9ytGUcpFaHnKRTnXRc70F2EZ0-pVKGr9Slo0_9RfxA'
  lat: 40.139749
  level: 5
  lon: -88.273955
  name:  'Northside Church of Christ'
- ap: 3474
  img: http://i.imgur.com/5j1qaiT.png
  lat: 40.940924
  level: '?'
  lon: -88.579844
  name:  '11a3e2cd969c410eb119ebd99257965e.16'
- ap: 3474
  img: http://i.imgur.com/5j1qaiT.png
  lat: 40.392777
  level: '?'
  lon: -88.872222
  name:  '457d173f728846fbaf0e7d83f3625cba.11'
- ap: 3474
  img: http://i.imgur.com/5j1qaiT.png
  lat: 40.009462
  level: '?'
  lon: -89.285372
  name:  '2004915b6d3348c89d837978cd9cd14e.16'
- ap: 3474
  img: http://i.imgur.com/5j1qaiT.png
  lat: 40.315862
  level: '?'
  lon: -89.169925
  name:  '5309f922fe6c4222b4d34f8cde23db27.16'
- ap: 3474
  img: http://i.imgur.com/5j1qaiT.png
  lat: 39.978874
  level: '?'
  lon: -89.840093
  name:  '64d1742712134348ad75e983d6019cbf.16'
- ap: 3474
  img: http://i.imgur.com/5j1qaiT.png
  lat: 40.441099
  level: '?'
  lon: -89.313489
  name:  'fa303e162e1349c7ac2d93cf3df18bf0.16'
- ap: 3324
  img:  'http://lh3.ggpht.com/PijfKs7HCJf1vVcIxcTF1HPOYaa5iS4ZECXZUQ2dDDSn9ZCXSd8FGHThRUiEIC-oMNmClt0seIzn8FsaGPER'
  lat: 40.112752
  level: 4
  lon: -88.289696
  name:  'El Toro Fountain'
- ap: 3474
  img:  'http://lh5.ggpht.com/pSVHjk6puyYdv3ztHlpJGnbkZyGsGsirMnxkDhlt8UMko4AhtTQbrzwInBCu5lK4Ttf7furE5pNW2AZh8HuSZQ'
  lat: 40.138109
  level: 5
  lon: -88.270158
  name:  'Glory Center International Church'
- ap: 3474
  img:  'http://lh5.ggpht.com/nWEtxuKQdy0teBBue1DYmG7P3SF5-3A6zlB7GwVHBWlolAZYGq6Br78lWcF9ltFy-KeSlozXie2RmU6JfCUX'
  lat: 40.142673
  level: 5
  lon: -88.244603
  name:  'Italian Statue'
- ap: 2724
  img: http://i.imgur.com/5j1qaiT.png
  lat: 40.312242
  level: '?'
  lon: -88.201368
  name:  '2012 Employee Dedication Bench'
- ap: 2724
  img: http://i.imgur.com/5j1qaiT.png
  lat: 40.172593
  level: '?'
  lon: -88.239993
  name:  'Faith Baptist Church'
- ap: 2574
  img:  'http://lh6.ggpht.com/XsUl74M1oxj6ptAvGEBOMH2wivRhxBNns62UJSGcPiQkuJIgPrmUYxMpSZZUfXRMMjrwoxlFK_DbAM78UrOh'
  lat: 40.113499
  level: 4
  lon: -88.244374
  name:  'Shatterglass Studios Mural'
- ap: 2724
  img:  'http://lh3.googleusercontent.com/O0A6xsiat2O0IjuyckSS9k1cq1UOF3Cie-GIi1L5d58akNeRMYcb7agKQErL26RwfdgTl-W4anRPPhu-lKpy'
  lat: 40.128515
  level: 5
  lon: -88.212038
  name:  'Busey Woods Trail - A Helping Hand'
- ap: 2724
  img:  'http://lh3.googleusercontent.com/5Te-dafekqHMAY-HjKfNk0CcYyFpxK86OuYWSOTFv8saT6pfl_rqyJMVlnF2ccsu1T2mA6ScXOl5SUPIMypR'
  lat: 40.126769
  level: 5
  lon: -88.215041
  name:  'Busey Woods Swampland Overlook'
- ap: 2724
  img:  'http://lh3.googleusercontent.com/__dofGL-oELNLYymrJ5VDONThxrG0oMe5aQcopgTFJgu56wHeV1y-scJDNms_C4LRoqDe-qKwDBNRNkCiJnNUQ'
  lat: 40.127703
  level: 5
  lon: -88.211526
  name:  'Busey Woods Trail - Wet to Dry'
- ap: 2724
  img:  'http://lh5.ggpht.com/n-WJVk4VFfgCVfLuyItrEjDCHgOd5YN1Z1ts6qT6-RmXvFyDeNKYarXwzwHKyd5B9tGmezRoEzKX4EFKmaY'
  lat: 40.124947
  level: 5
  lon: -88.210509
  name:  'Trail Marker in Busey Woods'
- ap: 2537
  img: http://i.imgur.com/5j1qaiT.png
  lat: 41.656745
  level: '?'
  lon: -90.077607
  name:  'dfffcd70df9842bcb26c93e06ed75bd7.12'
- ap: 2537
  img: http://i.imgur.com/5j1qaiT.png
  lat: 41.570778
  level: '?'
  lon: -89.127801
  name:  '4bf70cbe46bb41489e8108e397ed5b30.16'
- ap: 2537
  img: http://i.imgur.com/5j1qaiT.png
  lat: 40.196436
  level: '?'
  lon: -88.380815
  name:  'e3f5b5440cee404493661424c7ba263c.16'
- ap: 2537
  img: http://i.imgur.com/5j1qaiT.png
  lat: 41.37168
  level: '?'
  lon: -90.165095
  name:  'c95c110111b44cd08149a1712123ed13.16'
- ap: 2537
  img: http://i.imgur.com/5j1qaiT.png
  lat: 41.556376
  level: '?'
  lon: -89.460081
  name:  '6c12dc3974dc45158c01b41e37791b4b.16'
- ap: 2537
  img: http://i.imgur.com/5j1qaiT.png
  lat: 40.121245
  level: '?'
  lon: -88.646546
  name:  'fc8d491c7aca43cd85f6b908fdeb1e0b.16'
- ap: 2537
  img: http://i.imgur.com/5j1qaiT.png
  lat: 42.734611
  level: '?'
  lon: -87.772005
  name:  'ed9c6f0f26c844e1be1b506defbab8a5.16'
- ap: 2537
  img: http://i.imgur.com/5j1qaiT.png
  lat: 41.962826
  level: '?'
  lon: -87.634756
  name:  '247a6de775a146a4accf8b1a11a1e0cc.16'
- ap: 2537
  img: http://i.imgur.com/5j1qaiT.png
  lat: 39.986664
  level: '?'
  lon: -88.263703
  name:  'a85dfd2e3bf348b187b00223745cd8ad.16'
- ap: 2537
  img: http://i.imgur.com/5j1qaiT.png
  lat: 39.970363
  level: '?'
  lon: -88.349161
  name:  'b5cc5d8af6734321b8c8b1abb7dc3dc6.12'
- ap: 2537
  img:  'http://lh3.ggpht.com/5awYU9vtQhrJgqVWTgorW3FfOKgjEZtgRjWYRBTLqZxOOiuKje_aALtsSDOrslkMHWZqO4ZLwael60DZWxY'
  lat: 40.111807
  level: 4
  lon: -88.295361
  name:  'Unity Baptist Church'
- ap: 2537
  img:  'http://lh5.ggpht.com/8EXhrgcMBH0nDBQWTAlAwNIhxzaY7maIjYjg3fJnzGIp6_FNs98dPrYY4mtl4vhkPI5WQ1Xp8_V4vj2hAb9a'
  lat: 40.112026
  level: 5
  lon: -88.295327
  name:  'Carpenter''s Union Hall'
- ap: 2537
  img:  'http://lh3.googleusercontent.com/GDPeCcTdJQAFt7LgbquPo-YOAp7bq5HCFbElMBeXztI4hraTGO-j1GcNOwKaaSRRLcEHG13Gu-VDboEG4a7-'
  lat: 40.149097
  level: 6
  lon: -88.276148
  name:  'Illinois Heartland Library System'
- ap: 2537
  img:  'http://lh3.googleusercontent.com/3nkY0B9PDqzlWJ_EKh5GnTZ8z0U6X9-2dI5dapKA5Q3F4iKrE99AJZoy6NSvh2nU1WTG2hL70276yJjJ0G8'
  lat: 40.141598
  level: 5
  lon: -88.238817
  name:  'Red Shield Center'
- ap: 2537
  img:  'http://lh3.ggpht.com/6Fer3GtYrst46oErqZdyi-cArt8MkVMBnho4Lei9skNu9ne3ktFspBwKvXS0rum8O2K7Qpso6J6lO0sipio'
  lat: 40.110656
  level: 6
  lon: -88.240991
  name:  'Mural At Wild Side '
- ap: 2387
  img:  'http://lh3.ggpht.com/IKYzmqr6aeIX2d99jn1dQHjjq0-h7glRdyPEPoTdQnggoAgc8uutzh3X4OYjcCllXVp5r9rYyYnVPwNALI8B'
  lat: 40.115178
  level: 4
  lon: -88.246191
  name:  'Clark Bar'
- ap: 2537
  img:  'http://lh3.ggpht.com/9aQBG-poFARclK9XL7iFIvWePkawZwWhv4Sh0zQhQ0Sy9gdDD508d4gCtpcUP9UNoYM6uztea0aQ05RPd9rZLg'
  lat: 40.115412
  level: 5
  lon: -88.245046
  name:  'Eddie Thorpe''s Memorial Rock And Tree'
- ap: 2537
  img:  'http://lh5.ggpht.com/wX6-mbTE7nT00T6ildapKbI5ZrnhPIt4l91DhMseyo3GYFrgQIuqbjh8ntZY6NxGZ-qa6fKWlyoBOPdIdNIt'
  lat: 40.114653
  level: 7
  lon: -88.243729
  name:  'The Phoenix'
- ap: 2537
  img:  'http://lh4.ggpht.com/vLN74xdc8Mdgab4UjP1QUbyX42bkPBXnIqzYzkmRDi4naHiBk2kM1wUA7Mx3Pxl1dpPoMBAg9pV956MqTDk'
  lat: 40.068391
  level: 5
  lon: -88.242282
  name:  'Dohme Park Flags & Mural'
- ap: 2237
  img:  'http://lh3.ggpht.com/dlNcqhZvSXijpkfvwOrcW3aTD-ILaZMONMnmaEZv35uhdz7QbonCx9poCoucdHPTAu4q8P67w-GccKI-V7n2'
  lat: 40.068578
  level: 1
  lon: -88.241988
  name:  'Ernest R & Marian Adair'
- ap: 2387
  img:  'http://lh5.ggpht.com/MWJ2u6CgyftB6h05_WRqj_eYi-vhbwuOZ_9mxAS3eS-wY6XbpKlfBgzmohkwEj6Q2FoR0mm678IAtKTcei8'
  lat: 40.106846
  level: 2
  lon: -88.226647
  name:  'Illini Supersweet Corn Plaque'
- ap: 2237
  img:  'http://lh5.ggpht.com/pnMcOl0FAs-A861T6mvs4EQGCm08ZQGxUcMdclhxsgyUThD6KymilbixZqTcT464ZFRUnjMoFee37DuNXxcm'
  lat: 40.10719
  level: 2
  lon: -88.226585
  name:  'College of Agriculture'
- ap: 2537
  img:  'http://lh6.ggpht.com/xxeIna-Mp_s6sWP2q0pQb8ArgRjTHMAPs_70QPHu6125M3ToW1y8q40xpyyMdqzNrz8XipF7ZIQUKsy1fBtX'
  lat: 40.116846
  level: 3
  lon: -88.19223
  name:  'The Ambucs Park Woodland'
- ap: 2537
  img:  'http://lh5.ggpht.com/0Ll2ab4pgOcvmpTrWmn4pfXaPEf2myKfU4AJY7_vKquWsFLrHBYTczg-A6Z96aQQu83na1h1jmcUN88wcd6H'
  lat: 40.117139
  level: 3
  lon: -88.191974
  name:  'Ambucs Express'
